timestamp,open,high,low,close,volume
1767844800000,90813.40000000,91188.00000000,89641.84000000,90548.02000000,3107.77644000
1767859200000,90548.02000000,90917.22000000,89777.25000000,90226.77000000,2431.28077000
1767873600000,90226.77000000,90847.52000000,89311.00000000,90781.57000000,4384.25882000
1767888000000,90781.57000000,91469.00000000,90312.89000000,90937.41000000,2656.58930000
1767902400000,90937.42000000,91493.00000000,90568.11000000,91099.99000000,1758.04393000
1767916800000,91100.00000000,91632.10000000,90850.00000000,91220.23000000,1573.86844000
1767931200000,91220.24000000,91236.72000000,90738.34000000,90741.84000000,1493.55612000
1767945600000,90741.85000000,90843.77000000,89694.66000000,90463.11000000,2586.72373000
1767960000000,90463.12000000,92082.55000000,89850.00000000,91176.47000000,5694.36060000
1767974400000,91176.48000000,91783.32000000,90190.00000000,90332.15000000,2962.09045000
1767988800000,90332.14000000,90732.01000000,90113.87000000,90641.28000000,1279.68005000
1768003200000,90641.27000000,90782.23000000,90527.99000000,90626.14000000,528.98968000
1768017600000,90626.15000000,90682.70000000,90408.23000000,90678.50000000,491.62648000
1768032000000,90678.50000000,90832.00000000,90618.28000000,90723.86000000,647.39632000
1768046400000,90723.87000000,90788.78000000,90538.46000000,90665.75000000,414.48163000
1768060800000,90665.76000000,90746.00000000,90504.55000000,90626.54000000,530.14761000
1768075200000,90626.54000000,90659.03000000,90404.00000000,90504.70000000,491.47550000
1768089600000,90504.70000000,90737.95000000,90451.10000000,90733.50000000,463.88039000
1768104000000,90733.49000000,90850.00000000,90585.34000000,90710.79000000,546.84342000
1768118400000,90710.80000000,90816.00000000,90610.27000000,90754.99000000,694.37617000
1768132800000,90754.99000000,91191.50000000,90708.25000000,90875.79000000,1144.02813000
1768147200000,90875.79000000,91283.89000000,90673.30000000,90690.80000000,961.40735000
1768161600000,90690.81000000,91041.79000000,90236.00000000,91013.65000000,1666.60048000
1768176000000,91013.66000000,92519.95000000,90700.29000000,91808.12000000,3786.46912000
1768190400000,91808.12000000,92290.81000000,91381.36000000,91408.09000000,1706.23351000
1768204800000,91408.09000000,91630.13000000,90370.00000000,90620.96000000,2761.14204000
1768219200000,90620.95000000,91665.00000000,90128.44000000,91665.00000000,2904.06995000
1768233600000,91664.99000000,92332.00000000,91000.53000000,91861.27000000,3629.97324000
1768248000000,91861.27000000,92046.23000000,90938.20000000,91296.20000000,1400.19482000
1768262400000,91296.20000000,91546.08000000,91042.66000000,91408.91000000,1312.52459000
1768276800000,91408.90000000,92275.38000000,91350.71000000,91942.00000000,2568.59009000
1768291200000,91941.99000000,92672.11000000,91924.27000000,92000.74000000,2545.21662000
1768305600000,92000.73000000,93450.00000000,91787.61000000,93449.99000000,4336.89557000
1768320000000,93449.99000000,94231.82000000,93078.31000000,94226.84000000,4752.59807000
1768334400000,94226.85000000,96495.00000000,94062.00000000,95414.00000000,7505.68988000
1768348800000,95413.99000000,95722.01000000,95116.03000000,95720.99000000,2381.89992000
1768363200000,95720.99000000,95799.22000000,94559.28000000,95205.10000000,2873.63420000
1768377600000,95205.11000000,95315.15000000,94737.95000000,94792.99000000,1756.03488000
1768392000000,94793.00000000,97084.68000000,94680.67000000,96764.57000000,6031.62524000
1768406400000,96764.57000000,97777.00000000,96246.56000000,97267.42000000,6680.63165000
1768420800000,97267.42000000,97924.49000000,96772.02000000,96951.78000000,3128.06839000
1768435200000,96951.78000000,97000.00000000,95777.00000000,95985.10000000,2821.68199000
1768449600000,95985.11000000,96760.15000000,95952.89000000,96630.48000000,2056.29256000
1768464000000,96630.47000000,97193.34000000,96289.98000000,96581.08000000,2793.34386000
1768478400000,96581.07000000,97165.03000000,95435.91000000,96737.04000000,4818.18164000
1768492800000,96737.04000000,97163.00000000,95183.13000000,95516.01000000,7868.89039000
1768507200000,95516.01000000,95871.00000000,95134.48000000,95604.80000000,1367.42325000
1768521600000,95604.81000000,95855.12000000,95321.58000000,95354.69000000,1207.14110000
1768536000000,95354.69000000,95816.83000000,95133.03000000,95653.16000000,2294.92600000
1768550400000,95653.16000000,95871.47000000,95261.43000000,95429.09000000,1614.38797000
1768564800000,95429.09000000,95809.08000000,94293.46000000,94585.98000000,3014.13280000
1768579200000,94585.99000000,95215.74000000,94508.00000000,95002.09000000,1854.59442000
1768593600000,95002.09000000,95600.00000000,94682.00000000,95550.94000000,1182.53231000
1768608000000,95550.94000000,95578.20000000,95200.00000000,95372.95000000,520.98136000
1768622400000,95372.94000000,95373.64000000,95041.70000000,95101.67000000,558.53587000
1768636800000,95101.67000000,95323.86000000,95021.67000000,95323.86000000,614.83515000
1768651200000,95323.85000000,95639.45000000,95198.81000000,95573.64000000,1450.99515000
1768665600000,95573.65000000,95576.14000000,95212.25000000,95291.38000000,636.49063000
1768680000000,95291.37000000,95412.86000000,95050.00000000,95147.77000000,498.96321000
1768694400000,95147.77000000,95250.00000000,94876.33000000,95200.29000000,721.03445000
1768708800000,95200.29000000,95260.00000000,95028.27000000,95028.27000000,705.29271000
1768723200000,95028.27000000,95295.39000000,95021.44000000,95168.06000000,960.00602000
1768737600000,95168.06000000,95376.24000000,94910.00000000,95119.28000000,1177.17902000
1768752000000,95119.27000000,95521.71000000,95073.02000000,95380.99000000,921.46243000
1768766400000,95380.99000000,95531.12000000,93615.40000000,93673.14000000,2410.20356000
1768780800000,93673.14000000,93673.14000000,91910.20000000,92690.09000000,6141.54249000
1768795200000,92690.08000000,92861.41000000,92385.07000000,92841.62000000,1712.23708000
1768809600000,92841.62000000,93368.44000000,92702.56000000,93191.96000000,1908.98628000
1768824000000,93191.96000000,93226.44000000,92700.00000000,93068.62000000,1798.82427000
1768838400000,93068.62000000,93420.00000000,92930.00000000,93105.85000000,1153.18382000
1768852800000,93105.85000000,93342.36000000,92158.48000000,92631.00000000,1580.75353000
1768867200000,92630.99000000,92870.00000000,92264.70000000,92434.92000000,1260.14088000
1768881600000,92434.93000000,92470.37000000,90771.78000000,91177.98000000,4648.13308000
1768896000000,91177.99000000,91442.88000000,90693.00000000,91218.99000000,2254.13020000
1768910400000,91218.99000000,91371.11000000,89859.06000000,90684.95000000,5038.30665000
1768924800000,90684.95000000,90974.49000000,89292.48000000,89725.76000000,4114.75823000
1768939200000,89725.77000000,89854.20000000,87895.98000000,88427.66000000,4691.85706000
1768953600000,88427.66000000,89598.80000000,88250.00000000,89432.33000000,2980.55061000
1768968000000,89432.33000000,90120.44000000,89093.28000000,89213.95000000,2049.62852000
1768982400000,89213.96000000,89493.46000000,88700.00000000,88789.99000000,2010.92900000
1768996800000,88789.99000000,90574.00000000,88196.72000000,90288.04000000,4684.20136000
1769011200000,90288.04000000,90450.00000000,87263.53000000,90355.56000000,6425.20187000
1769025600000,90355.56000000,90377.00000000,89344.98000000,89454.73000000,2466.99236000
1769040000000,89454.73000000,90359.99000000,89454.72000000,89899.51000000,1561.80923000
1769054400000,89899.51000000,90215.79000000,89802.00000000,89818.79000000,1213.67268000
1769068800000,89818.79000000,90150.00000000,89760.00000000,89941.26000000,1125.90639000
1769083200000,89941.26000000,90340.00000000,88515.37000000,89000.01000000,3512.25665000
1769097600000,89000.00000000,89924.46000000,88676.95000000,89777.90000000,2304.40726000
1769112000000,89777.89000000,89946.13000000,89140.13000000,89559.67000000,1107.45271000
1769126400000,89559.68000000,89979.97000000,89450.48000000,89924.78000000,1144.14106000
1769140800000,89924.78000000,90088.94000000,89400.00000000,89549.45000000,1729.71757000
1769155200000,89549.45000000,89632.18000000,88860.44000000,89202.48000000,1992.68771000
1769169600000,89202.47000000,89865.53000000,88578.36000000,89761.61000000,2836.93325000
1769184000000,89761.61000000,91224.99000000,89489.00000000,89982.79000000,4430.77605000
1769198400000,89982.79000000,90156.06000000,89200.68000000,89600.26000000,1784.23355000
1769212800000,89600.26000000,89957.39000000,89424.39000000,89770.02000000,760.97660000
1769227200000,89770.03000000,89853.38000000,89572.81000000,89620.10000000,954.94709000
1769241600000,89620.11000000,89686.43000000,89577.97000000,89595.40000000,513.59579000
1769256000000,89595.41000000,89595.41000000,89171.75000000,89275.77000000,1016.91516000
1769270400000,89275.77000000,89461.40000000,89162.08000000,89331.36000000,560.08706000
1769284800000,89331.36000000,89489.84000000,89215.59000000,89225.34000000,420.04567000
1769299200000,89225.34000000,89319.13000000,88838.72000000,88960.35000000,949.82753000
1769313600000,88960.36000000,89090.13000000,88635.84000000,88659.99000000,1365.03813000
1769328000000,88659.99000000,88760.00000000,88136.00000000,88570.17000000,1276.76207000
1769342400000,88570.17000000,88971.89000000,88340.75000000,88446.50000000,1271.25718000
1769356800000,88446.51000000,88448.85000000,86194.85000000,86495.16000000,6164.82689000
1769371200000,86495.17000000,87013.79000000,86074.72000000,86670.36000000,3398.50839000
1769385600000,86670.36000000,87973.11000000,86509.63000000,87282.05000000,4005.56746000
1769400000000,87282.04000000,88074.48000000,87244.27000000,88000.64000000,3558.66159000
1769414400000,88000.64000000,88424.45000000,87600.69000000,87855.00000000,1820.37120000
1769428800000,87855.01000000,88860.00000000,87325.03000000,87641.41000000,4437.30175000
1769443200000,87641.41000000,88537.95000000,87035.51000000,88013.19000000,2334.22752000
1769457600000,88013.19000000,88659.09000000,87542.05000000,88347.08000000,1610.38501000
1769472000000,88347.08000000,88898.00000000,88194.82000000,88788.00000000,1649.23753000
1769486400000,88787.99000000,89010.00000000,88278.03000000,88320.41000000,1448.31937000
1769500800000,88320.41000000,88397.85000000,87743.52000000,87992.74000000,1462.63908000
1769515200000,87992.74000000,88474.23000000,87578.67000000,88047.46000000,2499.94350000
1769529600000,88047.46000000,88819.89000000,87304.33000000,88408.77000000,3647.91175000
1769544000000,88408.78000000,89523.16000000,88373.49000000,89250.00000000,2417.35302000
1769558400000,89249.99000000,89497.96000000,88985.00000000,89126.67000000,1094.38637000
1769572800000,89126.68000000,89400.00000000,88840.00000000,89134.35000000,1349.92307000
1769587200000,89134.35000000,90156.72000000,88833.65000000,90080.00000000,2787.07391000
1769601600000,90079.99000000,90488.00000000,88904.61000000,89479.66000000,4428.88675000
1769616000000,89479.66000000,90600.00000000,89006.36000000,89402.58000000,3310.08413000
1769630400000,89402.57000000,89896.00000000,88878.01000000,89299.99000000,1361.83079000
1769644800000,89300.00000000,89348.00000000,87704.00000000,88053.71000000,2923.10988000
1769659200000,88053.71000000,88430.05000000,87901.23000000,88352.97000000,1476.91111000
1769673600000,88352.96000000,88500.00000000,87750.01000000,87846.50000000,2299.04104000
1769688000000,87846.50000000,88182.29000000,84366.56000000,84934.02000000,10107.55386000
1769702400000,84934.02000000,85638.30000000,83383.33000000,84012.11000000,10787.89043000
1769716800000,84012.11000000,84737.69000000,83824.90000000,84650.16000000,2836.87569000
1769731200000,84650.16000000,84735.75000000,81118.00000000,82676.43000000,12245.12313000
1769745600000,82676.42000000,83332.20000000,82056.08000000,82816.98000000,4789.41822000
1769760000000,82816.98000000,83314.85000000,82160.00000000,83151.36000000,3255.07609000
1769774400000,83151.36000000,83797.99000000,82382.01000000,82883.94000000,4751.88055000
1769788800000,82882.84000000,84621.16000000,81871.37000000,84242.99000000,6116.25601000
1769803200000,84243.00000000,84523.11000000,83539.20000000,84260.49000000,4038.09393000
1769817600000,84260.50000000,84270.02000000,83815.02000000,84022.69000000,1727.33956000
1769832000000,84022.70000000,84146.22000000,83404.67000000,83546.81000000,1349.94572000
1769846400000,83546.82000000,83629.08000000,82560.75000000,83020.00000000,2408.78889000
1769860800000,83020.00000000,83140.00000000,80825.76000000,81302.15000000,6811.82932000
1769875200000,81302.16000000,82200.00000000,75719.90000000,77750.01000000,22029.61555000
1769889600000,77750.01000000,79240.00000000,77092.34000000,78741.09000000,5164.37229000
1769904000000,78741.10000000,79424.00000000,78284.00000000,78868.28000000,4258.38184000
1769918400000,78868.29000000,79119.30000000,77967.69000000,78343.00000000,2563.15420000
1769932800000,78343.00000000,79220.72000000,78148.10000000,78743.56000000,2450.30839000
1769947200000,78743.57000000,78768.68000000,76761.98000000,77593.40000000,4807.63006000
1769961600000,77593.40000000,78443.10000000,77000.01000000,77174.78000000,2883.53084000
1769976000000,77174.77000000,77779.63000000,75700.00000000,76968.21000000,8432.47635000
1769990400000,76968.22000000,78231.26000000,74604.00000000,76292.98000000,11449.76567000
1770004800000,76292.98000000,76958.00000000,74911.14000000,76660.79000000,9568.39849000
1770019200000,76660.78000000,77970.62000000,76628.28000000,77759.99000000,5651.50758000
1770033600000,77760.00000000,79360.00000000,77564.62000000,78850.06000000,7522.81805000
1770048000000,78850.06000000,79288.28000000,78283.27000000,78341.50000000,5462.07718000
1770062400000,78341.50000000,78962.78000000,77888.00000000,78738.61000000,2619.02319000
1770076800000,78738.60000000,79186.81000000,77644.09000000,78753.32000000,4012.52848000
1770091200000,78753.32000000,78999.99000000,77950.00000000,78794.67000000,2886.84787000
1770105600000,78794.67000000,79084.29000000,77950.00000000,78079.50000000,2794.97467000
1770120000000,78079.50000000,78458.89000000,77055.54000000,78132.33000000,5543.61818000
1770134400000,78132.34000000,78134.53000000,72945.50000000,74935.00000000,18839.63770000
1770148800000,74935.00000000,76960.00000000,74586.54000000,75770.21000000,5042.50199000
1770163200000,75770.21000000,76971.52000000,75467.22000000,76698.17000000,3573.68321000
1770177600000,76698.17000000,76830.69000000,76105.30000000,76514.30000000,2837.05050000
1770192000000,76514.30000000,76607.69000000,75666.00000000,76017.25000000,2912.66082000
1770206400000,76017.25000000,76260.85000000,73794.11000000,74136.36000000,8952.94529000
1770220800000,74136.48000000,74249.83000000,72169.00000000,73923.29000000,13944.22381000
1770235200000,73923.30000000,74144.00000000,71888.00000000,73165.83000000,6154.79637000
1770249600000,73165.84000000,73341.18000000,71152.78000000,71223.25000000,8356.43633000
1770264000000,71223.25000000,71622.82000000,70140.00000000,70756.85000000,13229.00492000
1770278400000,70756.86000000,71978.58000000,69922.00000000,70318.35000000,9382.74194000
1770292800000,70318.35000000,70872.04000000,66720.15000000,67489.07000000,25214.85527000
1770307200000,67489.08000000,68681.81000000,65200.00000000,65265.65000000,21297.23210000
1770321600000,65265.66000000,65700.00000000,62345.00000000,62909.86000000,28818.55843000
1770336000000,62909.87000000,66010.00000000,60000.00000000,64168.33000000,28980.40325000
1770350400000,64168.33000000,66826.50000000,63914.62000000,64856.00000000,13204.36329000
1770364800000,64856.00000000,66755.13000000,64500.00000000,66631.32000000,9652.84585000
1770379200000,66631.32000000,69192.00000000,66114.49000000,68626.00000000,17606.82465000
1770393600000,68625.99000000,71500.00000000,68428.19000000,70731.46000000,17283.69927000
1770408000000,70731.45000000,71751.33000000,69837.35000000,70580.26000000,5811.07900000
1770422400000,70580.26000000,70928.75000000,69718.00000000,70918.99000000,4687.77364000
1770436800000,70918.99000000,71690.07000000,67300.00000000,68087.14000000,13271.32166000
1770451200000,68087.13000000,68790.00000000,67582.48000000,67972.65000000,8689.01558000
1770465600000,67972.65000000,69999.99000000,67901.89000000,69151.50000000,9290.84055000
1770480000000,69151.50000000,69898.00000000,68531.50000000,69373.61000000,6393.31777000
1770494400000,69373.61000000,69728.83000000,68787.34000000,69289.38000000,1923.21116000
1770508800000,69289.37000000,69696.57000000,68888.00000000,69099.99000000,2026.40929000
1770523200000,69100.00000000,69719.07000000,68952.01000000,69710.69000000,2878.17149000
1770537600000,69710.69000000,71220.00000000,69514.15000000,70999.98000000,5309.31519000
1770552000000,70999.99000000,71554.95000000,70707.39000000,71188.99000000,3659.21760000
1770566400000,71188.99000000,71538.05000000,70251.33000000,71422.97000000,2720.17356000
1770580800000,71422.96000000,72271.41000000,70000.00000000,70330.38000000,4827.24455000
1770595200000,70330.38000000,71453.53000000,70068.18000000,71307.56000000,4021.31441000
1770609600000,71307.56000000,71359.37000000,70311.70000000,70422.59000000,2930.60540000
1770624000000,70422.59000000,70608.83000000,68420.58000000,68928.72000000,6108.89766000
1770638400000,68928.71000000,69884.82000000,68308.00000000,69563.37000000,6863.78788000
1770652800000,69563.37000000,71075.31000000,69100.00000000,70957.01000000,6239.20348000
1770667200000,70957.01000000,71126.00000000,69823.52000000,70138.00000000,2988.91959000
1770681600000,70138.00000000,70527.59000000,69208.61000000,69511.83000000,2469.62773000
1770696000000,69511.83000000,69906.50000000,68682.00000000,68919.66000000,3133.48778000
1770710400000,68919.66000000,69417.70000000,68459.89000000,68535.01000000,3589.46371000
1770724800000,68535.02000000,69591.20000000,67800.00000000,69293.37000000,5843.11364000
1770739200000,69293.37000000,69993.65000000,68604.63000000,69062.01000000,3997.49855000
1770753600000,69062.00000000,69136.91000000,68362.00000000,68841.29000000,1340.57931000
1770768000000,68841.28000000,69292.88000000,68011.11000000,68187.99000000,1918.23444000
1770782400000,68188.00000000,68325.00000000,66557.99000000,67032.72000000,5175.02607000
1770796800000,67032.71000000,67134.42000000,66369.49000000,67053.03000000,3914.08731000
1770811200000,67053.03000000,68834.34000000,65756.00000000,66519.73000000,9148.58414000
1770825600000,66519.72000000,67860.44000000,65876.00000000,67586.67000000,5004.87150000
1770840000000,67586.66000000,68369.77000000,66787.70000000,67082.52000000,3557.44256000
1770854400000,67082.52000000,68047.48000000,67055.53000000,67580.99000000,2100.97039000
1770868800000,67581.00000000,67682.69000000,66670.45000000,67217.72000000,2710.60187000
1770883200000,67217.71000000,68299.00000000,66891.60000000,68076.01000000,3668.05630000
1770897600000,68076.01000000,68410.52000000,67014.98000000,67134.74000000,4824.24216000
1770912000000,67134.74000000,67232.04000000,65118.00000000,65788.36000000,7933.48282000
1770926400000,65788.36000000,66488.90000000,65215.06000000,66272.17000000,3034.38929000
1770940800000,66272.17000000,66814.00000000,65872.46000000,66553.08000000,2583.39216000
1770955200000,66553.09000000,66671.62000000,66002.98000000,66208.96000000,2428.41994000
1770969600000,66208.96000000,67226.66000000,66191.52000000,67171.42000000,2201.58479000
1770984000000,67171.41000000,69309.80000000,66867.47000000,68692.12000000,6886.55091000
1770998400000,68692.12000000,69482.97000000,68540.83000000,68938.91000000,4320.62247000
1771012800000,68938.91000000,69079.40000000,68683.32000000,68853.96000000,1823.97928000
1771027200000,68853.97000000,69137.50000000,68768.56000000,68981.99000000,1291.93003000
1771041600000,68982.00000000,69343.00000000,68730.13000000,69219.26000000,2188.37379000
1771056000000,69219.27000000,70560.01000000,69218.71000000,70505.74000000,3530.97709000
1771070400000,70505.74000000,70533.67000000,69064.60000000,69778.28000000,7103.62124000
1771084800000,69778.28000000,69930.90000000,69283.02000000,69873.99000000,2295.28058000
1771099200000,69873.99000000,70250.46000000,69668.05000000,69822.95000000,1704.60120000
1771113600000,69822.94000000,69990.02000000,69251.50000000,69954.50000000,1764.94129000
1771128000000,69954.50000000,70926.42000000,69459.35000000,70828.42000000,4747.14422000
1771142400000,70828.43000000,70983.00000000,70182.31000000,70295.22000000,2073.25418000
1771156800000,70295.22000000,70418.48000000,68772.20000000,69099.99000000,3852.56524000
1771171200000,69100.00000000,69100.00000000,68000.00000000,68286.63000000,8139.52235000
1771185600000,68286.64000000,69078.49000000,68120.00000000,68832.58000000,1712.62480000
1771200000000,68832.59000000,69065.50000000,68143.22000000,68424.82000000,1757.09824000
1771214400000,68424.82000000,68900.00000000,68228.76000000,68587.90000000,1421.86090000
1771228800000,68587.89000000,69060.77000000,68338.90000000,68812.83000000,1609.09509000
1771243200000,68812.84000000,70126.67000000,67294.11000000,67539.52000000,6563.57157000
1771257600000,67539.53000000,68245.34000000,67513.94000000,67913.43000000,2266.56859000
1771272000000,67913.44000000,68978.88000000,67827.11000000,68892.43000000,1897.57095000
1771286400000,68892.43000000,69241.50000000,68387.20000000,68474.90000000,1970.09630000
1771300800000,68474.90000000,68707.49000000,67892.00000000,68388.12000000,1507.90265000
1771315200000,68388.12000000,68479.17000000,67690.00000000,67854.60000000,1702.22977000
1771329600000,67854.60000000,68360.50000000,66621.06000000,67392.05000000,5962.49538000
1771344000000,67392.06000000,68235.39000000,66881.08000000,67793.32000000,4203.96684000
1771358400000,67793.32000000,67928.08000000,67394.00000000,67503.52000000,1142.37827000
1771372800000,67503.52000000,67705.65000000,66892.03000000,67629.11000000,1226.88759000
1771387200000,67629.10000000,68219.81000000,67500.10000000,68106.44000000,1433.81961000
1771401600000,68106.44000000,68476.22000000,67076.90000000,67369.75000000,1922.15458000
1771416000000,67369.75000000,68347.72000000,66717.30000000,67694.01000000,4330.13695000
1771430400000,67694.01000000,67706.94000000,65870.00000000,66177.14000000,4311.92393000
1771444800000,66177.15000000,66550.00000000,66053.60000000,66461.00000000,2267.51573000
1771459200000,66461.00000000,66997.07000000,66345.00000000,66980.91000000,1337.23292000
1771473600000,66980.91000000,67320.00000000,66679.76000000,67206.45000000,1593.15988000
1771488000000,67206.45000000,67206.45000000,66478.02000000,66496.02000000,1879.33579000
1771502400000,66496.03000000,66755.39000000,65631.83000000,66398.00000000,4451.59374000
1771516800000,66398.01000000,67198.10000000,65899.25000000,67050.00000000,3411.99791000
1771531200000,67050.00000000,67168.86000000,66652.34000000,67003.73000000,1868.94964000
1771545600000,67003.73000000,67488.67000000,66949.41000000,67366.25000000,1472.92111000
1771560000000,67366.25000000,68006.00000000,67115.38000000,67825.91000000,2411.47830000
1771574400000,67825.91000000,68318.39000000,67280.60000000,67318.41000000,3414.63472000
1771588800000,67318.41000000,68083.98000000,66280.20000000,67582.95000000,16088.45139000
1771603200000,67582.95000000,68000.00000000,66952.11000000,67646.03000000,9574.14680000
1771617600000,67646.03000000,68233.99000000,67520.30000000,68020.01000000,2390.23859000
1771632000000,68020.00000000,68099.54000000,67534.69000000,67667.77000000,1582.09541000
1771646400000,67667.77000000,67924.39000000,67593.99000000,67856.01000000,716.23217000
1771660800000,67856.01000000,68314.54000000,67807.30000000,68092.45000000,1384.49772000
1771675200000,68092.45000000,68698.70000000,67915.00000000,68615.00000000,1818.30536000
1771689600000,68615.01000000,68658.50000000,68101.78000000,68543.51000000,1410.16439000
1771704000000,68543.51000000,68605.63000000,67900.00000000,67975.93000000,1121.54626000
1771718400000,67975.93000000,68222.16000000,67809.78000000,68041.43000000,1114.48202000
1771732800000,68041.42000000,68178.79000000,67881.81000000,68005.30000000,923.79200000
1771747200000,68005.30000000,68245.00000000,67912.02000000,68219.97000000,733.14137000
1771761600000,68219.97000000,68232.40000000,67303.50000000,67684.14000000,2531.23331000
1771776000000,67684.15000000,67718.13000000,67190.00000000,67428.32000000,1575.66204000
1771790400000,67428.32000000,67751.44000000,67350.00000000,67643.40000000,1296.82410000
1771804800000,67643.39000000,67684.86000000,64290.71000000,64934.17000000,11022.66500000
1771819200000,64934.18000000,66015.22000000,64685.64000000,65958.94000000,4119.82727000
1771833600000,65958.94000000,66600.00000000,65565.78000000,66207.23000000,3194.00092000
1771848000000,66207.23000000,66511.51000000,65529.73000000,65660.10000000,3796.34009000
1771862400000,65660.10000000,65724.28000000,64048.71000000,64295.10000000,7179.94577000
1771876800000,64295.11000000,65035.98000000,63888.79000000,64656.02000000,3763.13018000
1771891200000,64656.01000000,65026.75000000,63342.90000000,63595.51000000,4752.76382000
1771905600000,63595.51000000,63628.52000000,62700.80000000,63192.96000000,4939.88980000
1771920000000,63192.79000000,63444.66000000,62908.92000000,63227.10000000,2234.59315000
1771934400000,63227.11000000,64031.76000000,62510.28000000,63973.97000000,5539.65443000
1771948800000,63973.98000000,64743.11000000,63689.54000000,64435.03000000,3972.72259000
1771963200000,64435.03000000,64591.99000000,63820.50000000,64058.15000000,1663.21243000
1771977600000,64058.15000000,66310.00000000,63913.27000000,65391.73000000,5187.17213000
1771992000000,65391.74000000,65650.00000000,64755.26000000,65028.30000000,2632.47033000
1772006400000,65028.30000000,65692.62000000,64955.79000000,65430.04000000,1997.89784000
1772020800000,65430.04000000,67578.00000000,65324.62000000,67412.33000000,7879.83719000
1772035200000,67412.32000000,69550.00000000,67404.00000000,69038.26000000,8300.46334000
1772049600000,69038.26000000,69988.83000000,67600.00000000,67988.04000000,4752.15176000
1772064000000,67988.04000000,68700.00000000,67727.52000000,68216.86000000,2995.47030000
1772078400000,68216.87000000,68860.00000000,67817.87000000,67825.04000000,2533.15622000
1772092800000,67825.05000000,68722.64000000,67792.00000000,68051.31000000,3268.61730000
1772107200000,68051.30000000,68303.83000000,66761.16000000,67382.00000000,5206.19537000
1772121600000,67382.00000000,67903.12000000,66500.00000000,67589.22000000,5230.45057000
1772136000000,67589.21000000,67831.11000000,67150.14000000,67485.18000000,1503.88816000
1772150400000,67485.19000000,67712.16000000,66885.00000000,67600.84000000,2159.83450000
1772164800000,67600.84000000,68216.80000000,67459.30000000,67690.60000000,3025.27268000
1772179200000,67690.60000000,68149.93000000,65960.01000000,66126.99000000,4904.69534000
1772193600000,66126.99000000,66344.90000000,65649.34000000,66095.40000000,5494.93830000
1772208000000,66095.40000000,66121.03000000,65113.72000000,65392.18000000,3875.92624000
1772222400000,65392.18000000,65953.20000000,64914.46000000,65872.10000000,1767.91718000
1772236800000,65872.09000000,66025.52000000,65721.13000000,65797.42000000,1045.74408000
1772251200000,65797.42000000,65818.44000000,63030.00000000,63826.00000000,5914.91449000
1772265600000,63825.99000000,64307.44000000,63372.10000000,63844.20000000,4734.32265000
1772280000000,63844.20000000,65360.51000000,63827.20000000,64841.18000000,4286.48357000
1772294400000,64841.17000000,66666.65000000,64681.81000000,66362.01000000,2999.13046000
1772308800000,66362.01000000,67760.00000000,66190.61000000,66973.26000000,3568.12124000
1772323200000,66973.26000000,68199.99000000,66042.72000000,67502.16000000,4690.36208000
1772337600000,67502.16000000,67612.14000000,66749.35000000,67141.39000000,3167.39554000
1772352000000,67141.40000000,67292.30000000,66215.71000000,66468.03000000,3250.92047000
1772366400000,66468.04000000,67360.57000000,66132.27000000,66842.42000000,3640.03253000
1772380800000,66842.42000000,67112.37000000,65699.98000000,65962.17000000,3900.17922000
1772395200000,65962.16000000,66491.43000000,65056.00000000,65776.47000000,4552.96875000
1772409600000,65776.48000000,67079.00000000,65761.04000000,66820.03000000,2940.58836000
1772424000000,66820.03000000,66995.64000000,65542.60000000,66007.52000000,3610.46533000
1772438400000,66007.80000000,66720.84000000,65654.54000000,66359.68000000,4361.76571000
1772452800000,66359.67000000,69617.74000000,65259.21000000,69130.20000000,10831.61306000
1772467200000,69130.20000000,70096.00000000,68576.18000000,68966.53000000,6828.10762000
1772481600000,68966.52000000,69539.77000000,68584.90000000,68830.06000000,3437.84423000
1772496000000,68830.06000000,69258.08000000,68210.71000000,68377.94000000,2362.09713000
1772510400000,68377.94000000,68617.42000000,67800.00000000,68172.80000000,3337.11294000
1772524800000,68172.79000000,68311.83000000,66340.14000000,67026.61000000,6082.75912000
1772539200000,67026.60000000,67973.20000000,66158.00000000,67725.81000000,5443.28880000
1772553600000,67725.82000000,68999.00000000,67473.09000000,68435.00000000,5484.70019000
1772568000000,68435.00000000,68860.00000000,67832.30000000,68338.00000000,2262.28362000
1772582400000,68338.01000000,68909.34000000,67400.00000000,67732.20000000,3814.86350000
1772596800000,67732.19000000,69668.00000000,67467.60000000,69493.13000000,5088.84069000
1772611200000,69493.14000000,71893.00000000,69098.91000000,71111.40000000,12146.09777000
1772625600000,71111.40000000,73479.75000000,70588.00000000,73396.88000000,11378.24344000
1772640000000,73396.87000000,74050.00000000,72541.69000000,73611.10000000,8665.00622000
1772654400000,73611.67000000,73716.00000000,72313.04000000,72666.77000000,3826.02448000
1772668800000,72666.77000000,73306.82000000,72336.76000000,72497.89000000,3122.96483000
1772683200000,72497.89000000,73081.08000000,71759.95000000,72055.50000000,4346.02458000
1772697600000,72055.50000000,73558.15000000,71757.17000000,72915.79000000,6262.38044000
1772712000000,72915.80000000,73063.38000000,71168.65000000,71652.77000000,5607.55823000
1772726400000,71652.77000000,71654.65000000,70645.47000000,70918.07000000,4306.65518000
1772740800000,70918.08000000,71572.30000000,70777.00000000,70890.72000000,2944.92927000
1772755200000,70891.02000000,71419.98000000,70344.03000000,71080.38000000,3031.93266000
1772769600000,71080.37000000,71192.76000000,70143.19000000,71056.44000000,3088.31108000
1772784000000,71056.44000000,71067.58000000,70184.01000000,70212.95000000,2441.15545000
1772798400000,70212.94000000,70341.76000000,68176.47000000,68504.71000000,8554.35815000
1772812800000,68504.71000000,68795.44000000,67744.78000000,68131.79000000,3324.41432000
1772827200000,68131.79000000,68440.92000000,67777.00000000,68114.02000000,2189.71556000
1772841600000,68114.02000000,68551.04000000,68060.60000000,68095.50000000,1736.72670000
1772856000000,68095.50000000,68147.73000000,67446.41000000,67842.67000000,2373.66763000
1772870400000,67842.67000000,68232.27000000,67720.98000000,68010.01000000,1490.07738000
1772884800000,68010.00000000,68085.41000000,67609.44000000,67877.45000000,1728.39414000
1772899200000,67877.45000000,67935.01000000,66915.26000000,67080.34000000,3059.42816000
1772913600000,67080.33000000,67483.05000000,67068.01000000,67262.91000000,2331.24914000
1772928000000,67262.91000000,67481.96000000,66833.58000000,67000.26000000,2883.43952000
1772942400000,67000.26000000,67465.11000000,66547.15000000,67319.91000000,2866.09804000
1772956800000,67319.90000000,68200.00000000,67156.93000000,67515.00000000,3303.40428000
1772971200000,67515.00000000,67650.94000000,66761.68000000,67218.23000000,4464.48396000
1772985600000,67218.23000000,67485.24000000,66745.54000000,67337.42000000,2550.26884000
1773000000000,67337.41000000,67609.08000000,65618.49000000,65971.20000000,5525.94437000
1773014400000,65971.20000000,67668.64000000,65821.97000000,67205.05000000,5224.01016000
1773028800000,67205.06000000,68069.29000000,66853.48000000,67555.13000000,3826.34806000
1773043200000,67555.13000000,68460.09000000,67344.45000000,67764.98000000,4105.57826000
1773057600000,67764.99000000,69480.00000000,67759.57000000,68863.66000000,7802.97956000
1773072000000,68863.67000000,69516.65000000,68179.12000000,68991.93000000,5039.37719000
1773086400000,68991.93000000,69145.28000000,68384.69000000,68432.16000000,2898.42807000
1773100800000,68432.16000000,70578.29000000,68391.41000000,69429.85000000,5314.57270000
1773115200000,69429.85000000,70546.74000000,69429.85000000,70406.01000000,4907.28195000
1773129600000,70406.01000000,71300.00000000,70369.00000000,70580.94000000,6270.51730000
1773144000000,70580.95000000,71777.00000000,69266.06000000,71346.16000000,7000.10748000
1773158400000,71346.17000000,71700.00000000,69739.00000000,70043.63000000,5504.97942000
1773172800000,70043.63000000,70417.30000000,69452.42000000,69948.63000000,3605.11841000
1773187200000,69948.64000000,70173.25000000,69488.70000000,69551.91000000,4402.46797000
1773201600000,69551.91000000,70281.87000000,69420.00000000,69648.29000000,3080.54464000
1773216000000,69648.28000000,69786.32000000,69150.28000000,69173.00000000,3538.73168000
1773230400000,69172.99000000,71091.18000000,68977.91000000,70227.91000000,7789.43505000
1773244800000,70227.92000000,71321.00000000,70161.78000000,70641.82000000,5738.49617000
1773259200000,70641.81000000,70950.00000000,70125.83000000,70191.86000000,2699.59991000
1773273600000,70191.86000000,70353.87000000,69226.52000000,69446.61000000,2576.17397000
1773288000000,69446.61000000,69865.98000000,69205.91000000,69826.19000000,2721.97342000
1773302400000,69826.19000000,70800.00000000,69580.00000000,70427.91000000,4649.38407000
1773316800000,70427.90000000,70660.69000000,69355.34000000,70334.88000000,6097.47646000
1773331200000,70334.89000000,70569.15000000,69770.85000000,70432.32000000,3616.05800000
1773345600000,70432.33000000,70734.25000000,70013.17000000,70541.34000000,2336.09458000
1773360000000,70541.34000000,72000.00000000,70386.01000000,71405.75000000,5755.69452000
1773374400000,71405.76000000,71672.76000000,71180.19000000,71612.22000000,4181.63698000
1773388800000,71612.23000000,72575.98000000,71385.28000000,72228.82000000,5105.15070000
1773403200000,72228.81000000,73913.74000000,71736.34000000,71831.46000000,12303.83944000
1773417600000,71831.46000000,72249.99000000,70841.23000000,71189.95000000,5469.31306000
1773432000000,71189.96000000,71491.03000000,70559.02000000,70930.00000000,3180.98208000
1773446400000,70930.01000000,71185.23000000,70481.70000000,71081.30000000,3513.45361000
1773460800000,71081.31000000,71307.92000000,70317.00000000,70596.68000000,2929.58232000
1773475200000,70596.68000000,70784.38000000,70389.08000000,70751.42000000,2494.95824000
1773489600000,70751.42000000,70941.17000000,70501.00000000,70580.09000000,2537.57782000
1773504000000,70580.09000000,70740.34000000,70500.00000000,70700.00000000,686.93095000
1773518400000,70699.99000000,71253.17000000,70650.09000000,71211.95000000,854.74443000
1773532800000,71211.95000000,71634.08000000,70858.82000000,71363.14000000,2591.56425000
1773547200000,71363.13000000,71800.68000000,71330.66000000,71453.59000000,2377.69395000
1773561600000,71453.59000000,71940.49000000,71453.59000000,71839.42000000,2170.14550000
1773576000000,71839.41000000,71839.42000000,71263.99000000,71481.24000000,2095.34940000
1773590400000,71481.24000000,71989.93000000,71320.08000000,71549.94000000,1241.12480000
1773604800000,71549.94000000,73199.00000000,71433.75000000,72815.24000000,3561.42914000
1773619200000,72815.25000000,74330.34000000,72270.41000000,73573.32000000,5313.15699000
1773633600000,73573.31000000,74451.03000000,73385.18000000,73456.68000000,5517.22506000
1773648000000,73456.69000000,73838.76000000,72888.80000000,73552.77000000,3812.93394000
1773662400000,73552.78000000,74509.52000000,72990.52000000,73274.76000000,5744.41989000
1773676800000,73274.75000000,74418.60000000,73160.66000000,73963.00000000,4131.80846000
1773691200000,73963.00000000,74909.08000000,73863.20000000,74884.67000000,3889.98585000
1773705600000,74884.67000000,76000.00000000,74268.73000000,74463.98000000,6925.21053000
1773720000000,74463.98000000,74712.89000000,73784.00000000,74249.32000000,4918.92532000
1773734400000,74249.32000000,74452.97000000,73560.98000000,74033.11000000,3022.84272000
1773748800000,74033.10000000,74893.94000000,73399.19000000,73914.39000000,4507.55719000
1773763200000,73914.40000000,74800.00000000,73855.24000000,74512.17000000,3050.04683000
1773777600000,74511.21000000,74799.00000000,73871.74000000,73909.36000000,2096.68377000
1773792000000,73909.37000000,74672.34000000,73535.36000000,74446.14000000,2220.38681000
1773806400000,74446.14000000,74486.30000000,73700.01000000,73883.80000000,2292.66886000
1773820800000,73883.80000000,74281.33000000,72800.00000000,72952.85000000,3439.26859000
1773835200000,72952.85000000,72981.79000000,70857.21000000,71467.82000000,8373.20589000
1773849600000,71467.82000000,72000.50000000,70933.85000000,71072.38000000,4336.24884000
1773864000000,71072.38000000,71451.22000000,70500.00000000,71246.54000000,2731.10194000
1773878400000,71246.55000000,71613.79000000,70902.37000000,71215.39000000,2427.94963000
1773892800000,71215.39000000,71215.39000000,69478.51000000,70191.17000000,4492.82933000
1773907200000,70191.16000000,70560.91000000,69900.00000000,69952.75000000,3434.17410000
1773921600000,69952.75000000,70179.53000000,68793.35000000,69412.51000000,6707.39933000
1773936000000,69412.52000000,70596.42000000,69122.03000000,70271.99000000,3251.17683000
1773950400000,70272.00000000,70695.60000000,69718.23000000,69930.00000000,2051.28897000
1773964800000,69930.01000000,70809.43000000,69837.10000000,70729.92000000,2423.03588000
1773979200000,70729.93000000,70969.71000000,70160.06000000,70854.66000000,2609.94577000
1773993600000,70854.66000000,71367.00000000,70218.68000000,70478.71000000,3112.13588000
1774008000000,70478.71000000,70685.63000000,69480.00000000,69860.09000000,4715.91571000
1774022400000,69860.09000000,70190.18000000,69388.00000000,70177.86000000,3079.98123000
1774036800000,70177.85000000,70923.75000000,69754.71000000,70510.73000000,2180.15298000
1774051200000,70510.73000000,70826.00000000,70431.67000000,70657.35000000,1194.32406000
1774065600000,70657.35000000,70879.76000000,70617.05000000,70727.33000000,2717.24630000
1774080000000,70727.33000000,70753.79000000,70492.02000000,70652.72000000,2045.34328000
1774094400000,70652.73000000,71100.94000000,70453.09000000,70630.02000000,1644.14012000
1774108800000,70630.02000000,70652.64000000,70210.00000000,70396.00000000,1221.39503000
1774123200000,70396.01000000,70516.82000000,68571.42000000,68918.12000000,4574.71871000
1774137600000,68918.12000000,69588.79000000,68228.50000000,69339.99000000,4148.48971000
1774152000000,69340.00000000,69526.85000000,68892.93000000,68919.38000000,1759.92655000
1774166400000,68919.37000000,68990.67000000,68110.55000000,68217.95000000,2582.06971000
1774180800000,68217.94000000,69005.71000000,68199.04000000,68847.96000000,1809.03421000
1774195200000,68847.97000000,68885.53000000,68145.01000000,68199.93000000,1323.42339000
1774209600000,68199.93000000,68498.40000000,67360.66000000,67859.00000000,3220.84325000
1774224000000,67859.00000000,68585.12000000,67445.18000000,68074.60000000,2495.61558000
1774238400000,68074.60000000,68915.40000000,67502.48000000,68333.16000000,4814.40128000
1774252800000,68333.16000000,71499.00000000,67916.14000000,70122.15000000,9165.95784000
1774267200000,70122.15000000,71817.09000000,69671.95000000,70131.48000000,7343.07463000
1774281600000,70131.48000000,71246.01000000,70131.47000000,70679.05000000,3251.32187000
1774296000000,70679.04000000,70998.00000000,70404.39000000,70906.45000000,1264.71999000
1774310400000,70906.45000000,71099.96000000,70278.46000000,70542.90000000,2279.09671000
1774324800000,70542.90000000,71400.00000000,70119.06000000,71291.70000000,3689.34450000
1774339200000,71291.70000000,71368.61000000,70850.11000000,71157.77000000,2477.92852000
1774353600000,71157.77000000,71177.66000000,69507.34000000,69873.04000000,5583.13531000
1774368000000,69873.04000000,70001.92000000,68923.07000000,69377.33000000,3539.49609000
1774382400000,69377.33000000,70832.54000000,69296.15000000,70556.74000000,3133.42131000
1774396800000,70556.74000000,71100.28000000,70408.00000000,70716.70000000,2504.53992000
1774411200000,70716.70000000,71345.00000000,70703.83000000,70926.88000000,2879.13545000
1774425600000,70926.88000000,72026.09000000,70800.00000000,71678.97000000,3287.51237000
1774440000000,71678.97000000,71963.71000000,70530.47000000,70832.99000000,4210.48461000
1774454400000,70832.99000000,71752.88000000,70681.07000000,70883.31000000,2995.16787000
1774468800000,70883.32000000,71594.11000000,70646.34000000,71336.53000000,1842.66044000
1774483200000,71336.53000000,71436.82000000,70672.37000000,70921.47000000,2157.03878000
1774497600000,70921.47000000,70921.47000000,69805.00000000,70087.44000000,3434.08444000
1774512000000,70087.44000000,70144.44000000,69192.96000000,69276.01000000,3321.72857000
1774526400000,69276.01000000,69877.45000000,68632.40000000,69082.64000000,4699.85538000
1774540800000,69082.64000000,69162.00000000,68153.00000000,68534.36000000,4026.59411000
1774555200000,68534.37000000,69478.42000000,68436.74000000,68820.31000000,3181.15640000
1774569600000,68820.31000000,69179.05000000,68531.37000000,68767.51000000,2714.96120000
1774584000000,68767.50000000,68955.53000000,68304.14000000,68540.48000000,3934.07819000
1774598400000,68540.49000000,68635.07000000,66231.96000000,66702.78000000,7325.96218000
1774612800000,66702.78000000,66773.25000000,65730.17000000,66112.82000000,8273.04177000
1774627200000,66112.82000000,66290.00000000,65548.25000000,66040.66000000,3963.05735000
1774641600000,66040.65000000,66420.75000000,65817.44000000,66407.28000000,2392.59488000
1774656000000,66407.28000000,66520.46000000,65932.09000000,66240.00000000,2309.42704000
1774670400000,66240.00000000,66573.61000000,66110.00000000,66561.48000000,2351.82142000
1774684800000,66561.49000000,66570.09000000,66124.40000000,66319.47000000,1871.98665000
1774699200000,66319.46000000,67288.94000000,66240.87000000,67014.91000000,2726.87142000
1774713600000,67014.92000000,67096.77000000,66704.00000000,66916.52000000,1090.61096000
1774728000000,66916.52000000,67010.00000000,66283.38000000,66377.03000000,1111.68098000
1774742400000,66377.04000000,67130.50000000,66281.40000000,66912.00000000,1535.14396000
1774756800000,66912.00000000,66936.60000000,66556.78000000,66671.00000000,1351.87148000
1774771200000,66671.00000000,66988.01000000,66418.00000000,66816.28000000,1084.63055000
1774785600000,66816.29000000,66875.24000000,66334.37000000,66523.00000000,1436.58796000
1774800000000,66523.01000000,66665.05000000,66158.26000000,66348.62000000,994.82320000
1774814400000,66348.61000000,66793.83000000,65000.00000000,66010.93000000,3649.79869000
1774828800000,66010.93000000,67450.00000000,65800.59000000,67173.80000000,3701.61439000
1774843200000,67173.80000000,67800.00000000,67167.92000000,67624.39000000,2742.98319000
1774857600000,67624.39000000,68042.30000000,67360.41000000,67680.45000000,3383.09323000
1774872000000,67680.44000000,68169.65000000,67088.73000000,67629.40000000,4177.92296000
1774886400000,67629.40000000,67641.65000000,66233.13000000,66550.05000000,2673.99690000
1774900800000,66550.06000000,66994.17000000,66419.79000000,66797.37000000,1673.77908000
1774915200000,66797.38000000,68408.37000000,66544.51000000,67704.74000000,2940.06225000
1774929600000,67704.74000000,67979.38000000,67103.32000000,67367.69000000,3894.57803000
1774944000000,67367.70000000,67496.00000000,65998.05000000,66685.69000000,4187.99082000
1774958400000,66685.69000000,67767.87000000,66427.53000000,66736.80000000,4137.18923000
1774972800000,66736.79000000,68589.49000000,66729.28000000,67838.80000000,4391.49464000
1774987200000,67838.79000000,68410.30000000,67831.70000000,68284.48000000,2554.09165000
1775001600000,68284.49000000,68378.64000000,67578.75000000,68170.67000000,3175.60054000
1775016000000,68170.67000000,69310.00000000,68005.33000000,68692.00000000,4308.24633000
1775030400000,68692.00000000,68851.35000000,68389.21000000,68712.52000000,3486.85039000
