timestamp,open,high,low,close,volume
1739304000000,94988.00,96468.50,94871.20,95731.40,28996.232
1739318400000,95731.40,96230.00,95050.00,95251.40,15872.659
1739332800000,95251.40,96130.10,95213.20,96025.80,12022.343
1739347200000,96025.10,96437.50,95860.50,96062.40,15330.015
1739361600000,96062.40,96596.30,94003.90,95762.10,81170.853
1739376000000,95762.00,97700.00,95074.00,97156.60,52129.395
1739390400000,97156.70,98090.90,96811.20,97816.30,25922.814
1739404800000,97816.30,98053.80,97309.10,97463.40,12528.340
1739419200000,97463.40,97519.30,95706.80,96018.50,29528.250
1739433600000,96018.50,96288.90,95500.00,95883.60,20319.939
1739448000000,95883.60,96432.40,95288.50,95943.50,37774.418
1739462400000,95943.20,96325.00,95160.10,95587.80,26297.007
1739476800000,95587.90,96756.80,95544.90,96560.60,15792.572
1739491200000,96560.60,97163.00,96309.50,97094.90,13958.196
1739505600000,97094.90,97212.00,96505.00,96889.90,12651.199
1739520000000,96889.90,97150.00,96743.40,96844.60,9939.549
1739534400000,96844.60,97561.10,96225.70,96886.50,34393.742
1739548800000,96886.50,98792.80,96444.60,97898.30,51033.979
1739563200000,97898.40,98229.10,96636.70,97445.10,22476.292
1739577600000,97445.20,97941.20,97170.00,97619.40,10051.551
1739592000000,97619.40,97750.00,97306.30,97312.40,5995.987
1739606400000,97312.40,97692.30,97255.20,97569.40,6186.788
1739620800000,97569.50,97899.80,97377.00,97594.50,11164.250
1739635200000,97594.50,97682.40,97274.50,97496.90,7776.703
1739649600000,97497.00,97698.40,97370.00,97538.00,6243.314
1739664000000,97538.00,97665.80,97373.10,97504.90,5666.471
1739678400000,97504.80,97638.80,97137.00,97207.40,5859.374
1739692800000,97207.40,97355.00,97011.00,97293.10,7282.127
1739707200000,97293.10,97295.70,96629.50,96849.90,13685.034
1739721600000,96850.00,97134.00,96572.50,97021.50,9001.586
1739736000000,97021.40,97247.60,96002.00,96067.00,15190.281
1739750400000,96067.00,96605.70,96000.00,96171.50,11350.760
1739764800000,96171.40,96421.90,95739.60,96023.80,13627.400
1739779200000,96023.80,96347.00,95897.10,96018.20,12992.848
1739793600000,96018.30,97000.00,95491.70,95605.50,29886.124
1739808000000,95605.50,95900.00,95150.60,95490.80,24809.586
1739822400000,95490.70,96386.90,95452.80,95743.20,12910.268
1739836800000,95743.10,96296.50,95508.80,96163.10,12045.894
1739851200000,96163.10,96267.70,95199.90,95409.90,18722.380
1739865600000,95409.90,95849.00,95000.00,95606.10,15643.511
1739880000000,95606.00,96737.30,95115.10,95501.60,39510.683
1739894400000,95501.60,95595.00,93321.60,94062.10,59876.925
1739908800000,94062.20,95645.30,93696.40,95622.00,33373.969
1739923200000,95622.00,95929.00,95020.00,95672.10,17813.797
1739937600000,95672.20,95816.20,95012.50,95640.40,16957.175
1739952000000,95640.50,96443.90,95571.20,96392.00,20145.348
1739966400000,96392.00,96676.00,95494.40,95895.40,32576.279
1739980800000,95895.40,96447.00,95362.80,96159.90,22433.716
1739995200000,96159.80,96878.70,96011.60,96598.00,15070.558
1740009600000,96597.90,97339.80,96366.00,97017.40,16242.992
1740024000000,97017.40,97310.40,96743.80,96825.80,10876.646
1740038400000,96825.70,97350.00,96757.20,97164.60,9215.261
1740052800000,97164.60,98000.00,96756.10,96870.50,40545.385
1740067200000,96871.10,98480.00,96838.10,98370.00,34903.809
1740081600000,98369.90,98662.10,97952.80,98252.90,17396.079
1740096000000,98252.80,98450.00,98030.30,98106.10,9636.148
1740110400000,98106.00,98555.00,98072.40,98130.00,9837.915
1740124800000,98129.90,98888.00,98057.50,98579.70,21699.494
1740139200000,98579.70,99431.50,97143.00,98057.60,85401.790
1740153600000,98057.60,98720.00,95201.20,95247.50,85986.940
1740168000000,95247.40,96150.00,94830.40,96127.90,38055.986
1740182400000,96128.00,96399.90,95701.90,96249.90,12887.850
1740196800000,96250.00,96542.70,96219.90,96241.70,8085.678
1740211200000,96241.70,96571.20,96107.00,96526.40,11109.977
1740225600000,96526.50,96988.00,96444.20,96552.40,18121.719
1740240000000,96552.30,96794.60,96333.80,96596.60,10553.783
1740254400000,96596.50,96659.50,96432.60,96503.30,5033.143
1740268800000,96503.30,96602.90,96309.60,96373.70,5921.475
1740283200000,96373.70,96504.10,96102.20,96454.60,10823.841
1740297600000,96454.60,96459.40,96030.00,96064.30,7616.299
1740312000000,96064.20,96118.10,95326.80,95391.50,21371.740
1740326400000,95391.50,95823.50,95180.20,95706.50,11934.582
1740340800000,95706.50,96290.00,95476.50,96218.40,11630.754
1740355200000,96218.40,96470.00,95263.00,95388.10,17763.849
1740369600000,95388.00,95918.40,95018.00,95834.20,17643.499
1740384000000,95834.20,96147.50,95282.40,95774.80,19209.488
1740398400000,95774.90,96055.10,93800.00,94295.90,60104.206
1740412800000,94295.90,95182.30,93612.90,93916.10,39593.268
1740427200000,93917.40,94551.10,91300.00,91514.50,63174.440
1740441600000,91514.50,92500.00,90850.00,92125.30,49736.339
1740456000000,92125.30,92287.00,88131.60,89262.90,92098.853
1740470400000,89262.80,89952.00,86800.00,89186.80,100778.920
1740484800000,89186.90,89499.90,86020.40,87206.90,108732.091
1740499200000,87206.80,88048.90,86125.90,87914.30,72441.612
1740513600000,87914.20,89442.70,87578.10,88639.10,48508.687
1740528000000,88639.10,89367.10,88101.90,88851.80,21365.208
1740542400000,88851.80,89214.80,88366.00,88682.30,16621.135
1740556800000,88682.30,89285.70,88092.00,88570.00,27628.135
1740571200000,88570.10,88641.00,85377.20,87536.40,113336.525
1740585600000,87536.50,87784.70,83265.50,83832.00,137446.696
1740600000000,83832.00,85382.00,82222.00,84208.50,84744.122
1740614400000,84208.60,85397.10,84000.00,85174.00,31978.449
1740628800000,85174.00,86687.50,84640.10,86227.90,33054.482
1740643200000,86228.00,87066.00,85827.10,86655.30,36174.377
1740657600000,86655.40,86756.10,84609.00,85473.00,71815.480
1740672000000,85472.90,85664.80,83567.40,84084.00,44193.184
1740686400000,84084.00,84894.00,82667.00,84668.10,52192.558
1740700800000,84668.20,84858.60,79500.00,80429.20,150178.095
1740715200000,80429.20,80939.90,78787.00,79159.90,109818.611
1740729600000,79159.90,80800.00,78200.20,80474.30,76070.275
1740744000000,80474.40,84380.90,80030.00,83948.10,103925.229
1740758400000,83948.10,85084.50,83153.30,84393.30,72721.105
1740772800000,84393.30,84743.80,83555.00,84299.60,23629.916
1740787200000,84299.60,85638.00,83779.00,85279.30,31502.988
1740801600000,85279.10,86516.50,84698.80,84707.30,39241.067
1740816000000,84707.20,85452.40,84343.00,84593.60,26089.157
1740830400000,84593.60,84908.50,84285.00,84755.10,17714.663
1740844800000,84755.00,85613.40,84652.00,85431.20,16936.818
1740859200000,85431.10,86219.70,85239.60,86007.70,15511.978
1740873600000,86007.70,86449.90,85571.80,85811.90,18529.902
1740888000000,85812.00,86515.00,85490.00,86191.40,13859.725
1740902400000,86191.40,86219.50,85605.00,86047.00,16697.034
1740916800000,86047.10,88644.00,85015.00,87390.10,74595.642
1740931200000,87390.10,94971.00,87236.00,93467.30,192872.480
1740945600000,93467.20,94800.00,93444.90,94222.80,48156.755
1740960000000,94222.00,94373.40,92380.10,92660.00,37429.120
1740974400000,92660.00,93304.90,91150.00,92318.00,40159.560
1740988800000,92318.00,92888.00,91100.00,92700.00,37107.704
1741003200000,92700.00,93666.00,89100.00,90009.50,115283.973
1741017600000,90009.50,90959.10,85495.50,85552.00,122196.084
1741032000000,85552.00,86999.90,85029.00,86192.70,83855.961
1741046400000,86193.30,86773.50,82420.00,83929.00,106129.625
1741060800000,83928.90,84566.00,83100.30,83159.40,32146.523
1741075200000,83159.40,84359.50,83000.10,83890.10,26599.170
1741089600000,83890.10,84934.90,81200.00,82945.00,118850.856
1741104000000,82945.00,88488.00,81911.10,88165.30,91455.087
1741118400000,88165.30,88931.00,86544.00,87245.90,57253.537
1741132800000,87245.90,87850.00,86328.00,86813.60,31773.108
1741147200000,86813.70,87688.00,86694.00,87573.90,15899.215
1741161600000,87573.90,90625.00,87549.00,89777.60,50928.602
1741176000000,89777.60,90897.10,87890.00,88312.60,93893.227
1741190400000,88312.50,90444.00,87558.00,89711.20,63517.478
1741204800000,89711.20,91000.00,89626.30,90566.10,22989.460
1741219200000,90566.10,91988.00,89955.00,91563.20,37147.404
1741233600000,91563.20,92780.30,91222.00,91311.30,32218.874
1741248000000,91311.40,91642.30,90572.40,91319.20,30673.037
1741262400000,91319.20,91420.00,89070.00,90777.90,79791.931
1741276800000,90777.90,91025.70,87790.50,88488.50,73825.248
1741291200000,88488.50,90748.00,88428.80,89887.80,49402.138
1741305600000,89887.90,91257.70,84600.00,86958.50,132530.280
1741320000000,86958.40,88569.90,86809.20,88308.80,26269.039
1741334400000,88308.80,89666.00,87932.00,88928.80,27344.006
1741348800000,88928.90,91107.90,87979.00,88424.90,106013.324
1741363200000,88425.00,88990.00,86530.00,87787.20,87066.667
1741377600000,87787.30,88494.30,85555.00,86753.80,73250.879
1741392000000,86753.80,86876.50,85108.00,85880.00,27166.455
1741406400000,85880.00,86622.90,85607.70,86159.20,14502.391
1741420800000,86159.20,86422.00,85720.00,85923.90,12411.924
1741435200000,85923.90,86587.00,85774.80,86360.00,14833.073
1741449600000,86360.00,86459.00,85605.50,86190.50,18610.891
1741464000000,86190.50,86458.80,85800.00,86184.70,8581.453
1741478400000,86184.70,86470.60,85902.00,86077.10,10664.199
1741492800000,86077.10,86128.30,85753.30,85968.90,8708.738
1741507200000,85968.80,86092.80,84601.30,84990.10,28696.135
1741521600000,84990.00,85028.10,82619.30,83030.50,56855.474
1741536000000,83030.40,83727.80,82176.90,82604.90,53961.081
1741550400000,82605.00,83515.00,79933.40,80688.80,62723.721
1741564800000,80690.70,82694.20,80001.00,82000.10,51441.000
1741579200000,82000.10,82761.00,81947.00,82277.60,18157.406
1741593600000,82277.70,84031.50,81110.00,83540.20,76138.678
1741608000000,83540.30,83728.20,79142.80,80009.70,124660.837
1741622400000,80009.70,80217.60,77410.10,79037.10,106456.310
1741636800000,79035.30,79844.40,78363.60,78567.80,39532.566
1741651200000,78567.80,79888.00,76560.00,79486.60,78235.731
1741665600000,79486.70,80585.50,79411.20,80386.00,33668.415
1741680000000,80386.00,82061.50,80291.00,81684.60,41608.884
1741694400000,81684.50,82240.00,79026.20,81190.70,139695.873
1741708800000,81190.70,83600.00,80600.00,83060.10,74604.747
1741723200000,83060.10,83261.70,82512.40,82896.00,22965.519
1741737600000,82896.00,83741.80,82066.50,82098.20,35999.113
1741752000000,82098.20,82500.00,81250.00,82402.90,37098.324
1741766400000,82402.80,83046.90,81980.00,82972.00,37875.934
1741780800000,82971.90,84487.00,80578.50,81688.10,122716.834
1741795200000,81688.00,83127.40,81575.60,82877.30,53129.002
1741809600000,82877.30,83849.00,82662.00,83640.70,19351.917
1741824000000,83640.70,84307.10,83267.10,83537.10,24001.951
1741838400000,83537.20,83663.00,82813.20,83118.50,24236.411
1741852800000,83118.60,83494.60,82350.00,82939.50,30560.697
1741867200000,82939.30,84030.00,80914.40,81016.00,88799.609
1741881600000,81016.00,81243.80,79903.40,80177.90,58197.608
1741896000000,80177.50,81450.50,80162.90,81085.40,22163.776
1741910400000,81085.50,82249.00,80772.00,81861.50,27108.918
1741924800000,81861.50,82425.00,81730.90,82124.50,17419.406
1741939200000,82124.60,83330.00,82121.20,83202.80,30208.907
1741953600000,83202.90,85270.20,82594.30,84692.20,97510.760
1741968000000,84692.10,84908.80,83908.30,84508.10,40100.559
1741982400000,84504.80,84507.80,83654.70,83939.80,21196.158
1741996800000,83939.90,84625.00,83915.40,84439.90,13976.156
1742011200000,84440.00,84520.00,83752.90,83797.00,12901.624
1742025600000,83797.10,84143.90,83564.50,84054.80,18511.016
1742040000000,84054.70,84442.00,83961.60,84295.80,16141.216
1742054400000,84295.70,84453.40,84060.00,84261.20,9720.647
1742068800000,84261.20,84433.10,84191.20,84302.90,5424.311
1742083200000,84303.00,84357.10,83691.30,84295.90,13994.399
1742097600000,84296.00,84382.20,83924.40,84242.00,10835.962
1742112000000,84242.10,84300.00,82333.40,82367.90,37793.928
1742126400000,82367.90,83454.00,82354.80,83280.00,36041.854
1742140800000,83280.00,85136.00,82500.00,83064.30,51260.232
1742155200000,83064.30,83424.40,81925.60,82541.60,24704.325
1742169600000,82541.60,83696.60,82483.90,83641.00,21622.978
1742184000000,83641.10,83842.80,82630.80,83525.20,23981.245
1742198400000,83525.30,83749.90,83171.70,83475.00,18023.286
1742212800000,83475.00,84000.00,82384.00,83499.00,64260.353
1742227200000,83499.10,84727.10,83054.90,84436.20,39230.746
1742241600000,84436.20,84464.10,83700.00,83962.90,15543.474
1742256000000,83963.00,83979.80,82913.60,83107.60,23013.546
1742270400000,83107.60,83241.10,82207.70,83124.80,33722.964
1742284800000,83124.70,83422.80,82457.60,82550.00,21256.271
1742299200000,82550.10,82791.30,81113.50,81567.80,61034.890
1742313600000,81567.50,82446.80,81203.10,82273.40,33916.237
1742328000000,82273.50,82772.70,81823.50,82666.10,15953.841
1742342400000,82666.20,83200.00,82501.80,83008.40,20173.238
1742356800000,83008.40,83329.90,82752.10,83152.50,16262.798
1742371200000,83152.50,84088.20,83137.80,83848.40,29259.361
1742385600000,83848.50,84855.00,83455.60,84693.30,47755.976
1742400000000,84693.30,85908.00,83500.00,85382.50,102445.196
1742414400000,85382.60,86990.00,85163.90,86809.80,36065.172
1742428800000,86809.80,87500.00,85580.60,85849.50,46168.248
1742443200000,85849.60,85972.30,85383.00,85764.70,17109.791
1742457600000,85764.70,86285.80,84685.50,85462.20,39885.293
1742472000000,85462.90,86490.00,84520.00,84642.10,65648.016
1742486400000,84642.00,84846.10,83613.60,84129.30,55952.889
1742500800000,84129.30,84582.80,83877.40,84183.60,18179.255
1742515200000,84183.60,84813.60,84140.00,84409.90,15520.668
1742529600000,84410.00,84773.60,83650.30,83889.60,20591.929
1742544000000,83889.50,84319.50,83679.80,84006.00,19775.675
1742558400000,84005.90,84344.40,83122.00,83525.90,52089.133
1742572800000,83525.90,84405.90,83333.00,83925.00,25233.681
1742587200000,83925.00,84550.00,83778.00,84050.30,11211.185
1742601600000,84050.30,84286.00,83940.20,84214.10,7551.459
1742616000000,84214.10,84389.00,84110.60,84235.40,6393.596
1742630400000,84235.40,84509.00,84073.70,84190.80,9147.168
1742644800000,84190.80,84257.20,83932.00,84073.50,8977.145
1742659200000,84073.40,84292.00,84021.10,84134.60,6453.155
1742673600000,84134.50,84171.60,83589.50,83804.90,13696.129
1742688000000,83804.90,84241.50,83761.20,84195.10,7066.186
1742702400000,84195.10,84282.40,84025.20,84229.90,5066.142
1742716800000,84229.90,85024.80,84216.80,84651.50,20060.748
1742731200000,84651.40,85231.70,84529.00,85148.00,18572.248
1742745600000,85148.00,85376.40,84756.00,84966.70,19055.791
1742760000000,84966.70,86110.90,84868.90,86044.20,21078.758
1742774400000,86044.10,86619.90,85478.30,86502.60,34610.780
1742788800000,86502.60,87277.50,86502.50,86827.60,31398.367
1742803200000,86827.50,87898.90,86808.00,87643.50,26543.017
1742817600000,87643.60,88752.00,87100.00,88283.60,58494.267
1742832000000,88283.70,88492.10,87630.00,88162.30,34573.071
1742846400000,88162.30,88438.50,87010.00,87463.40,25287.982
1742860800000,87463.40,87644.00,86278.50,86477.40,28269.465
1742875200000,86477.30,86847.30,86260.00,86404.40,22193.451
1742889600000,86404.50,87448.00,86358.20,87323.30,22125.787
1742904000000,87323.40,88221.00,86839.20,87723.00,47579.277
1742918400000,87723.00,88284.00,87532.30,88051.40,23475.471
1742932800000,88054.00,88500.00,87079.00,87369.80,29861.838
1742947200000,87369.90,87864.40,86980.00,87120.60,16890.189
1742961600000,87120.60,88270.20,87000.30,88106.70,22666.057
1742976000000,88106.70,88235.00,87781.80,87914.90,15319.543
1742990400000,87914.90,87975.00,86387.70,86696.90,63270.743
1743004800000,86696.80,87032.60,85816.30,86525.30,40992.066
1743019200000,86525.20,87360.00,86473.80,86873.80,28818.097
1743033600000,86873.90,87722.40,86752.30,87631.10,18655.879
1743048000000,87631.20,87654.20,87210.00,87363.20,10658.862
1743062400000,87363.10,87562.40,86741.50,86900.70,20115.926
1743076800000,86900.70,87528.00,85724.50,86931.20,77093.821
1743091200000,86931.20,87380.60,86738.00,87025.80,23043.518
1743105600000,87025.90,87695.90,86892.00,87191.20,13883.683
1743120000000,87191.20,87470.00,86694.50,86746.80,19440.395
1743134400000,86746.80,86792.80,85121.10,85175.10,50638.309
1743148800000,85175.10,85409.50,84767.00,85214.00,36315.505
1743163200000,85214.00,85575.00,83915.60,84011.10,66581.578
1743177600000,84011.00,84190.00,83531.70,83760.70,32959.417
1743192000000,83760.70,84499.50,83659.60,84380.80,16349.356
1743206400000,84380.80,84589.70,83668.10,84125.70,18318.477
1743220800000,84125.80,84222.00,83618.00,83696.00,11481.064
1743235200000,83696.10,83917.50,81963.00,82255.10,43603.689
1743249600000,82255.10,82839.90,82104.00,82377.30,22396.817
1743264000000,82377.30,82737.60,81601.00,82722.90,29476.229
1743278400000,82722.90,82759.40,82214.00,82604.70,10237.429
1743292800000,82604.80,83456.00,82450.90,83042.80,19850.117
1743307200000,83042.80,83283.30,82818.50,83037.40,13129.496
1743321600000,83037.50,83490.00,82924.10,83080.00,14250.728
1743336000000,83080.00,83229.60,82531.40,82699.90,18904.413
1743350400000,82699.90,82878.20,82000.00,82510.60,19922.238
1743364800000,82510.50,82732.50,81501.40,82352.80,23508.933
1743379200000,82353.10,82416.00,81222.00,81491.50,31536.956
1743393600000,81491.60,82275.50,81358.10,81895.20,19826.270
1743408000000,81895.10,82236.00,81250.00,82171.50,28834.653
1743422400000,82171.60,83895.80,81600.50,83373.40,80021.150
1743436800000,83373.30,83655.40,82350.00,82426.70,32906.251
1743451200000,82426.70,82898.60,82221.00,82517.50,18939.296
1743465600000,82517.50,83213.00,82383.30,82929.90,15244.220
1743480000000,82930.00,83565.00,82846.10,83415.20,15232.027
1743494400000,83415.20,84474.80,83401.00,83879.90,35987.638
1743508800000,83880.00,85475.00,82505.00,85245.40,81146.631
1743523200000,85245.50,85452.50,84666.30,84911.70,31993.203
1743537600000,84911.60,85595.50,84715.70,85120.90,17659.457
1743552000000,85121.00,85217.90,84479.20,84509.50,19256.193
1743566400000,84509.50,84695.00,83846.00,84389.80,24222.399
1743580800000,84389.70,85425.00,84220.00,84528.40,30044.064
1743595200000,84528.30,87288.00,84424.10,86709.50,101403.902
1743609600000,86709.50,87255.00,86142.00,86854.20,42796.162
1743624000000,86854.20,88500.00,82300.00,82485.10,131241.658
1743638400000,82485.10,83889.20,82137.30,83449.00,43538.786
1743652800000,83449.20,83707.90,82962.10,83423.70,18012.198
1743667200000,83423.70,83774.10,83008.40,83058.10,25845.247
1743681600000,83058.00,83112.00,81172.20,82001.80,92135.552
1743696000000,82001.70,82463.70,81504.80,81977.40,35332.973
1743710400000,81977.40,83298.00,81754.90,83181.50,24298.763
1743724800000,83181.70,83376.00,82553.80,82787.90,23066.562
1743739200000,82787.90,83987.00,82569.90,83968.20,24342.362
1743753600000,83968.10,84686.20,81624.60,82633.70,90960.907
1743768000000,82633.70,83682.90,81796.60,82822.00,128058.822
1743782400000,82821.90,84580.00,82700.00,83971.90,67073.197
1743796800000,83969.30,84422.90,83449.70,83861.30,19607.356
1743811200000,83861.40,84244.50,83323.70,83585.70,17023.772
1743825600000,83585.60,83832.10,83300.50,83490.00,10620.814
1743840000000,83490.00,83866.30,83326.20,83428.40,11518.556
1743854400000,83428.30,83516.80,82333.80,82576.40,33111.923
1743868800000,82576.50,83108.80,82561.80,82818.70,12394.700
1743883200000,82818.70,83674.90,82781.50,83506.10,14904.439
1743897600000,83506.10,83790.50,83100.00,83301.70,13707.665
1743912000000,83301.70,83496.90,82980.00,82990.90,10928.376
1743926400000,82990.90,83143.90,82625.00,82810.10,16830.905
1743940800000,82810.10,82944.00,82155.40,82497.40,29601.982
1743955200000,82497.40,82524.90,78635.00,79572.60,108788.065
1743969600000,79572.60,79858.70,77111.00,78390.00,101334.760
1743984000000,78390.10,79311.50,77311.00,77669.60,69452.679
1743998400000,77669.50,77950.00,74457.00,75084.10,120677.337
1744012800000,75084.10,77550.60,75051.70,76655.90,91159.234
1744027200000,76656.00,81200.00,75761.50,78444.60,284460.151
1744041600000,78444.60,79347.10,77262.60,78086.30,91535.930
1744056000000,78093.70,80184.70,78060.00,79140.00,36558.172
1744070400000,79140.10,80832.10,78726.50,79869.20,44433.570
1744084800000,79869.30,80383.40,79177.00,79448.60,25868.771
1744099200000,79448.50,80049.80,78788.00,79949.70,33896.193
1744113600000,79949.70,80359.50,78136.00,78460.00,92487.008
1744128000000,78459.90,78500.00,76311.00,76830.00,100174.783
1744142400000,76832.00,77259.90,76200.10,76297.90,31549.209
1744156800000,76298.00,76834.60,74578.50,75040.00,79097.570
1744171200000,75039.90,77906.60,74952.00,77651.40,75116.640
1744185600000,77651.30,77833.80,75735.90,76204.10,72634.361
1744200000000,76204.10,78288.80,75988.00,77237.60,98020.430
1744214400000,77237.50,82967.40,77104.00,82291.40,183836.453
1744228800000,82291.40,83554.90,81980.10,82588.00,51944.408
1744243200000,82587.90,82706.90,81424.30,81731.80,34510.348
1744257600000,81731.90,82315.40,81241.10,81561.60,28212.148
1744272000000,81561.50,82083.30,81300.90,81839.20,27826.270
1744286400000,81839.10,82488.00,78559.00,78731.70,115295.495
1744300800000,78731.70,80011.80,78416.00,79611.10,67707.740
1744315200000,79611.10,79999.90,79335.20,79560.20,20110.099
1744329600000,79560.30,80855.00,78935.50,80796.90,41672.942
1744344000000,80796.90,81388.00,80460.00,81213.60,30258.330
1744358400000,81213.70,82944.30,80691.30,82096.60,68755.993
1744372800000,82096.50,83297.90,81305.00,82486.70,79925.014
1744387200000,82486.80,84178.70,81968.00,83809.50,54200.084
1744401600000,83809.50,84300.00,83115.10,83378.30,20965.508
1744416000000,83378.30,83537.60,82756.00,82940.30,18705.450
1744430400000,82940.30,83785.40,82824.20,83685.40,21558.323
1744444800000,83685.40,83998.90,83260.00,83484.00,16179.792
1744459200000,83484.00,85388.00,83432.60,84974.10,58881.989
1744473600000,84974.10,85225.00,84389.50,84891.80,21838.433
1744488000000,84891.70,85884.20,84830.80,85237.80,20838.850
1744502400000,85237.90,86100.00,84689.50,85388.80,34243.838
1744516800000,85388.80,85400.00,84355.10,84378.40,28885.799
1744531200000,84378.40,84918.00,84160.80,84490.60,21104.862
1744545600000,84490.60,84649.00,83450.70,83820.10,40410.003
1744560000000,83820.10,84999.90,82991.50,83949.90,42854.152
1744574400000,83950.00,84424.30,82999.90,83713.70,39539.726
1744588800000,83713.80,85534.80,83630.90,84536.40,53910.823
1744603200000,84536.40,85067.10,84170.20,84544.20,20195.283
1744617600000,84544.30,84936.90,84202.00,84891.50,21445.178
1744632000000,84891.60,85755.00,83668.90,84054.40,69300.966
1744646400000,84054.40,85171.90,83813.90,84872.60,32361.607
1744660800000,84872.50,84925.50,84376.00,84553.90,12135.499
1744675200000,84553.90,85392.20,84303.00,85351.90,22331.604
1744689600000,85351.90,85835.00,85109.90,85691.30,24303.263
1744704000000,85691.30,85974.90,85314.40,85549.30,27366.079
1744718400000,85549.30,86443.00,84567.00,84871.90,65580.031
1744732800000,84871.90,85115.10,83888.00,83954.60,26216.961
1744747200000,83954.50,84197.90,83560.00,83608.70,18724.244
1744761600000,83608.60,83915.70,83063.90,83654.00,25553.467
1744776000000,83653.90,83788.50,83165.80,83325.00,20539.390
1744790400000,83325.00,84091.70,83100.00,84008.50,28400.044
1744804800000,84008.40,85232.00,83453.40,84810.70,51343.800
1744819200000,84811.30,85493.50,83198.20,84286.00,69049.234
1744833600000,84286.00,84642.80,83986.70,83990.00,14555.483
1744848000000,83990.10,84468.80,83772.50,83953.30,16179.399
1744862400000,83953.30,85043.40,83856.90,84629.00,20775.920
1744876800000,84629.00,84730.00,84144.10,84531.80,15124.909
1744891200000,84531.80,84829.40,83700.00,84495.50,36468.828
1744905600000,84495.60,85441.50,84358.00,84797.50,42706.516
1744920000000,84797.00,85100.00,84681.40,84915.00,9777.623
1744934400000,84914.90,85100.00,84682.80,84790.30,8330.771
1744948800000,84790.40,84803.10,84349.30,84622.90,12408.591
1744963200000,84622.90,84734.50,84428.90,84629.40,8899.434
1744977600000,84629.50,84730.00,84300.50,84332.30,11609.942
1744992000000,84332.20,84616.10,84260.00,84529.10,8055.920
1745006400000,84529.00,84659.80,84291.40,84421.00,5914.184
1745020800000,84421.00,84947.80,84317.20,84845.30,10423.621
1745035200000,84845.30,85240.00,84840.10,85174.50,13824.920
1745049600000,85174.50,85400.00,85070.90,85179.30,12830.984
1745064000000,85179.30,85600.00,85006.20,85146.30,15225.821
1745078400000,85146.30,85277.80,84613.50,85054.30,16462.047
1745092800000,85054.20,85332.70,84966.00,85046.90,4613.173
1745107200000,85046.90,85283.60,85001.00,85116.60,5474.433
1745121600000,85116.70,85210.00,84650.00,84736.50,15243.765
1745136000000,84736.60,84751.00,83900.00,84084.60,23477.675
1745150400000,84084.60,84638.40,84050.50,84304.50,17096.184
1745164800000,84304.60,84624.50,84234.10,84608.80,7272.931
1745179200000,84608.90,85266.50,84572.00,85138.80,22086.830
1745193600000,85138.90,87621.80,85100.00,87166.60,72207.253
1745208000000,87166.60,87702.30,87007.00,87400.60,19796.228
1745222400000,87400.70,87777.00,86610.00,86936.40,29449.949
1745236800000,86936.50,88418.20,86750.00,87997.40,72486.723
1745251200000,87997.30,88216.30,86327.00,87369.10,57440.549
1745265600000,87369.20,87599.80,86852.00,87466.00,22689.169
1745280000000,87466.00,88850.00,87017.50,88111.00,52155.508
1745294400000,88111.00,88445.00,87911.10,88434.90,18699.693
1745308800000,88434.90,88649.90,88187.20,88572.70,19693.026
1745323200000,88572.80,91373.00,88432.90,90881.20,124199.257
1745337600000,90881.10,91686.60,90561.70,91356.40,50079.386
1745352000000,91356.30,94142.50,90999.30,93404.90,69178.211
1745366400000,93404.90,93864.90,92552.00,93126.00,33940.086
1745380800000,93126.00,94263.00,92964.10,94102.50,28985.949
1745395200000,94102.60,94453.00,93280.00,93425.20,35725.834
1745409600000,93425.20,94904.30,91898.00,93140.30,86830.394
1745424000000,93140.30,94178.00,92860.00,93436.30,33955.173
1745438400000,93436.40,93869.90,93181.80,93632.10,13310.992
1745452800000,93632.20,93735.10,92607.00,92632.90,19305.989
1745467200000,92632.80,92869.90,92055.10,92166.00,24136.437
1745481600000,92166.10,92620.00,91619.00,92575.10,30141.353
1745496000000,92575.20,93429.60,92380.40,93144.80,36090.385
1745510400000,93144.80,93595.70,92625.00,93497.50,26446.208
1745524800000,93497.60,93980.60,92969.00,93931.60,20972.356
1745539200000,93931.50,94409.50,92788.00,93262.90,29877.009
1745553600000,93262.90,93821.70,92959.20,93734.00,16763.171
1745568000000,93733.90,94642.60,93493.90,94602.30,24204.202
1745582400000,94602.20,95769.60,93876.00,94999.80,78266.827
1745596800000,94999.80,95498.30,94310.00,95229.20,31103.127
1745611200000,95229.30,95284.50,94402.00,94591.80,11616.141
1745625600000,94591.80,95157.10,94500.50,94685.00,13091.802
1745640000000,94685.00,94776.10,94274.00,94520.10,10766.592
1745654400000,94520.00,94680.00,93947.50,94095.60,17868.057
1745668800000,94095.70,94360.00,93833.00,94325.00,12882.691
1745683200000,94325.00,94332.60,94000.00,94261.00,6646.130
1745697600000,94261.00,94850.20,94043.10,94575.70,11282.937
1745712000000,94575.70,95280.50,94000.00,94121.70,25352.851
1745726400000,94121.60,94250.00,93586.70,94027.60,12220.315
1745740800000,94027.70,94295.40,93840.00,93871.10,9208.402
1745755200000,93871.10,94140.80,93547.30,93857.70,15121.759
1745769600000,93857.70,94394.30,93680.00,94388.90,9835.889
1745784000000,94388.90,94517.90,93600.00,93697.10,12076.967
1745798400000,93697.00,93943.80,92700.00,93799.90,34243.196
1745812800000,93800.00,94758.00,93799.90,94641.60,19207.845
1745827200000,94641.60,95490.00,94259.20,95276.10,36146.553
1745841600000,95276.10,95578.80,93520.20,93772.80,60496.166
1745856000000,93772.70,94874.20,93367.20,94740.90,27658.149
1745870400000,94741.00,95146.30,94244.50,94969.00,16668.807
1745884800000,94969.00,95415.70,94380.00,94599.90,32535.760
1745899200000,94599.90,94927.60,94154.10,94878.00,17947.813
1745913600000,94877.90,95264.90,94700.10,95086.90,17261.808
1745928000000,95087.00,95260.00,94466.50,94790.70,25266.996
1745942400000,94790.60,95426.40,94590.50,95250.50,25414.524
1745956800000,95250.50,95350.00,93678.70,94200.10,29404.893
1745971200000,94200.10,95078.50,94081.40,94989.30,18097.325
1745985600000,94989.30,95149.90,94442.30,94577.60,15073.172
1746000000000,94577.60,95186.50,94468.60,95126.50,14665.449
1746014400000,95126.40,95163.60,92848.10,93948.40,81587.654
1746028800000,93948.40,94488.00,93476.20,94118.20,22363.333
1746043200000,94118.20,94751.80,93950.00,94125.10,19142.377
1746057600000,94125.20,94978.10,94086.70,94737.50,19363.191
1746072000000,94737.60,95146.20,94660.20,94978.60,16342.808
1746086400000,94978.60,96351.80,94866.60,96129.90,41762.093
1746100800000,96130.00,97388.00,95742.10,96793.90,62733.290
1746115200000,96793.90,97300.00,96344.40,96459.10,28899.433
1746129600000,96459.50,96834.40,96122.40,96423.30,15425.940
1746144000000,96423.20,97193.70,96400.00,97054.90,17200.018
1746158400000,97055.00,97262.00,96283.10,96302.00,19341.642
1746172800000,96302.00,97072.20,96300.00,96875.70,14786.274
1746187200000,96875.70,97865.40,96585.10,97270.10,54228.730
1746201600000,97270.10,97740.00,96700.00,96856.80,23304.485
1746216000000,96856.80,97083.40,96507.60,96831.20,10336.377
1746230400000,96831.20,96868.40,96255.00,96292.10,12788.794
1746244800000,96292.10,96557.70,96064.10,96290.80,10809.148
1746259200000,96290.80,96377.80,95804.80,95895.60,15912.985
1746273600000,95895.70,96456.00,95834.40,96358.70,11574.759
1746288000000,96358.70,96370.00,95812.70,96312.00,10135.037
1746302400000,96312.00,96399.90,95700.00,95803.30,10199.906
1746316800000,95803.30,96266.60,95508.70,95680.00,14654.377
1746331200000,95680.00,96109.60,95634.00,95842.10,9794.382
1746345600000,95842.10,95886.50,95227.20,95376.00,17133.692
1746360000000,95376.00,95649.00,95172.40,95421.10,13352.424
1746374400000,95421.10,95590.00,95200.10,95533.90,9415.553
1746388800000,95534.00,95700.00,94116.40,94230.20,29910.449
1746403200000,94230.20,94750.10,93445.10,94001.10,35169.994
1746417600000,94001.20,94778.50,93980.00,94696.40,18884.983
1746432000000,94696.40,94726.80,93835.00,93986.00,18035.166
1746446400000,93986.10,94501.00,93559.60,93726.00,37424.134
1746460800000,93726.00,94871.80,93705.30,94295.50,24018.270
1746475200000,94295.20,95165.10,93814.20,94696.70,21369.828
1746489600000,94696.70,94893.30,93961.00,94418.30,16000.398
1746504000000,94418.40,94600.00,94267.00,94350.00,8862.333
1746518400000,94350.00,94354.60,93662.20,93770.30,23699.819
1746532800000,93770.30,94697.20,93327.00,94513.20,48631.997
1746547200000,94513.20,95119.90,94145.40,94910.80,27227.515
1746561600000,94910.80,96879.50,94400.00,96798.90,49261.004
1746576000000,96798.90,97700.00,96153.20,96453.80,49252.243
1746590400000,96453.80,96963.00,96268.00,96940.00,15114.534
1746604800000,96940.00,97077.60,96783.00,97000.00,14368.674
1746619200000,97000.00,97446.80,96655.20,96889.00,34956.983
1746633600000,96889.00,96916.50,95718.50,96124.60,48429.239
1746648000000,96124.50,97363.80,96015.10,96988.40,23145.469
1746662400000,96988.40,99199.90,96831.50,99097.90,60617.723
1746676800000,99098.00,99374.30,98680.10,99212.00,32945.558
1746691200000,99212.10,99863.30,99165.20,99369.80,31717.498
1746705600000,99369.90,101493.20,99050.10,100730.80,83079.999
1746720000000,100730.90,101686.70,100550.00,101254.20,44847.125
1746734400000,101254.30,104305.30,101231.70,103228.10,64214.566
1746748800000,103228.00,103228.10,102327.90,102419.50,24344.001
1746763200000,102419.50,104373.00,102345.70,103597.40,31095.632
1746777600000,103597.40,103920.00,102376.50,102914.50,46422.104
1746792000000,102914.50,103746.80,102358.00,102852.90,38682.860
1746806400000,102853.00,103336.10,102240.00,103145.50,23424.037
1746820800000,103145.50,103366.00,102700.00,102941.90,8915.288
1746835200000,102941.90,103232.00,102784.00,103179.40,9036.731
1746849600000,103179.30,104085.00,102997.30,103721.70,18134.111
1746864000000,103721.70,104066.20,103311.00,103374.60,18529.911
1746878400000,103374.70,103781.10,103038.70,103102.60,13607.261
1746892800000,103102.60,103589.00,102940.00,103148.60,14747.802
1746907200000,103148.70,105000.10,103016.20,104788.80,30328.721
1746921600000,104788.80,104950.00,103406.30,103947.80,27276.827
1746936000000,103947.80,104363.90,103283.30,103327.90,18978.685
1746950400000,103327.80,104750.00,103321.00,104613.70,24045.282
1746964800000,104613.70,104873.50,103726.60,104083.00,30912.963
1746979200000,104082.90,104800.00,103691.90,104373.80,20721.626
1746993600000,104373.80,104526.30,103502.40,104072.70,17201.038
1747008000000,104072.70,105190.40,103664.80,104064.00,30422.810
1747022400000,104064.00,105863.10,103696.30,104426.20,52152.229
1747036800000,104426.30,104684.00,103550.00,103705.10,27636.310
1747051200000,103705.00,104620.10,102345.00,102481.70,70155.841
1747065600000,102481.80,103040.80,100678.00,101812.80,55847.607
1747080000000,101812.90,103080.90,101728.30,102739.30,20327.902
1747094400000,102739.30,102743.90,101400.00,101681.30,25611.921
1747108800000,101681.30,102900.00,101580.40,102624.00,18458.159
1747123200000,102624.00,103778.90,102507.60,103685.50,22686.973
1747137600000,103685.50,103930.10,102762.90,103633.10,44843.029
1747152000000,103633.00,104949.20,103488.20,104744.70,35688.452
1747166400000,104744.70,104889.20,103795.50,104082.00,15079.794
1747180800000,104082.00,104086.50,103409.00,103549.20,16919.418
1747195200000,103549.10,103949.60,103314.00,103662.20,13321.090
1747209600000,103662.20,104109.60,102815.00,103903.40,29067.801
1747224000000,103903.30,104319.00,102773.40,103461.40,39994.122
1747238400000,103461.30,103675.00,102536.00,103278.70,20724.080
1747252800000,103278.80,103626.50,103248.90,103458.10,6237.586
1747267200000,103458.10,103820.00,102663.50,102706.10,16572.907
1747281600000,102706.00,102926.20,101677.00,101733.90,23248.870
1747296000000,101734.00,102398.70,101433.00,102335.30,26222.220
1747310400000,102335.30,103242.00,101270.80,103211.20,48382.314
1747324800000,103211.20,104162.80,102500.00,103107.00,40544.155
1747339200000,103107.10,103939.80,102662.00,103714.50,21373.640
1747353600000,103714.20,104440.10,103414.80,103979.00,22492.546
1747368000000,103979.10,104150.00,103640.00,103646.60,14442.576
1747382400000,103646.50,103872.90,103062.30,103614.50,21526.350
1747396800000,103614.60,104258.70,103300.00,104144.00,26264.535
1747411200000,104144.00,104524.20,103533.20,103974.30,20926.270
1747425600000,103974.30,103991.70,103361.60,103412.20,9860.772
1747440000000,103412.20,103564.70,102541.60,103464.70,26575.089
1747454400000,103464.60,103658.00,103239.60,103399.40,10427.045
1747468800000,103399.50,103524.70,102705.00,102944.20,22486.468
1747483200000,102944.10,103132.30,102591.00,102900.00,11160.074
1747497600000,102900.10,103305.80,102706.60,103100.10,10946.644
1747512000000,103100.10,103458.60,102851.50,103079.60,8777.349
1747526400000,103079.50,103380.80,103052.20,103244.20,6439.874
1747540800000,103244.30,103949.60,103244.30,103893.00,13111.120
1747555200000,103893.00,104066.10,103754.40,103769.00,12871.838
1747569600000,103769.00,105665.30,103660.70,105484.20,41829.124
1747584000000,105484.20,105999.70,103800.00,103834.00,49587.471
1747598400000,103834.10,106629.80,103217.20,106407.60,49384.857
1747612800000,106407.50,107114.30,103502.40,103569.40,51326.874
1747627200000,103569.50,103739.20,102038.80,103167.00,57011.120
1747641600000,103167.10,103359.50,102732.80,102912.00,20571.050
1747656000000,102912.10,104920.20,102088.90,104740.40,60679.364
1747670400000,104740.50,105519.80,104426.80,105457.80,47160.881
1747684800000,105457.90,105798.50,104982.00,105531.60,21076.315
1747699200000,105531.50,106800.00,105480.10,105720.00,42632.840
1747713600000,105720.00,106371.30,104868.50,104980.10,27220.608
1747728000000,104980.10,105371.70,104808.60,105159.20,20790.139
1747742400000,105159.30,105357.60,104115.20,105294.50,41453.456
1747756800000,105294.50,107252.90,105028.40,106972.20,54588.390
1747771200000,106972.30,107292.50,105875.80,106800.10,39501.813
1747785600000,106800.00,107168.70,106146.90,106791.00,22911.733
1747800000000,106791.00,107950.00,106400.00,106463.60,49534.063
1747814400000,106463.70,106748.70,106037.90,106490.90,30178.731
1747828800000,106490.90,109430.00,106277.80,108936.60,94965.494
1747843200000,108936.60,109804.20,106085.30,108547.30,157112.935
1747857600000,108547.20,110830.00,107671.70,109609.50,58886.898
1747872000000,109609.60,111866.40,109153.40,111755.90,64755.016
1747886400000,111755.90,111776.30,110433.00,111005.80,47573.709
1747900800000,111005.80,111303.80,110238.50,110944.10,32748.467
1747915200000,110944.00,111582.50,110492.80,111250.60,49945.987
1747929600000,111251.00,111959.50,110860.50,111136.10,34534.378
1747944000000,111136.20,111692.90,110704.10,111662.70,16509.476
1747958400000,111662.60,111770.40,110958.50,111044.00,22959.440
1747972800000,111044.00,111143.30,110351.50,110685.20,23761.569
1747987200000,110685.30,111348.00,108816.00,109033.20,45137.260
1748001600000,109033.20,109969.60,107250.00,108892.40,108855.124
1748016000000,108892.50,109760.00,107950.00,108659.40,46212.629
1748030400000,108659.50,108677.20,106721.90,107271.50,32554.325
1748044800000,107271.60,108330.60,106836.00,108306.80,24382.839
1748059200000,108306.70,108520.00,107520.00,107550.60,21546.444
1748073600000,107550.70,109440.20,107546.10,109152.20,34423.684
1748088000000,109152.20,109227.10,108495.80,108889.20,29417.399
1748102400000,108889.10,109165.80,108647.10,108912.70,18957.367
1748116800000,108912.70,109084.80,107394.70,107698.90,36431.025
1748131200000,107699.00,108210.00,107142.00,108045.40,24941.567
1748145600000,108045.40,108250.10,107387.80,107637.10,14442.712
1748160000000,107637.10,107650.50,106653.00,107214.00,32864.988
1748174400000,107214.00,107698.40,106497.00,106927.90,33112.095
1748188800000,106928.00,107888.00,106593.40,107656.30,14416.703
1748203200000,107656.30,109285.10,107118.80,108955.90,39687.738
1748217600000,108956.00,109856.00,108616.60,109587.00,31295.991
1748232000000,109587.10,110197.90,109327.40,110049.90,21821.547
1748246400000,110049.90,110138.80,109500.00,109736.70,14879.390
1748260800000,109736.60,110400.00,109412.90,109963.20,30300.067
1748275200000,109963.20,110394.70,108807.00,109074.30,34224.496
1748289600000,109074.40,109863.20,108894.00,109386.80,14470.729
1748304000000,109386.80,109633.80,107438.00,108844.90,51580.633
1748318400000,108845.00,109600.00,108483.00,109488.00,24898.577
1748332800000,109488.00,109861.50,109366.90,109541.80,22031.647
1748347200000,109541.90,110700.00,108609.40,110091.30,77612.286
1748361600000,110091.30,110459.70,109516.10,109822.80,27423.933
1748376000000,109824.80,109857.60,108533.50,108889.30,20052.829
1748390400000,108889.20,109252.60,108339.20,108807.60,20569.689
1748404800000,108807.30,109040.70,108568.70,108764.90,12077.087
1748419200000,108764.90,109076.20,108178.10,108821.40,25977.609
1748433600000,108821.30,109012.00,107000.00,107065.50,53509.222
1748448000000,107065.50,107793.00,106881.50,106894.10,25973.073
1748462400000,106894.00,107999.00,106723.90,107723.10,20311.079
1748476800000,107723.10,108450.00,107378.60,107996.40,22974.724
1748491200000,107996.50,108056.80,106877.40,107839.40,21142.095
1748505600000,107839.50,108860.00,107638.60,108740.00,27695.002
1748520000000,108740.00,108772.90,106400.00,106972.50,66342.689
1748534400000,106972.60,107121.10,105580.00,105699.20,52209.294
1748548800000,105699.10,106415.00,105054.20,105539.90,22737.451
1748563200000,105539.90,106175.90,104521.00,105978.80,41953.330
1748577600000,105978.80,106266.00,104680.40,104997.50,28438.438
1748592000000,104997.50,105940.10,104568.00,105827.40,35034.252
1748606400000,105827.40,105949.10,105000.10,105504.00,38288.794
1748620800000,105504.00,105531.50,103650.20,104597.60,52008.664
1748635200000,104597.60,104849.90,103555.00,103950.00,23977.824
1748649600000,103949.90,104259.40,103032.10,103640.10,32955.856
1748664000000,103640.20,103863.60,103433.10,103700.60,11063.629
1748678400000,103700.50,103770.20,103249.90,103460.90,10547.557
1748692800000,103460.90,104800.00,103444.40,104497.10,29627.761
1748707200000,104497.10,104743.80,104215.00,104653.90,11091.248
1748721600000,104653.90,104859.30,104423.00,104544.70,8321.789
1748736000000,104544.60,104599.60,103860.90,104336.40,14341.262
1748750400000,104336.40,104700.00,104138.00,104231.00,9469.678
1748764800000,104230.90,104410.50,103704.10,104038.00,15555.538
1748779200000,104038.00,104760.00,103708.60,104664.00,16896.822
1748793600000,104663.90,105285.00,104280.10,105075.20,24033.126
1748808000000,105075.20,105823.60,104833.10,105583.30,17123.814
1748822400000,105583.30,105700.00,104520.00,104781.80,17614.141
1748836800000,104781.80,105398.50,104549.80,105346.40,15376.453
1748851200000,105346.40,105900.00,103867.80,104000.00,39491.959
1748865600000,104000.10,104646.10,103600.60,104396.80,42551.179
1748880000000,104396.90,104699.40,103982.90,104366.40,15855.761
1748894400000,104366.50,105893.80,104366.50,105814.30,27363.425
1748908800000,105814.40,106470.80,105280.00,105448.80,29321.060
1748923200000,105448.80,105475.40,105062.50,105134.40,12956.522
1748937600000,105134.40,105305.20,104822.40,105240.10,12289.458
1748952000000,105240.10,106775.00,104969.40,106556.10,42236.633
1748966400000,106556.10,106619.60,105526.20,106171.80,25039.332
1748980800000,106179.70,106208.00,105200.40,105330.10,17373.002
1748995200000,105330.10,105800.00,105072.00,105474.90,15154.628
1749009600000,105474.80,105566.40,105200.00,105260.20,9967.039
1749024000000,105260.10,105967.20,105039.10,105044.10,22229.278
1749038400000,105044.20,105510.20,104111.70,105254.70,44030.271
1749052800000,105254.70,105437.80,104824.00,104870.40,14054.096
1749067200000,104870.40,105006.30,104350.00,104641.80,13098.813
1749081600000,104641.80,105225.60,104594.80,104991.40,11856.411
1749096000000,104991.50,105183.00,104321.20,104473.00,15487.560
1749110400000,104473.10,104880.00,104373.00,104772.70,10288.160
1749124800000,104772.70,105878.30,103825.00,104490.50,68596.820
1749139200000,104490.50,104547.90,101500.00,101872.90,76338.478
1749153600000,101873.00,102163.90,100305.10,101458.60,63671.245
1749168000000,101458.70,102464.70,101003.40,102444.90,24397.812
1749182400000,102445.00,103424.50,102321.10,103096.80,28923.945
1749196800000,103096.70,103953.90,103096.70,103866.00,24302.565
1749211200000,103865.90,105283.00,103471.40,105035.40,61774.111
1749225600000,105035.40,105240.00,104010.00,104176.90,25548.570
1749240000000,104177.00,104574.90,104109.20,104240.00,9353.903
1749254400000,104240.10,104856.00,103800.10,104822.40,15787.969
1749268800000,104822.40,105293.00,104591.90,104813.60,13412.441
1749283200000,104813.70,105222.00,104632.00,105094.50,10912.449
1749297600000,105094.50,105758.80,105094.40,105507.90,19660.879
1749312000000,105507.90,105850.00,105222.60,105694.20,13309.422
1749326400000,105694.10,105878.30,105482.70,105507.50,6750.013
1749340800000,105507.50,105760.50,105347.00,105436.40,8070.070
1749355200000,105436.50,105617.20,105358.20,105380.40,5648.935
1749369600000,105380.50,105666.60,104927.40,105619.20,15763.690
1749384000000,105619.20,106200.00,105450.00,105917.50,19486.972
1749398400000,105917.60,106300.00,105888.50,106242.60,13202.730
1749412800000,106242.60,106482.60,105511.00,105676.50,12932.707
1749427200000,105676.50,105929.80,105253.20,105617.00,12640.840
1749441600000,105617.00,105685.70,105265.00,105516.70,8731.330
1749456000000,105516.70,107774.80,105429.20,107707.90,49256.420
1749470400000,107707.80,107985.00,106800.30,107564.30,43730.983
1749484800000,107564.30,108791.80,107563.40,108515.10,31629.447
1749499200000,108515.10,110653.60,108383.00,110227.90,46967.389
1749513600000,110228.00,110280.00,109340.00,109525.80,20879.389
1749528000000,109525.90,109690.80,109041.10,109178.00,17640.424
1749542400000,109178.10,109800.00,109010.20,109498.10,22098.840
1749556800000,109498.00,109852.90,108282.00,108975.30,44120.927
1749571200000,108975.20,110367.20,108467.50,109460.00,29872.958
1749585600000,109460.10,110265.50,109189.00,110235.40,17604.436
1749600000000,110235.40,110247.00,109500.00,109664.10,12285.286
1749614400000,109664.10,109715.40,109322.00,109396.90,9255.542
1749628800000,109396.90,109629.30,109133.80,109200.10,11892.147
1749643200000,109200.10,110350.00,108950.10,109694.80,47346.710
1749657600000,109694.90,109776.50,108331.70,108684.50,33333.871
1749672000000,108684.50,109164.80,108001.20,108600.00,20308.765
1749686400000,108600.10,108782.10,107650.00,107820.50,24193.834
1749700800000,107820.50,107951.00,107300.00,107577.00,17432.701
1749715200000,107577.00,107798.00,106830.00,106862.90,20489.988
1749729600000,106862.90,107769.10,106539.10,106960.60,44438.417
1749744000000,106960.60,108398.40,106621.00,106749.60,36093.638
1749758400000,106749.50,106929.90,105602.00,105609.50,43141.612
1749772800000,105609.40,105661.00,102614.00,104233.90,98662.526
1749787200000,104233.90,104891.40,103733.70,104831.40,27313.357
1749801600000,104831.40,105459.70,104360.00,104989.90,28154.767
1749816000000,104990.00,105750.00,104069.50,105391.90,46774.893
1749830400000,105392.00,105912.00,104607.00,105050.00,31938.527
1749844800000,105050.10,106141.10,104963.10,106027.30,13091.343
1749859200000,106027.30,106173.60,105150.10,105189.40,16567.596
1749873600000,105189.30,105374.90,104738.70,105025.10,9863.730
1749888000000,105025.00,105088.00,104772.30,105030.60,7912.806
1749902400000,105030.50,105084.20,104570.00,104783.40,11378.285
1749916800000,104783.40,105011.00,104290.00,104582.30,18623.517
1749931200000,104584.20,105438.00,104225.40,105359.90,15565.636
1749945600000,105359.80,105631.60,105208.70,105425.60,7896.238
1749960000000,105425.60,106099.40,105137.00,105374.10,16601.294
1749974400000,105374.20,105444.90,104812.20,104924.50,10938.222
1749988800000,104924.60,105810.60,104900.00,105526.00,16414.581
1750003200000,105525.90,105744.00,104999.90,105252.00,10211.904
1750017600000,105251.90,105571.40,104399.90,105534.60,16757.160
1750032000000,105534.70,105927.00,104920.00,105865.60,17792.791
1750046400000,105865.60,107250.00,105817.30,107023.80,30100.727
1750060800000,107023.80,107199.90,106540.00,106842.50,16343.835
1750075200000,106842.60,107759.80,106446.60,107374.90,32297.364
1750089600000,107375.00,108882.00,107258.00,108594.20,31766.821
1750104000000,108594.20,108900.00,106640.10,106750.10,38511.681
1750118400000,106750.10,107727.40,106068.00,107553.30,37289.670
1750132800000,107553.30,107655.60,106413.40,106711.10,17587.099
1750147200000,106711.00,106785.20,105461.40,105592.90,28139.512
1750161600000,105592.90,105816.50,104068.00,104199.20,60675.190
1750176000000,104199.20,105288.00,103300.00,104630.60,58959.759
1750190400000,104630.50,104865.80,104143.40,104508.00,23400.633
1750204800000,104508.00,105192.20,104312.20,105132.20,14529.003
1750219200000,105132.10,105500.00,104660.00,104925.70,17150.860
1750233600000,104925.60,105276.80,104111.40,104791.20,24837.186
1750248000000,104791.10,105300.00,103750.00,104744.20,52718.894
1750262400000,104744.20,104795.00,103426.10,103773.30,44220.997
1750276800000,103773.30,105098.00,103601.50,104832.80,19249.459
1750291200000,104832.80,105185.70,104364.50,105054.40,15050.881
1750305600000,105054.40,105184.00,104560.60,104585.90,12630.633
1750320000000,104585.80,105032.10,104570.10,104717.70,9030.799
1750334400000,104717.80,104861.00,104021.30,104055.10,21664.367
1750348800000,104055.20,104795.20,103870.30,104202.60,19357.697
1750363200000,104202.60,104869.40,104094.60,104607.10,9976.228
1750377600000,104607.10,104770.00,104338.50,104555.10,8187.275
1750392000000,104555.00,105765.80,104185.30,105763.50,22781.587
1750406400000,105763.60,106486.20,105715.00,105928.60,35129.800
1750420800000,105928.70,106111.90,103805.90,104168.50,58185.489
1750435200000,104168.50,104221.00,102255.30,103263.90,58187.934
1750449600000,103263.80,103796.80,102903.60,103246.10,16630.050
1750464000000,103246.10,103641.00,103067.70,103434.50,8659.610
1750478400000,103434.60,103550.00,103268.60,103402.20,6144.184
1750492800000,103402.10,103940.60,103401.90,103827.50,12050.220
1750507200000,103827.50,103899.00,103222.70,103516.70,17939.107
1750521600000,103516.70,103600.00,102128.20,102207.50,22756.187
1750536000000,102207.50,102849.20,100789.90,102079.80,53222.042
1750550400000,102079.80,103362.60,101781.80,102340.00,46913.542
1750564800000,102340.00,102910.70,102220.90,102399.00,16170.421
1750579200000,102399.10,102770.60,102022.50,102693.70,14959.174
1750593600000,102693.70,102789.70,98786.90,98849.90,119443.671
1750608000000,98849.70,100348.70,98608.90,98829.70,44659.100
1750622400000,98829.70,100993.50,98115.40,100904.70,51416.728
1750636800000,100904.70,101580.60,100425.60,101104.40,27455.568
1750651200000,101104.30,102155.10,100899.30,101874.50,23144.867
1750665600000,101874.40,102028.90,101071.10,101248.50,18847.037
1750680000000,101248.40,102596.50,100749.80,101369.70,54410.602
1750694400000,101369.60,103273.70,99547.60,103114.20,96846.702
1750708800000,103114.20,106050.00,102818.40,105290.90,76517.265
1750723200000,105291.00,105454.10,104658.00,104870.00,22863.359
1750737600000,104870.00,105775.90,104651.40,104891.80,27514.690
1750752000000,104891.80,105525.00,104570.80,105134.60,23689.654
1750766400000,105134.50,105675.00,104750.00,105184.40,32530.670
1750780800000,105184.30,106239.00,105125.30,105582.10,27242.579
1750795200000,105582.10,106073.90,105382.40,106034.90,10608.935
1750809600000,106034.90,106750.90,105755.60,106177.00,25837.304
1750824000000,106176.90,106664.20,105949.20,106547.50,11857.788
1750838400000,106547.50,107187.60,106286.50,107136.30,25270.696
1750852800000,107136.30,108095.70,106700.00,106982.60,62655.746
1750867200000,106982.70,107863.10,106859.00,107698.20,20971.111
1750881600000,107698.10,107965.90,107022.60,107280.00,12685.178
1750896000000,107280.10,108249.90,107041.40,107809.30,21442.778
1750910400000,107809.40,108044.90,107467.60,107768.50,10862.684
1750924800000,107768.60,108135.00,107050.00,107272.80,17852.704
1750939200000,107272.80,107724.50,106500.00,107260.00,33276.670
1750953600000,107259.90,107630.80,106952.00,107476.10,13297.913
1750968000000,107476.00,107971.30,106789.90,106913.70,17700.637
1750982400000,106913.80,107462.50,106345.20,107428.00,15903.805
1750996800000,107428.10,107686.00,106801.00,106816.90,13995.556
1751011200000,106816.90,107125.90,106616.80,106943.70,18756.592
1751025600000,106943.70,107378.60,106313.10,107261.30,34011.743
1751040000000,107261.20,107659.90,106373.30,106748.10,27344.038
1751054400000,106748.20,107232.10,106736.70,107010.70,8625.716
1751068800000,107010.60,107313.40,106767.00,107248.00,8573.672
1751083200000,107248.00,107458.40,107127.20,107433.00,5266.941
1751097600000,107433.10,107450.00,107194.70,107320.30,5080.545
1751112000000,107320.20,107538.00,107039.80,107407.60,6987.810
1751126400000,107407.70,107494.00,107157.00,107162.50,6567.659
1751140800000,107162.50,107324.80,107096.70,107241.00,3193.792
1751155200000,107240.90,107464.00,107112.60,107156.50,6341.251
1751169600000,107156.50,107372.60,107156.40,107367.20,3360.312
1751184000000,107367.30,108460.00,107351.60,108448.30,25224.949
1751198400000,108448.30,108499.00,107580.60,107686.90,14699.842
1751212800000,107686.90,107735.70,107233.10,107346.50,13327.099
1751227200000,107346.50,108400.00,107203.80,108309.80,16494.872
1751241600000,108309.80,108783.90,108193.50,108466.70,16475.112
1751256000000,108466.80,108500.00,107427.50,107562.60,20237.325
1751270400000,107562.60,107916.60,107320.00,107608.10,14358.165
1751284800000,107608.10,107821.80,106686.40,107525.60,38964.361
1751299200000,107525.70,107775.00,107057.90,107689.60,15502.118
1751313600000,107689.60,107714.90,106863.80,107087.40,9144.305
1751328000000,107087.30,107499.90,106972.90,107149.40,9332.538
1751342400000,107149.40,107164.50,106557.40,107134.90,15896.580
1751356800000,107134.80,107139.10,106222.00,106556.80,16028.372
1751371200000,106556.80,107140.70,105578.00,105908.30,45292.146
1751385600000,105908.30,106248.60,105333.00,105340.10,21726.122
1751400000000,105340.10,106066.10,105182.60,105637.90,12158.643
1751414400000,105637.90,106165.10,105010.00,106140.00,15209.233
1751428800000,106140.00,107144.40,106074.20,107026.00,21402.727
1751443200000,107026.10,107799.90,107026.10,107439.60,30093.388
1751457600000,107439.70,108754.60,107132.30,108695.30,42934.441
1751472000000,108695.40,109690.40,108603.90,109621.90,52472.299
1751486400000,109621.80,109621.90,108682.50,108800.00,15455.173
1751500800000,108800.00,109075.10,108480.60,108594.80,12861.074
1751515200000,108594.80,109516.30,108509.10,109235.00,16803.208
1751529600000,109234.90,110265.10,109234.90,109551.00,26021.311
1751544000000,109551.10,110484.00,108706.00,109089.80,60448.794
1751558400000,109089.90,109865.90,108966.00,109743.90,17643.766
1751572800000,109743.80,109963.10,109488.80,109545.20,7709.844
1751587200000,109545.10,109732.30,109050.00,109195.60,10659.199
1751601600000,109195.70,109283.20,108661.00,108661.00,15465.862
1751616000000,108661.10,109071.10,108456.40,108842.30,16634.811
1751630400000,108842.20,108929.30,107436.00,107534.70,48983.286
1751644800000,107534.60,107868.60,107200.00,107429.60,28292.819
1751659200000,107429.60,108229.00,107385.90,107935.40,12269.870
1751673600000,107935.30,108218.00,107688.30,108093.50,7916.035
1751688000000,108093.40,108368.10,107946.10,108000.90,7573.066
1751702400000,108000.80,108175.00,107828.10,108059.10,5891.798
1751716800000,108059.20,108194.40,107908.80,108012.70,5090.317
1751731200000,108012.60,108130.70,107809.20,108092.10,6157.434
1751745600000,108092.20,108183.80,107930.10,108153.40,4032.298
1751760000000,108153.40,108211.00,107968.10,107996.30,4372.140
1751774400000,107996.20,108180.00,107901.00,107991.30,3924.309
1751788800000,107991.40,108087.20,107743.40,108017.30,7597.263
1751803200000,108017.30,109079.10,107984.70,108856.80,25569.419
1751817600000,108856.80,108917.00,108209.60,108493.80,10930.018
1751832000000,108493.80,109684.70,108477.90,109145.80,19995.454
1751846400000,109145.80,109667.30,108622.60,109348.90,15642.606
1751860800000,109349.00,109409.70,108611.00,109016.30,11504.510
1751875200000,109016.30,109041.20,108525.00,108599.90,12004.305
1751889600000,108599.80,108612.20,107903.20,108249.00,30362.595
1751904000000,108248.90,108460.80,107456.00,107999.90,28556.766
1751918400000,107999.90,108250.10,107728.50,108203.90,8326.796
1751932800000,108203.90,108475.00,107400.00,107852.60,17984.307
1751947200000,107852.50,108445.80,107696.50,108440.70,10189.634
1751961600000,108440.70,108964.10,108172.40,108713.10,15943.556
1751976000000,108713.20,109180.00,108151.00,108217.00,24144.169
1751990400000,108217.00,109115.40,108041.00,108723.60,20875.072
1752004800000,108723.60,108928.00,108570.10,108873.10,6019.289
1752019200000,108873.20,109107.40,108284.20,108311.90,11601.542
1752033600000,108311.90,108900.00,108273.50,108674.80,9998.912
1752048000000,108674.70,109074.00,108510.00,109008.30,9544.375
1752062400000,109008.30,109738.50,108429.00,109020.00,44231.698
1752076800000,109019.90,112036.80,108975.90,111718.80,55843.017
1752091200000,111718.80,111931.50,110508.00,111199.90,36615.187
1752105600000,111199.80,111548.30,110834.60,111028.20,13062.149
1752120000000,111028.30,111399.70,110894.20,111186.10,10503.767
1752134400000,111186.20,111370.30,110800.00,110972.20,12366.984
1752148800000,110972.10,111363.50,110432.20,111350.00,29486.905
1752163200000,111350.00,113760.00,111267.70,113246.10,78710.069
1752177600000,113246.10,117500.00,113208.40,115979.20,81440.339
1752192000000,115979.20,116945.80,115186.70,116839.50,29918.240
1752206400000,116839.50,118395.90,116429.20,117522.70,57156.787
1752220800000,117522.70,118882.80,117522.70,117790.10,30866.366
1752235200000,117790.00,118226.00,116725.10,116910.30,41834.893
1752249600000,116910.30,118128.00,116611.10,118072.70,25630.995
1752264000000,118072.70,118072.70,117130.00,117500.00,14412.076
1752278400000,117500.00,117818.60,117055.00,117730.00,8464.791
1752292800000,117730.00,118036.70,117454.90,117689.70,9786.843
1752307200000,117689.60,118176.90,117579.80,117773.60,10654.146
1752321600000,117773.50,117819.80,116862.40,117075.60,20538.261
1752336000000,117075.60,117609.40,117012.00,117525.70,8165.529
1752350400000,117525.70,117527.80,116960.00,117389.30,6112.902
1752364800000,117389.40,117794.70,117164.30,117711.50,7178.918
1752379200000,117711.60,118040.80,117639.70,117950.00,7310.041
1752393600000,117950.00,118058.30,117641.30,118036.10,6329.781
1752408000000,118036.00,119655.00,117933.40,118610.60,39022.920
1752422400000,118610.60,119454.90,118325.40,118923.00,14954.202
1752436800000,118922.90,119333.00,118197.70,119038.30,15256.519
1752451200000,119038.30,121800.00,118862.60,120733.20,43343.170
1752465600000,120733.20,123300.00,120515.90,122731.00,55896.715
1752480000000,122731.00,122772.70,121357.00,121474.50,26389.017
1752494400000,121474.50,122113.90,119590.90,119863.10,50636.426
1752508800000,119863.10,120510.90,119200.00,119920.00,31947.629
1752523200000,119920.30,120430.00,119505.00,119816.50,13343.163
1752537600000,119816.50,119919.40,116870.00,117209.20,58092.182
1752552000000,117209.20,117761.30,116227.00,116777.10,43592.968
1752566400000,116777.10,117229.90,116300.00,117110.40,23334.349
1752580800000,117110.40,118499.80,115678.10,116393.00,79630.187
1752595200000,116393.10,117727.40,116050.00,116428.90,45663.410
1752609600000,116428.80,117965.60,116189.00,117738.50,19664.350
1752624000000,117738.60,118208.60,117017.10,117477.60,17005.915
1752638400000,117477.70,118297.10,117252.20,118181.20,14568.033
1752652800000,118181.20,119299.90,118113.60,118755.10,24815.797
1752667200000,118755.10,119786.70,118156.00,119056.00,52951.251
1752681600000,119055.90,119888.00,118430.30,119186.70,27062.815
1752696000000,119186.70,120100.00,118359.40,118590.70,22762.137
1752710400000,118590.70,119151.30,117663.60,118090.90,24347.198
1752724800000,118090.80,118763.40,117810.40,118293.90,15838.307
1752739200000,118293.80,119216.40,117915.20,117968.90,19524.523
1752753600000,117968.80,119100.00,117412.80,118875.00,33485.560
1752768000000,118875.00,119879.10,118293.60,118948.80,24071.418
1752782400000,118948.80,120951.50,118343.20,119176.60,47007.395
1752796800000,119176.50,120799.00,119003.80,120212.80,22719.763
1752811200000,120212.80,120846.10,119300.00,119356.60,21765.573
1752825600000,119356.50,119483.20,118384.60,119175.50,27047.111
1752840000000,119175.50,119519.80,117230.70,117830.00,46533.252
1752854400000,117830.10,118053.50,117109.40,117361.60,20948.078
1752868800000,117361.70,118000.00,116788.90,117896.40,23233.129
1752883200000,117896.50,118340.70,117588.00,118295.20,9844.745
1752897600000,118295.30,118337.50,118013.20,118135.00,5699.452
1752912000000,118134.90,118456.00,117904.00,118300.00,7488.051
1752926400000,118300.00,118301.40,117615.30,118025.60,11576.241
1752940800000,118025.60,118149.80,117562.10,117978.30,8300.911
1752955200000,117978.40,118125.70,117245.90,117814.40,9621.793
1752969600000,117814.30,118158.70,117618.00,117934.10,7587.220
1752984000000,117934.20,118214.00,117736.30,117984.30,5749.199
1752998400000,117984.30,118261.60,117801.00,117869.20,9129.395
1753012800000,117869.20,118794.00,117701.10,118669.30,17153.006
1753027200000,118669.40,118856.60,117912.80,118131.20,13641.525
1753041600000,118131.20,118245.30,116370.10,117216.00,29120.237
