timestamp,open,high,low,close,volume
1767020400000,87429.97000000,87733.24000000,87222.41000000,87733.23000000,311.44598000
1767021300000,87733.23000000,87918.69000000,87469.96000000,87736.25000000,256.42778000
1767022200000,87736.25000000,87885.60000000,87678.25000000,87821.51000000,148.49058000
1767023100000,87821.51000000,87853.24000000,87592.66000000,87691.62000000,273.79274000
1767024000000,87691.62000000,87840.08000000,87600.43000000,87770.46000000,104.42537000
1767024900000,87770.46000000,87776.85000000,87439.03000000,87542.11000000,81.84920000
1767025800000,87542.11000000,87726.34000000,87532.29000000,87617.49000000,108.05299000
1767026700000,87617.48000000,87770.46000000,87550.00000000,87627.11000000,78.01401000
1767027600000,87627.11000000,87750.00000000,87573.43000000,87615.74000000,79.94281000
1767028500000,87615.74000000,87678.00000000,87350.00000000,87437.96000000,92.08203000
1767029400000,87437.96000000,87620.81000000,87423.96000000,87598.66000000,67.95237000
1767030300000,87598.66000000,87850.00000000,87598.66000000,87849.99000000,82.85804000
1767031200000,87850.00000000,87996.22000000,87684.92000000,87788.58000000,179.57389000
1767032100000,87788.59000000,87870.44000000,87692.67000000,87712.54000000,71.83844000
1767033000000,87712.54000000,87781.73000000,87524.24000000,87612.09000000,117.84384000
1767033900000,87612.09000000,87612.09000000,87361.53000000,87464.77000000,90.50244000
1767034800000,87464.78000000,87668.23000000,87312.34000000,87571.31000000,126.86195000
1767035700000,87571.31000000,87590.84000000,87468.00000000,87509.65000000,44.47708000
1767036600000,87509.65000000,87588.18000000,87387.54000000,87405.88000000,65.49462000
1767037500000,87405.88000000,87466.84000000,87337.06000000,87366.23000000,65.91425000
1767038400000,87366.23000000,87547.92000000,87300.00000000,87536.72000000,173.76761000
1767039300000,87536.72000000,87597.59000000,87330.27000000,87339.40000000,100.81650000
1767040200000,87339.40000000,87407.51000000,87212.60000000,87236.09000000,97.55872000
1767041100000,87236.10000000,87280.00000000,87085.80000000,87212.01000000,293.31757000
1767042000000,87212.01000000,87371.62000000,87173.31000000,87356.90000000,110.71104000
1767042900000,87356.91000000,87369.69000000,87228.24000000,87292.64000000,37.42924000
1767043800000,87292.64000000,87358.54000000,87266.46000000,87358.53000000,34.02244000
1767044700000,87358.53000000,87358.54000000,87312.03000000,87337.85000000,38.87877000
1767045600000,87337.85000000,87337.85000000,87071.49000000,87128.55000000,84.79616000
1767046500000,87128.55000000,87260.03000000,87128.55000000,87225.02000000,90.58546000
1767047400000,87225.02000000,87389.87000000,87206.03000000,87379.10000000,86.59659000
1767048300000,87379.10000000,87404.29000000,87340.72000000,87351.05000000,48.55906000
1767049200000,87351.05000000,87395.07000000,87280.46000000,87375.11000000,59.29736000
1767050100000,87375.11000000,87375.11000000,87200.01000000,87206.15000000,56.16004000
1767051000000,87206.15000000,87269.98000000,87188.00000000,87221.86000000,38.76286000
1767051900000,87221.86000000,87261.92000000,87210.43000000,87237.13000000,36.87834000
1767052800000,87237.13000000,87338.48000000,87202.54000000,87302.24000000,76.56881000
1767053700000,87302.24000000,87359.40000000,87292.64000000,87300.00000000,30.83033000
1767054600000,87300.00000000,87300.01000000,87105.09000000,87134.80000000,66.91606000
1767055500000,87134.80000000,87269.10000000,87134.79000000,87250.23000000,56.19544000
1767056400000,87250.22000000,87283.81000000,87152.22000000,87223.13000000,64.83224000
1767057300000,87223.12000000,87292.65000000,87185.73000000,87192.63000000,51.43492000
1767058200000,87192.64000000,87277.34000000,87117.87000000,87272.32000000,57.88650000
1767059100000,87272.31000000,87356.62000000,87272.31000000,87308.23000000,65.42569000
1767060000000,87308.23000000,87324.76000000,87100.00000000,87210.86000000,80.44860000
1767060900000,87210.86000000,87347.70000000,87210.85000000,87240.00000000,80.05067000
1767061800000,87240.00000000,87272.00000000,87000.00000000,87155.97000000,191.99448000
1767062700000,87155.98000000,87155.98000000,86986.82000000,87111.00000000,118.79444000
1767063600000,87110.99000000,87111.00000000,86912.00000000,86928.18000000,152.70720000
1767064500000,86928.19000000,87297.34000000,86845.66000000,87281.99000000,207.19451000
1767065400000,87281.98000000,87320.00000000,87210.54000000,87279.58000000,68.72819000
1767066300000,87279.58000000,87423.65000000,87265.21000000,87379.00000000,150.56197000
1767067200000,87378.99000000,87423.29000000,87294.67000000,87322.42000000,68.30331000
1767068100000,87322.42000000,87492.66000000,87309.10000000,87459.98000000,101.13759000
1767069000000,87459.97000000,87469.96000000,87395.58000000,87453.72000000,73.61371000
1767069900000,87453.72000000,87468.59000000,87300.00000000,87300.00000000,49.43552000
1767070800000,87300.01000000,87359.43000000,87295.64000000,87359.42000000,30.56677000
1767071700000,87359.42000000,87359.43000000,87234.58000000,87278.33000000,40.41724000
1767072600000,87278.34000000,87278.34000000,87157.07000000,87239.16000000,47.53570000
1767073500000,87239.15000000,87259.31000000,87204.00000000,87255.97000000,21.93237000
1767074400000,87255.98000000,87340.75000000,87241.91000000,87340.75000000,39.43406000
1767075300000,87340.75000000,87429.66000000,87340.74000000,87384.88000000,48.79568000
1767076200000,87384.88000000,87500.95000000,87384.87000000,87490.44000000,61.98750000
1767077100000,87490.43000000,87527.42000000,87423.60000000,87443.17000000,84.20785000
1767078000000,87443.17000000,87535.61000000,87414.14000000,87524.06000000,55.72172000
1767078900000,87524.06000000,87600.00000000,87369.98000000,87426.60000000,95.95702000
1767079800000,87426.60000000,87534.47000000,87404.36000000,87487.35000000,138.34607000
1767080700000,87487.35000000,87514.92000000,87469.27000000,87502.85000000,120.19926000
1767081600000,87502.85000000,88028.00000000,87502.84000000,87886.52000000,328.28082000
1767082500000,87886.52000000,88224.76000000,87770.45000000,87832.65000000,318.17439000
1767083400000,87832.65000000,87974.92000000,87773.78000000,87910.42000000,265.20313000
1767084300000,87910.42000000,87985.76000000,87838.00000000,87872.68000000,115.03848000
1767085200000,87872.68000000,87923.57000000,87802.28000000,87805.89000000,89.07063000
1767086100000,87805.89000000,87805.89000000,87657.44000000,87692.68000000,123.85351000
1767087000000,87692.69000000,87849.08000000,87692.68000000,87849.08000000,70.17791000
1767087900000,87849.08000000,88046.37000000,87827.27000000,87992.70000000,153.06787000
1767088800000,87992.70000000,88118.47000000,87953.24000000,88023.11000000,92.14319000
1767089700000,88023.12000000,88086.00000000,87957.25000000,88018.02000000,65.09689000
1767090600000,88018.02000000,88150.00000000,87906.94000000,88149.99000000,131.95166000
1767091500000,88149.99000000,88179.38000000,87912.43000000,87949.51000000,127.20417000
1767092400000,87949.52000000,88018.95000000,87901.08000000,88018.23000000,94.06735000
1767093300000,88018.23000000,88026.36000000,87907.21000000,87923.81000000,45.62225000
1767094200000,87923.81000000,88007.51000000,87872.68000000,87877.00000000,115.32459000
1767095100000,87877.00000000,87948.87000000,87735.09000000,87903.89000000,333.97355000
1767096000000,87903.89000000,88068.74000000,87901.70000000,88038.03000000,277.14438000
1767096900000,88038.04000000,88090.79000000,87983.21000000,87994.77000000,80.66595000
1767097800000,87994.77000000,88064.00000000,87940.00000000,87994.85000000,76.96515000
1767098700000,87994.85000000,88023.54000000,87961.63000000,88023.54000000,62.37994000
1767099600000,88023.53000000,88047.63000000,87922.42000000,87961.13000000,162.49097000
1767100500000,87961.13000000,88129.27000000,87918.60000000,88095.99000000,134.28804000
1767101400000,88095.99000000,88130.83000000,87924.29000000,88068.31000000,65.59339000
1767102300000,88068.30000000,88136.00000000,88029.62000000,88110.02000000,85.78477000
1767103200000,88110.02000000,88110.02000000,87834.01000000,88026.00000000,116.47301000
1767104100000,88026.01000000,88388.56000000,88020.00000000,88130.54000000,231.71318000
1767105000000,88130.53000000,88262.22000000,87856.56000000,88092.69000000,330.45338000
1767105900000,88092.70000000,89010.12000000,88020.00000000,88875.83000000,947.54204000
1767106800000,88875.82000000,89071.27000000,88204.14000000,88349.06000000,500.96219000
1767107700000,88349.07000000,88558.98000000,88222.65000000,88472.51000000,245.75211000
1767108600000,88472.52000000,88791.22000000,88431.19000000,88775.89000000,233.57795000
1767109500000,88775.89000000,89159.52000000,88680.00000000,89016.35000000,330.65928000
1767110400000,89016.36000000,89138.61000000,88788.50000000,88963.03000000,349.57085000
1767111300000,88963.02000000,89400.00000000,88944.26000000,89218.56000000,557.13012000
1767112200000,89218.56000000,89273.02000000,88663.13000000,88712.16000000,347.76981000
1767113100000,88712.17000000,88800.00000000,88577.42000000,88742.63000000,164.48852000
1767114000000,88742.63000000,88900.72000000,88715.27000000,88765.42000000,89.88974000
1767114900000,88765.42000000,88808.99000000,88510.15000000,88624.00000000,142.72580000
1767115800000,88623.99000000,88687.52000000,88517.53000000,88533.43000000,103.63622000
1767116700000,88533.43000000,88533.43000000,88129.91000000,88371.34000000,377.35160000
1767117600000,88371.34000000,88408.85000000,88283.16000000,88301.56000000,126.98756000
1767118500000,88301.57000000,88443.82000000,88300.00000000,88380.01000000,85.02308000
1767119400000,88380.01000000,88493.62000000,88339.40000000,88364.48000000,121.84909000
1767120300000,88364.48000000,88364.49000000,88132.59000000,88304.00000000,100.48792000
1767121200000,88304.01000000,88304.01000000,87960.20000000,88067.86000000,139.80759000
1767122100000,88067.87000000,88371.34000000,88030.51000000,88344.88000000,105.67503000
1767123000000,88344.88000000,88422.22000000,88266.47000000,88301.16000000,53.14276000
1767123900000,88301.99000000,88337.51000000,88141.19000000,88226.16000000,46.84976000
1767124800000,88226.15000000,88226.15000000,88092.79000000,88131.22000000,49.30514000
1767125700000,88131.21000000,88210.60000000,88035.00000000,88068.31000000,68.88797000
1767126600000,88068.31000000,88180.22000000,88037.05000000,88053.60000000,163.41005000
1767127500000,88053.61000000,88053.61000000,87886.46000000,87947.15000000,158.34705000
1767128400000,87947.15000000,88095.77000000,87891.15000000,88076.00000000,85.69194000
1767129300000,88076.00000000,88192.63000000,88076.00000000,88157.61000000,54.46093000
1767130200000,88157.61000000,88283.89000000,88157.60000000,88275.78000000,71.29977000
1767131100000,88275.78000000,88330.13000000,88217.57000000,88287.27000000,41.73168000
1767132000000,88287.28000000,88470.00000000,88287.28000000,88469.99000000,70.27326000
1767132900000,88470.00000000,88470.00000000,88369.06000000,88431.20000000,62.65102000
1767133800000,88431.21000000,88455.51000000,88297.15000000,88326.36000000,87.35567000
1767134700000,88326.35000000,88430.90000000,88288.02000000,88430.19000000,60.58602000
1767135600000,88430.18000000,88503.94000000,88371.33000000,88458.78000000,107.05970000
1767136500000,88458.79000000,88573.65000000,88418.37000000,88573.65000000,58.51779000
1767137400000,88573.64000000,88573.65000000,88513.28000000,88558.04000000,54.82659000
1767138300000,88558.04000000,88558.04000000,88475.04000000,88485.49000000,50.26244000
1767139200000,88485.50000000,88485.50000000,88348.90000000,88383.76000000,92.17320000
1767140100000,88383.75000000,88450.00000000,88307.21000000,88391.07000000,71.67317000
1767141000000,88391.06000000,88391.07000000,88251.93000000,88330.15000000,52.24113000
1767141900000,88330.15000000,88330.16000000,88255.52000000,88255.54000000,27.86000000
1767142800000,88255.54000000,88324.91000000,88172.15000000,88308.52000000,62.78814000
1767143700000,88308.53000000,88693.42000000,88308.52000000,88588.57000000,153.35829000
1767144600000,88588.57000000,88760.00000000,88588.56000000,88734.77000000,75.70787000
1767145500000,88734.78000000,88784.00000000,88583.43000000,88649.33000000,63.90310000
1767146400000,88649.32000000,88677.00000000,88529.27000000,88677.00000000,70.70217000
1767147300000,88677.00000000,88733.29000000,88621.59000000,88664.44000000,64.12555000
1767148200000,88664.44000000,88742.00000000,88543.13000000,88592.99000000,58.59391000
1767149100000,88592.99000000,88715.27000000,88521.84000000,88673.60000000,64.81235000
1767150000000,88673.61000000,88819.80000000,88673.11000000,88753.94000000,71.24163000
1767150900000,88753.94000000,88753.95000000,88518.24000000,88537.13000000,82.76701000
1767151800000,88537.12000000,88549.00000000,88379.09000000,88466.44000000,76.07305000
1767152700000,88466.44000000,88483.07000000,88420.00000000,88453.04000000,43.96015000
1767153600000,88453.04000000,88500.00000000,88420.00000000,88472.50000000,33.43121000
1767154500000,88472.50000000,88549.50000000,88383.00000000,88432.00000000,43.63340000
1767155400000,88432.00000000,88470.86000000,88391.15000000,88391.16000000,28.75135000
1767156300000,88391.16000000,88425.45000000,88325.06000000,88325.06000000,52.35888000
1767157200000,88325.07000000,88461.89000000,88325.07000000,88417.48000000,48.21865000
1767158100000,88417.47000000,88467.37000000,88360.57000000,88460.34000000,88.99737000
1767159000000,88460.34000000,88526.06000000,88440.00000000,88526.05000000,76.53550000
1767159900000,88526.06000000,88526.06000000,88452.85000000,88463.09000000,82.82012000
1767160800000,88463.10000000,88531.05000000,88463.09000000,88531.05000000,47.55565000
1767161700000,88531.04000000,88554.83000000,88472.49000000,88534.66000000,52.29569000
1767162600000,88534.66000000,88561.69000000,88486.38000000,88507.86000000,68.95473000
1767163500000,88507.87000000,88538.01000000,88488.61000000,88512.92000000,43.87931000
1767164400000,88512.93000000,88512.93000000,88437.81000000,88489.64000000,71.75537000
1767165300000,88489.64000000,88588.00000000,88431.08000000,88538.89000000,83.90185000
1767166200000,88538.88000000,88631.99000000,88524.09000000,88618.00000000,76.75897000
1767167100000,88617.99000000,88638.76000000,88573.69000000,88613.12000000,72.56382000
1767168000000,88613.11000000,88733.33000000,88613.11000000,88695.04000000,80.53670000
1767168900000,88695.04000000,88695.04000000,88639.04000000,88661.60000000,63.66862000
1767169800000,88661.60000000,88661.60000000,88395.00000000,88420.02000000,96.02271000
1767170700000,88420.02000000,88459.65000000,88393.52000000,88434.65000000,37.53979000
1767171600000,88434.66000000,88586.44000000,88434.65000000,88552.15000000,78.43769000
1767172500000,88552.14000000,88600.01000000,88552.14000000,88597.00000000,93.66495000
1767173400000,88597.00000000,88678.09000000,88580.49000000,88651.00000000,67.31701000
1767174300000,88651.01000000,88715.27000000,88651.00000000,88660.10000000,76.41362000
1767175200000,88660.10000000,88824.79000000,88660.09000000,88796.95000000,137.97960000
1767176100000,88796.94000000,88897.99000000,88697.86000000,88761.57000000,192.29800000
1767177000000,88761.56000000,88775.97000000,88662.70000000,88752.86000000,82.26872000
1767177900000,88752.86000000,88849.30000000,88730.00000000,88847.26000000,70.28079000
1767178800000,88847.27000000,88942.71000000,88817.09000000,88864.52000000,117.32367000
1767179700000,88864.52000000,88936.34000000,88802.97000000,88936.34000000,70.66502000
1767180600000,88936.34000000,89027.43000000,88900.00000000,89024.50000000,182.08248000
1767181500000,89024.51000000,89046.60000000,88936.46000000,89011.52000000,228.16807000
1767182400000,89011.51000000,89044.74000000,88905.77000000,88942.07000000,118.18122000
1767183300000,88942.06000000,89000.00000000,88908.87000000,88936.54000000,75.46331000
1767184200000,88936.54000000,88985.90000000,88677.32000000,88821.98000000,232.37814000
1767185100000,88821.98000000,88857.14000000,88730.90000000,88775.96000000,119.94123000
1767186000000,88775.96000000,88836.90000000,88741.54000000,88816.22000000,56.90891000
1767186900000,88816.22000000,88890.19000000,88801.40000000,88844.12000000,62.08398000
1767187800000,88844.13000000,88844.13000000,88743.59000000,88793.85000000,85.40861000
1767188700000,88793.85000000,89045.98000000,88780.23000000,88991.88000000,96.33791000
1767189600000,88991.88000000,89200.00000000,88925.64000000,89135.14000000,239.11170000
1767190500000,89135.14000000,89135.15000000,88944.95000000,88950.01000000,102.30112000
1767191400000,88950.00000000,88950.00000000,88556.61000000,88649.25000000,444.97511000
1767192300000,88649.25000000,88657.66000000,88278.35000000,88479.99000000,347.37250000
1767193200000,88479.99000000,88487.68000000,87957.35000000,88199.40000000,484.94007000
1767194100000,88199.41000000,88205.99000000,87922.11000000,87983.57000000,311.64913000
1767195000000,87983.56000000,88125.52000000,87766.59000000,88045.07000000,277.90339000
1767195900000,88045.06000000,88150.00000000,87934.00000000,87953.97000000,206.89982000
1767196800000,87953.97000000,88002.00000000,87806.86000000,87919.27000000,228.23472000
1767197700000,87919.27000000,88053.49000000,87693.94000000,87924.21000000,244.67989000
1767198600000,87924.20000000,87938.54000000,87400.41000000,87459.84000000,544.43376000
1767199500000,87459.84000000,87694.53000000,87421.43000000,87656.98000000,231.94124000
1767200400000,87656.99000000,87682.00000000,87489.99000000,87529.99000000,190.12555000
1767201300000,87530.00000000,87741.99000000,87489.59000000,87610.63000000,213.56420000
1767202200000,87610.64000000,87668.43000000,87550.00000000,87622.97000000,133.90898000
1767203100000,87622.97000000,87679.21000000,87566.19000000,87620.82000000,92.17798000
1767204000000,87620.82000000,87940.58000000,87574.12000000,87906.38000000,195.52206000
1767204900000,87906.38000000,87980.00000000,87820.23000000,87940.48000000,76.04567000
1767205800000,87940.48000000,87940.48000000,87820.51000000,87872.16000000,68.25196000
1767206700000,87872.16000000,87882.21000000,87684.07000000,87684.07000000,95.06856000
1767207600000,87684.08000000,87870.02000000,87684.08000000,87786.11000000,98.25782000
1767208500000,87786.11000000,87830.97000000,87672.20000000,87737.06000000,129.15394000
1767209400000,87737.07000000,87743.70000000,87630.40000000,87644.66000000,208.05687000
1767210300000,87644.66000000,87714.00000000,87516.70000000,87541.85000000,186.71996000
1767211200000,87541.85000000,87553.54000000,87420.00000000,87544.21000000,206.12976000
1767212100000,87544.20000000,87556.57000000,87450.00000000,87496.80000000,155.51247000
1767213000000,87496.80000000,87539.25000000,87250.00000000,87434.95000000,254.69581000
1767213900000,87434.96000000,87712.13000000,87364.01000000,87662.01000000,153.98939000
1767214800000,87662.01000000,87791.21000000,87662.01000000,87751.89000000,100.85731000
1767215700000,87751.89000000,87784.57000000,87727.64000000,87759.27000000,58.86908000
1767216600000,87759.26000000,87879.04000000,87759.26000000,87825.62000000,164.91901000
1767217500000,87825.62000000,87828.14000000,87774.51000000,87799.97000000,59.21010000
1767218400000,87799.97000000,87828.24000000,87768.15000000,87828.23000000,47.25477000
1767219300000,87828.24000000,87879.04000000,87802.92000000,87854.51000000,85.45042000
1767220200000,87854.50000000,87854.51000000,87691.85000000,87733.98000000,57.82991000
1767221100000,87733.98000000,87776.58000000,87656.19000000,87728.29000000,45.65187000
1767222000000,87728.30000000,87728.30000000,87656.29000000,87689.75000000,57.11681000
1767222900000,87689.76000000,87698.02000000,87619.67000000,87675.44000000,57.23590000
1767223800000,87675.44000000,87690.02000000,87650.27000000,87685.31000000,31.88983000
1767224700000,87685.31000000,87697.40000000,87641.14000000,87648.22000000,44.94869000
1767225600000,87648.21000000,87816.00000000,87632.74000000,87742.61000000,86.09755000
1767226500000,87742.62000000,87776.19000000,87742.61000000,87776.18000000,24.11371000
1767227400000,87776.19000000,87776.19000000,87733.98000000,87748.89000000,51.85067000
1767228300000,87748.89000000,87849.26000000,87748.88000000,87809.23000000,71.59843000
1767229200000,87809.24000000,88013.00000000,87809.23000000,88000.00000000,104.72793000
1767230100000,88000.01000000,88050.00000000,87875.22000000,87875.22000000,59.29417000
1767231000000,87875.23000000,87900.00000000,87841.99000000,87886.00000000,28.63976000
1767231900000,87885.99000000,88015.89000000,87883.12000000,87960.00000000,48.77976000
1767232800000,87960.01000000,88025.19000000,87901.83000000,87990.52000000,34.46136000
1767233700000,87990.52000000,88088.10000000,87939.68000000,87957.63000000,66.05655000
1767234600000,87957.63000000,88052.60000000,87945.79000000,87954.16000000,54.57484000
1767235500000,87954.17000000,87961.52000000,87895.37000000,87914.00000000,54.46585000
1767236400000,87914.00000000,87984.26000000,87887.28000000,87984.25000000,46.05381000
1767237300000,87984.26000000,88015.70000000,87900.12000000,87930.65000000,40.65505000
1767238200000,87930.65000000,87952.71000000,87904.00000000,87937.24000000,21.18836000
1767239100000,87937.25000000,87937.25000000,87832.09000000,87846.02000000,41.18632000
1767240000000,87846.01000000,87854.81000000,87641.13000000,87650.01000000,57.61501000
1767240900000,87650.01000000,87701.74000000,87552.56000000,87632.26000000,108.63589000
1767241800000,87632.26000000,87670.07000000,87550.43000000,87550.48000000,184.03778000
1767242700000,87550.48000000,87657.56000000,87550.48000000,87590.40000000,125.89033000
1767243600000,87590.41000000,87723.74000000,87590.40000000,87694.61000000,49.67702000
1767244500000,87694.61000000,87724.84000000,87658.00000000,87708.11000000,65.55301000
1767245400000,87708.11000000,87749.34000000,87639.63000000,87700.00000000,142.93002000
1767246300000,87700.01000000,87720.00000000,87697.93000000,87704.39000000,25.01431000
1767247200000,87704.39000000,87704.39000000,87636.29000000,87648.18000000,56.67438000
1767248100000,87648.19000000,87663.87000000,87648.18000000,87656.80000000,22.58341000
1767249000000,87656.80000000,87669.10000000,87656.79000000,87658.77000000,32.24436000
1767249900000,87658.78000000,87658.78000000,87658.00000000,87658.00000000,12.39441000
1767250800000,87658.01000000,87672.20000000,87596.00000000,87642.00000000,41.81557000
1767251700000,87642.00000000,87665.78000000,87605.67000000,87605.68000000,26.68763000
1767252600000,87605.68000000,87667.92000000,87605.67000000,87642.01000000,90.36557000
1767253500000,87642.01000000,87673.01000000,87610.60000000,87631.88000000,66.40615000
1767254400000,87631.88000000,87811.13000000,87631.87000000,87750.39000000,121.91335000
1767255300000,87750.40000000,87773.40000000,87711.97000000,87739.53000000,44.70485000
1767256200000,87739.53000000,87778.95000000,87700.15000000,87700.17000000,96.10356000
1767257100000,87700.17000000,87770.90000000,87700.16000000,87770.90000000,22.49569000
1767258000000,87770.89000000,87849.27000000,87751.82000000,87849.26000000,44.99246000
1767258900000,87849.26000000,87965.25000000,87820.84000000,87836.02000000,98.25612000
1767259800000,87836.01000000,87876.20000000,87836.01000000,87876.20000000,18.33659000
1767260700000,87876.20000000,87878.00000000,87865.55000000,87877.99000000,48.64446000
1767261600000,87877.99000000,87883.80000000,87871.42000000,87872.43000000,56.09412000
1767262500000,87872.42000000,87872.43000000,87799.17000000,87851.26000000,25.40594000
1767263400000,87851.26000000,87856.59000000,87840.00000000,87840.01000000,19.33634000
1767264300000,87840.00000000,87880.00000000,87840.00000000,87863.76000000,27.23740000
1767265200000,87863.75000000,87966.71000000,87859.36000000,87940.00000000,49.24447000
1767266100000,87940.00000000,87983.22000000,87926.18000000,87926.18000000,49.60920000
1767267000000,87926.19000000,87953.61000000,87880.00000000,87915.12000000,52.77618000
1767267900000,87915.11000000,88024.64000000,87915.11000000,88024.64000000,44.67420000
1767268800000,88024.64000000,88036.42000000,87983.56000000,88003.79000000,49.98468000
1767269700000,88003.80000000,88035.29000000,87951.51000000,88004.81000000,52.65496000
1767270600000,88004.81000000,88004.82000000,87925.28000000,87979.26000000,44.73965000
1767271500000,87979.26000000,87988.59000000,87950.00000000,87950.00000000,52.75627000
1767272400000,87950.00000000,87991.98000000,87892.00000000,87990.05000000,26.48595000
1767273300000,87990.05000000,88019.82000000,87964.76000000,87987.10000000,38.11389000
1767274200000,87987.11000000,87989.00000000,87951.28000000,87989.00000000,25.07212000
1767275100000,87988.99000000,87988.99000000,87860.66000000,87922.64000000,66.05687000
1767276000000,87922.63000000,87964.00000000,87827.49000000,87957.54000000,158.97103000
1767276900000,87957.54000000,87966.71000000,87850.00000000,87872.25000000,100.34875000
1767277800000,87872.24000000,87911.72000000,87810.66000000,87911.71000000,89.85109000
1767278700000,87911.71000000,87970.59000000,87892.20000000,87967.05000000,40.84444000
1767279600000,87967.05000000,87983.57000000,87916.39000000,87983.57000000,52.43118000
1767280500000,87983.57000000,88081.00000000,87974.78000000,88007.12000000,67.99654000
1767281400000,88007.12000000,88113.45000000,87944.95000000,88020.37000000,92.22002000
1767282300000,88020.37000000,88092.54000000,87987.46000000,88032.18000000,47.36460000
1767283200000,88032.17000000,88048.70000000,87914.37000000,87943.53000000,82.20205000
1767284100000,87943.52000000,87958.00000000,87879.03000000,87954.34000000,40.96062000
1767285000000,87954.34000000,87992.37000000,87940.52000000,87940.59000000,29.19509000
1767285900000,87940.59000000,87988.77000000,87940.59000000,87988.76000000,37.63700000
1767286800000,87988.77000000,88075.00000000,87976.00000000,88053.83000000,30.95284000
1767287700000,88053.83000000,88272.00000000,88040.00000000,88255.49000000,113.48620000
1767288600000,88255.48000000,88500.00000000,88255.48000000,88347.69000000,191.79594000
1767289500000,88347.68000000,88450.00000000,88289.99000000,88316.37000000,139.85056000
1767290400000,88316.38000000,88364.00000000,88170.38000000,88170.38000000,111.06472000
1767291300000,88170.38000000,88259.87000000,88105.08000000,88105.08000000,80.55541000
1767292200000,88105.08000000,88179.96000000,88105.08000000,88175.29000000,35.51056000
1767293100000,88175.29000000,88213.22000000,88156.90000000,88193.94000000,30.46097000
1767294000000,88193.94000000,88193.95000000,88062.32000000,88110.78000000,79.49727000
1767294900000,88110.78000000,88169.03000000,88110.78000000,88166.75000000,24.63426000
1767295800000,88166.75000000,88336.86000000,88166.75000000,88330.68000000,48.24424000
1767296700000,88330.68000000,88431.23000000,88304.07000000,88391.15000000,64.28726000
1767297600000,88391.16000000,88391.16000000,88307.27000000,88337.59000000,41.83139000
1767298500000,88337.60000000,88365.20000000,88317.09000000,88364.33000000,27.82466000
1767299400000,88364.33000000,88364.34000000,88240.00000000,88241.73000000,42.27720000
1767300300000,88241.73000000,88280.94000000,88241.72000000,88258.12000000,23.46202000
1767301200000,88258.12000000,88447.84000000,88254.08000000,88387.32000000,49.96855000
1767302100000,88387.31000000,88399.37000000,88360.00000000,88377.04000000,32.01300000
1767303000000,88377.05000000,88397.04000000,88326.23000000,88326.24000000,52.14433000
1767303900000,88326.24000000,88398.06000000,88297.15000000,88377.67000000,34.44617000
1767304800000,88377.67000000,88594.62000000,88377.67000000,88516.19000000,207.00168000
1767305700000,88516.19000000,88583.51000000,88473.26000000,88532.74000000,93.02125000
1767306600000,88532.74000000,88592.00000000,88429.10000000,88584.26000000,79.59612000
1767307500000,88584.26000000,88699.99000000,88539.26000000,88645.57000000,94.61149000
1767308400000,88645.57000000,88765.68000000,88474.63000000,88580.00000000,168.17176000
1767309300000,88580.00000000,88791.22000000,88579.99000000,88735.06000000,192.83861000
1767310200000,88735.06000000,88875.01000000,88735.06000000,88875.01000000,128.32108000
1767311100000,88875.00000000,88919.45000000,88753.45000000,88839.04000000,103.72109000
1767312000000,88839.05000000,88890.09000000,88603.07000000,88633.61000000,160.74428000
1767312900000,88633.61000000,88721.56000000,88594.39000000,88715.27000000,64.74368000
1767313800000,88715.26000000,88877.12000000,88650.34000000,88697.22000000,129.96301000
1767314700000,88697.22000000,88887.83000000,88697.21000000,88833.97000000,93.27661000
1767315600000,88833.96000000,88877.12000000,88737.24000000,88759.85000000,59.92891000
1767316500000,88759.85000000,88759.86000000,88681.00000000,88690.00000000,54.49866000
1767317400000,88690.01000000,88710.48000000,88525.73000000,88637.02000000,94.04369000
1767318300000,88637.02000000,88668.61000000,88573.64000000,88639.89000000,33.91547000
1767319200000,88639.89000000,88665.10000000,88435.52000000,88484.76000000,67.43137000
1767320100000,88484.76000000,88537.90000000,88379.88000000,88421.94000000,83.42389000
1767321000000,88421.95000000,88519.71000000,88412.35000000,88488.84000000,53.79481000
1767321900000,88488.85000000,88643.38000000,88472.49000000,88637.03000000,49.16045000
1767322800000,88637.02000000,88972.35000000,88573.64000000,88963.05000000,123.44315000
1767323700000,88963.04000000,88978.28000000,88812.86000000,88879.49000000,110.51367000
1767324600000,88879.49000000,89116.31000000,88844.01000000,88973.49000000,206.09611000
1767325500000,88973.49000000,89120.01000000,88873.11000000,88950.65000000,230.08360000
1767326400000,88950.64000000,88992.00000000,88807.85000000,88813.01000000,110.33109000
1767327300000,88813.01000000,88841.05000000,88692.83000000,88736.79000000,57.52470000
1767328200000,88736.79000000,88837.04000000,88719.99000000,88720.00000000,45.41450000
1767329100000,88719.99000000,88774.84000000,88629.00000000,88637.64000000,74.19458000
1767330000000,88637.64000000,88710.24000000,88629.00000000,88670.04000000,41.16336000
1767330900000,88670.04000000,88760.00000000,88583.52000000,88583.52000000,43.16606000
1767331800000,88583.53000000,88694.24000000,88576.56000000,88684.22000000,43.01727000
1767332700000,88684.22000000,88787.56000000,88684.21000000,88765.20000000,96.56940000
1767333600000,88765.21000000,88859.68000000,88715.44000000,88791.24000000,98.88864000
1767334500000,88791.23000000,88924.33000000,88790.00000000,88922.22000000,57.45927000
1767335400000,88922.22000000,89079.44000000,88920.26000000,88978.27000000,82.80441000
1767336300000,88978.27000000,89042.75000000,88924.32000000,88935.04000000,52.21274000
1767337200000,88935.05000000,89068.62000000,88935.04000000,89046.13000000,71.50641000
1767338100000,89046.13000000,89046.14000000,88862.38000000,88903.35000000,101.72319000
1767339000000,88903.35000000,88921.12000000,88848.00000000,88858.94000000,48.05615000
1767339900000,88858.95000000,88897.65000000,88794.01000000,88857.61000000,166.28543000
1767340800000,88857.60000000,89093.34000000,88758.94000000,89076.00000000,185.74213000
1767341700000,89075.99000000,89099.98000000,88984.00000000,89062.45000000,53.67489000
1767342600000,89062.45000000,89169.10000000,89023.01000000,89091.75000000,91.02897000
1767343500000,89091.75000000,89200.00000000,89072.18000000,89178.13000000,106.33568000
1767344400000,89178.13000000,89326.66000000,89106.65000000,89252.00000000,252.24075000
1767345300000,89252.01000000,89276.55000000,89106.34000000,89167.77000000,150.13231000
1767346200000,89167.77000000,89237.91000000,89132.00000000,89237.90000000,102.84733000
1767347100000,89237.90000000,89484.06000000,89220.69000000,89467.32000000,380.62157000
1767348000000,89467.32000000,89847.08000000,89451.34000000,89836.09000000,652.60023000
1767348900000,89836.09000000,89942.44000000,89584.00000000,89596.61000000,433.79550000
1767349800000,89596.60000000,89715.97000000,89596.60000000,89700.74000000,153.40373000
1767350700000,89700.74000000,89755.00000000,89620.59000000,89666.29000000,161.87238000
1767351600000,89666.30000000,89682.04000000,89521.16000000,89530.13000000,110.14284000
1767352500000,89530.13000000,89560.45000000,89360.00000000,89366.57000000,261.35863000
1767353400000,89366.58000000,89544.82000000,89366.58000000,89528.00000000,130.86064000
1767354300000,89528.00000000,89574.00000000,89489.63000000,89502.95000000,107.90863000
1767355200000,89502.94000000,89540.00000000,89387.01000000,89484.30000000,85.33061000
1767356100000,89484.30000000,89593.17000000,89429.78000000,89462.68000000,112.10658000
1767357000000,89462.67000000,89545.76000000,89426.66000000,89521.80000000,111.93349000
1767357900000,89521.80000000,89551.50000000,89400.00000000,89400.00000000,79.18308000
1767358800000,89400.00000000,89514.37000000,89382.96000000,89462.24000000,93.27187000
1767359700000,89462.24000000,89688.60000000,89462.24000000,89560.62000000,138.98097000
1767360600000,89560.54000000,89580.00000000,89400.00000000,89446.97000000,103.96359000
1767361500000,89446.96000000,89518.77000000,89309.94000000,89348.68000000,144.81033000
1767362400000,89348.67000000,89387.58000000,89120.00000000,89133.35000000,159.61948000
1767363300000,89133.35000000,89152.75000000,88716.98000000,88900.01000000,366.65374000
1767364200000,88900.00000000,89482.51000000,88459.96000000,89387.65000000,719.28567000
1767365100000,89387.66000000,90135.00000000,89124.00000000,89580.00000000,907.18498000
1767366000000,89580.01000000,89870.99000000,89092.71000000,89170.15000000,522.41583000
1767366900000,89170.14000000,89363.99000000,88800.00000000,89128.64000000,323.02243000
1767367800000,89128.63000000,89796.24000000,89066.00000000,89757.89000000,345.76564000
1767368700000,89757.89000000,89888.00000000,89303.99000000,89418.11000000,360.31541000
1767369600000,89418.10000000,89771.41000000,89205.92000000,89771.40000000,383.67359000
1767370500000,89771.41000000,90179.12000000,89732.00000000,90055.85000000,725.05669000
1767371400000,90055.86000000,90800.00000000,90050.38000000,90139.77000000,992.89719000
1767372300000,90139.77000000,90444.58000000,89901.85000000,90376.05000000,384.59110000
1767373200000,90376.05000000,90730.00000000,90349.44000000,90627.00000000,433.41630000
1767374100000,90627.00000000,90961.81000000,90528.46000000,90604.51000000,471.36409000
1767375000000,90604.50000000,90695.76000000,90358.00000000,90519.31000000,229.95794000
1767375900000,90519.30000000,90563.04000000,90185.43000000,90370.52000000,201.75374000
1767376800000,90370.52000000,90555.99000000,90231.82000000,90352.41000000,188.83924000
1767377700000,90352.41000000,90550.00000000,90260.00000000,90306.00000000,179.23503000
1767378600000,90305.99000000,90327.51000000,89974.23000000,90013.14000000,229.50073000
1767379500000,90013.14000000,90092.64000000,89552.18000000,89773.10000000,249.65483000
1767380400000,89773.10000000,90006.00000000,89650.00000000,89982.72000000,170.42700000
1767381300000,89982.73000000,90157.03000000,89850.00000000,89960.01000000,119.16888000
1767382200000,89960.01000000,90075.00000000,89878.07000000,90001.89000000,91.74492000
1767383100000,90001.89000000,90109.93000000,89864.59000000,89897.23000000,104.19074000
1767384000000,89897.23000000,90075.00000000,89799.60000000,90070.50000000,162.89068000
1767384900000,90070.49000000,90075.00000000,89880.92000000,89891.67000000,112.27604000
1767385800000,89891.66000000,89959.65000000,89812.71000000,89901.85000000,79.42502000
1767386700000,89901.85000000,89936.29000000,89636.77000000,89740.00000000,183.47950000
1767387600000,89740.01000000,89824.99000000,89728.37000000,89813.05000000,48.67023000
1767388500000,89813.06000000,90023.85000000,89796.47000000,89983.31000000,55.74353000
1767389400000,89983.31000000,89989.48000000,89875.50000000,89953.50000000,67.83936000
1767390300000,89953.50000000,90175.01000000,89912.00000000,90065.80000000,158.63195000
1767391200000,90065.80000000,90347.74000000,90026.54000000,90124.00000000,181.27598000
1767392100000,90124.01000000,90222.99000000,90092.00000000,90130.88000000,39.01600000
1767393000000,90130.87000000,90339.34000000,90056.67000000,90307.61000000,94.44504000
1767393900000,90307.62000000,90400.00000000,90171.51000000,90195.37000000,94.95054000
1767394800000,90195.37000000,90201.67000000,90088.00000000,90088.00000000,36.29874000
1767395700000,90088.00000000,90135.47000000,89933.96000000,89942.00000000,86.94103000
1767396600000,89942.00000000,89995.99000000,89902.16000000,89965.38000000,79.66548000
1767397500000,89965.37000000,90026.58000000,89922.38000000,89995.13000000,46.16341000
1767398400000,89995.14000000,90133.63000000,89983.86000000,90046.16000000,51.80876000
1767399300000,90046.17000000,90096.77000000,89966.48000000,90087.45000000,101.71559000
1767400200000,90087.46000000,90110.00000000,90026.83000000,90079.53000000,77.91376000
1767401100000,90079.53000000,90195.77000000,90062.76000000,90156.19000000,67.08401000
1767402000000,90156.19000000,90231.83000000,90136.85000000,90231.83000000,42.83331000
1767402900000,90231.83000000,90231.92000000,90077.69000000,90079.95000000,83.24945000
1767403800000,90079.95000000,90188.67000000,90079.93000000,90165.99000000,39.88221000
1767404700000,90165.99000000,90292.87000000,90165.99000000,90282.69000000,70.41272000
1767405600000,90282.68000000,90282.69000000,90129.53000000,90166.38000000,67.55876000
1767406500000,90166.38000000,90270.00000000,90148.00000000,90261.48000000,46.86847000
1767407400000,90261.47000000,90330.70000000,90243.72000000,90300.00000000,64.78851000
1767408300000,90299.99000000,90418.32000000,90299.99000000,90340.00000000,126.37590000
1767409200000,90340.01000000,90361.50000000,90203.80000000,90211.50000000,51.40675000
1767410100000,90211.50000000,90291.59000000,90200.00000000,90218.43000000,28.89319000
1767411000000,90218.42000000,90270.00000000,90200.00000000,90269.99000000,58.77325000
1767411900000,90270.00000000,90376.49000000,90258.83000000,90321.22000000,46.62945000
1767412800000,90321.23000000,90480.62000000,90252.00000000,90252.00000000,86.61914000
1767413700000,90252.00000000,90298.09000000,90240.07000000,90252.00000000,36.66115000
1767414600000,90252.00000000,90276.32000000,90053.53000000,90075.99000000,221.15481000
1767415500000,90075.98000000,90185.53000000,90075.98000000,90170.00000000,66.65059000
1767416400000,90170.01000000,90198.00000000,90047.68000000,90053.54000000,73.83502000
1767417300000,90053.54000000,90084.00000000,90015.73000000,90015.74000000,45.64340000
1767418200000,90015.74000000,90050.00000000,89924.48000000,89959.15000000,61.75927000
1767419100000,89959.14000000,90040.64000000,89927.88000000,90031.10000000,41.48629000
1767420000000,90031.10000000,90134.60000000,90021.53000000,90077.27000000,48.79239000
1767420900000,90077.27000000,90099.01000000,89974.92000000,89978.01000000,86.65687000
1767421800000,89978.01000000,90039.78000000,89888.00000000,89888.00000000,77.39648000
1767422700000,89888.00000000,89907.66000000,89850.10000000,89871.05000000,60.83652000
1767423600000,89871.04000000,89950.88000000,89754.57000000,89766.80000000,166.50300000
1767424500000,89766.80000000,89766.80000000,89412.01000000,89416.00000000,383.54579000
1767425400000,89415.99000000,89591.38000000,89314.01000000,89558.50000000,198.51704000
1767426300000,89558.50000000,89583.49000000,89458.07000000,89577.13000000,121.35904000
1767427200000,89577.13000000,89696.00000000,89420.75000000,89530.00000000,143.56073000
1767428100000,89529.99000000,89825.02000000,89504.47000000,89733.07000000,145.15978000
1767429000000,89733.07000000,89817.02000000,89674.00000000,89785.65000000,71.88901000
1767429900000,89785.65000000,89831.90000000,89650.00000000,89670.51000000,97.55978000
1767430800000,89670.51000000,89712.36000000,89646.07000000,89682.57000000,53.10148000
1767431700000,89682.56000000,89846.15000000,89634.95000000,89810.01000000,71.35801000
1767432600000,89810.00000000,89982.11000000,89774.09000000,89933.63000000,223.95933000
1767433500000,89933.63000000,89946.41000000,89768.00000000,89791.99000000,61.49313000
1767434400000,89792.00000000,89799.61000000,89715.21000000,89729.07000000,53.42278000
1767435300000,89729.07000000,89835.99000000,89729.07000000,89797.01000000,143.65750000
1767436200000,89797.00000000,89881.10000000,89755.48000000,89830.94000000,45.68047000
1767437100000,89830.94000000,89830.94000000,89750.00000000,89754.47000000,27.91049000
1767438000000,89754.48000000,89772.00000000,89679.14000000,89695.05000000,39.32547000
1767438900000,89695.04000000,89747.00000000,89695.00000000,89724.26000000,29.30154000
1767439800000,89724.26000000,89775.92000000,89695.00000000,89766.36000000,25.39928000
1767440700000,89766.37000000,89782.81000000,89720.00000000,89752.74000000,68.33042000
1767441600000,89752.75000000,89752.75000000,89664.93000000,89672.10000000,31.57482000
1767442500000,89672.10000000,89795.59000000,89672.10000000,89795.59000000,40.74726000
1767443400000,89795.58000000,89799.61000000,89751.74000000,89793.57000000,61.08683000
1767444300000,89793.58000000,90046.00000000,89793.56000000,90039.13000000,240.80110000
1767445200000,90039.12000000,90039.12000000,89920.01000000,89922.25000000,51.32761000
1767446100000,89922.26000000,90065.74000000,89922.25000000,89967.14000000,152.36249000
1767447000000,89967.14000000,90037.83000000,89950.00000000,89960.01000000,39.78238000
1767447900000,89960.00000000,90049.29000000,89960.00000000,90004.96000000,43.83231000
1767448800000,90004.97000000,90047.16000000,89960.00000000,90047.16000000,43.26917000
1767449700000,90047.15000000,90249.99000000,90029.29000000,90192.10000000,95.03956000
1767450600000,90192.10000000,90240.01000000,90148.37000000,90160.00000000,61.60528000
1767451500000,90160.01000000,90165.55000000,90062.00000000,90126.02000000,98.35033000
1767452400000,90126.02000000,90126.02000000,90005.27000000,90015.72000000,55.75861000
1767453300000,90015.71000000,90085.74000000,89980.36000000,90073.68000000,39.35681000
1767454200000,90073.67000000,90121.01000000,90000.00000000,90000.00000000,25.31483000
1767455100000,90000.00000000,90015.72000000,89968.00000000,89969.31000000,34.94177000
1767456000000,89969.31000000,90034.00000000,89968.00000000,90026.71000000,33.27694000
1767456900000,90026.70000000,90089.01000000,89918.59000000,90053.54000000,48.86448000
1767457800000,90053.54000000,90178.46000000,90053.53000000,90128.23000000,79.57700000
1767458700000,90128.23000000,90219.67000000,90101.20000000,90105.24000000,38.55434000
1767459600000,90105.24000000,90123.77000000,90026.93000000,90067.99000000,25.72243000
1767460500000,90067.99000000,90071.55000000,90031.42000000,90066.02000000,17.97477000
1767461400000,90066.01000000,90121.98000000,90066.01000000,90115.58000000,22.66175000
1767462300000,90115.57000000,90115.58000000,90066.33000000,90093.99000000,17.50612000
1767463200000,90094.00000000,90094.50000000,90035.52000000,90063.21000000,39.35530000
1767464100000,90063.21000000,90197.88000000,90054.07000000,90178.63000000,42.20608000
1767465000000,90178.63000000,90189.99000000,90138.02000000,90138.04000000,18.74864000
1767465900000,90138.03000000,90164.03000000,90125.05000000,90138.87000000,41.54599000
1767466800000,90138.87000000,90138.88000000,90060.00000000,90063.89000000,30.55491000
1767467700000,90063.88000000,90151.99000000,90063.88000000,90151.98000000,19.83468000
1767468600000,90151.98000000,90156.19000000,90118.55000000,90125.63000000,30.68514000
1767469500000,90125.62000000,90125.63000000,90111.00000000,90123.77000000,9.00970000
1767470400000,90123.76000000,90123.77000000,90017.23000000,90065.20000000,29.67283000
1767471300000,90065.19000000,90123.77000000,90065.19000000,90123.76000000,16.85948000
1767472200000,90123.76000000,90312.50000000,90123.76000000,90261.97000000,58.29243000
1767473100000,90261.97000000,90372.40000000,90261.97000000,90372.39000000,74.19722000
1767474000000,90372.40000000,90409.18000000,90318.29000000,90361.50000000,61.63120000
1767474900000,90361.50000000,90484.30000000,90361.49000000,90473.22000000,64.97165000
1767475800000,90473.23000000,90741.16000000,90464.18000000,90604.26000000,232.08332000
1767476700000,90604.25000000,90604.26000000,90480.01000000,90564.31000000,40.21025000
1767477600000,90564.32000000,90564.33000000,90497.52000000,90520.54000000,33.26373000
1767478500000,90520.55000000,90738.99000000,90520.55000000,90621.01000000,99.56156000
1767479400000,90621.01000000,90716.97000000,90572.38000000,90622.00000000,119.19992000
1767480300000,90622.00000000,90622.01000000,90510.00000000,90590.04000000,181.46859000
1767481200000,90590.04000000,90650.00000000,90469.39000000,90538.00000000,140.89494000
1767482100000,90538.00000000,90679.04000000,90538.00000000,90634.58000000,69.62460000
1767483000000,90634.59000000,90700.00000000,90615.95000000,90662.02000000,65.78419000
1767483900000,90662.02000000,90662.03000000,90614.22000000,90628.01000000,33.80173000
1767484800000,90628.01000000,91610.17000000,90628.00000000,91399.99000000,1156.10794000
1767485700000,91399.99000000,91448.00000000,91096.27000000,91098.32000000,292.21219000
1767486600000,91098.32000000,91255.98000000,91059.03000000,91165.87000000,130.69450000
1767487500000,91165.86000000,91461.53000000,91118.00000000,91341.47000000,158.62835000
1767488400000,91341.48000000,91475.52000000,91280.78000000,91284.31000000,90.94575000
1767489300000,91284.31000000,91311.69000000,91102.24000000,91132.01000000,104.40593000
1767490200000,91132.01000000,91168.00000000,91009.99000000,91081.52000000,82.84500000
1767491100000,91081.52000000,91254.99000000,91005.37000000,91235.37000000,97.06581000
1767492000000,91235.37000000,91292.00000000,91108.03000000,91125.88000000,70.88711000
1767492900000,91125.87000000,91225.28000000,91125.87000000,91207.60000000,32.42186000
1767493800000,91207.60000000,91266.99000000,91147.01000000,91163.52000000,72.60960000
1767494700000,91163.51000000,91174.85000000,91080.06000000,91124.00000000,102.37083000
1767495600000,91124.00000000,91350.00000000,91123.99000000,91338.60000000,131.15128000
1767496500000,91338.59000000,91338.59000000,91144.24000000,91168.07000000,78.03292000
1767497400000,91168.07000000,91272.19000000,91080.06000000,91250.21000000,75.17339000
1767498300000,91250.21000000,91337.26000000,91236.77000000,91236.78000000,43.88172000
1767499200000,91236.78000000,91319.80000000,91183.15000000,91319.79000000,65.44063000
1767500100000,91319.79000000,91497.00000000,91309.12000000,91376.01000000,164.15818000
1767501000000,91376.01000000,91587.72000000,91362.01000000,91509.55000000,148.19920000
1767501900000,91509.55000000,91520.09000000,91388.02000000,91400.00000000,79.89547000
1767502800000,91400.01000000,91405.64000000,91348.31000000,91387.01000000,36.92690000
1767503700000,91387.02000000,91475.62000000,91373.17000000,91460.01000000,49.00245000
1767504600000,91460.00000000,91476.80000000,91360.72000000,91394.75000000,44.60985000
1767505500000,91394.76000000,91490.68000000,91394.75000000,91480.04000000,41.90523000
1767506400000,91480.04000000,91810.00000000,91451.15000000,91670.01000000,254.74778000
1767507300000,91670.00000000,91785.72000000,91544.14000000,91544.14000000,241.14322000
1767508200000,91544.13000000,91609.39000000,91269.02000000,91286.23000000,153.62033000
1767509100000,91286.23000000,91378.32000000,91237.54000000,91237.55000000,97.55410000
1767510000000,91237.54000000,91378.87000000,91211.25000000,91323.82000000,82.47084000
1767510900000,91323.82000000,91345.99000000,91236.58000000,91308.00000000,37.93615000
1767511800000,91308.00000000,91490.68000000,91307.99000000,91490.67000000,159.90661000
1767512700000,91490.68000000,91546.31000000,91446.67000000,91532.00000000,176.14718000
1767513600000,91532.00000000,91536.00000000,91253.89000000,91312.39000000,249.47926000
1767514500000,91312.39000000,91370.00000000,91174.46000000,91234.36000000,162.70967000
1767515400000,91234.35000000,91400.00000000,91234.35000000,91400.00000000,83.60678000
1767516300000,91400.00000000,91436.42000000,91306.66000000,91374.99000000,125.01244000
1767517200000,91374.99000000,91432.44000000,91244.29000000,91333.73000000,243.58955000
1767518100000,91333.73000000,91446.00000000,91264.54000000,91314.36000000,376.79845000
1767519000000,91314.36000000,91446.57000000,91314.36000000,91446.57000000,131.82655000
1767519900000,91446.57000000,91485.21000000,91380.00000000,91468.28000000,188.86709000
1767520800000,91468.28000000,91604.51000000,91436.77000000,91544.72000000,291.70110000
1767521700000,91544.71000000,91574.12000000,91422.67000000,91480.00000000,221.18474000
1767522600000,91480.00000000,91591.50000000,91478.32000000,91591.50000000,93.75729000
1767523500000,91591.49000000,91620.50000000,91563.36000000,91600.62000000,58.37160000
1767524400000,91600.62000000,91600.62000000,91332.01000000,91360.10000000,151.42556000
1767525300000,91360.09000000,91402.34000000,91344.01000000,91380.58000000,51.91132000
1767526200000,91380.58000000,91448.69000000,91344.59000000,91380.59000000,66.25994000
1767527100000,91380.60000000,91380.60000000,91236.19000000,91300.00000000,99.75775000
1767528000000,91300.01000000,91331.46000000,91201.12000000,91255.62000000,116.53487000
1767528900000,91255.62000000,91341.13000000,91229.81000000,91341.13000000,64.12961000
1767529800000,91341.12000000,91360.00000000,91096.27000000,91096.28000000,145.88893000
1767530700000,91096.28000000,91180.00000000,91084.00000000,91150.98000000,128.01517000
1767531600000,91150.99000000,91219.54000000,91110.00000000,91188.41000000,74.85404000
1767532500000,91188.41000000,91204.33000000,91014.10000000,91191.16000000,97.11065000
1767533400000,91191.16000000,91266.06000000,91163.28000000,91224.01000000,73.04524000
1767534300000,91224.00000000,91276.94000000,91224.00000000,91264.00000000,27.67929000
1767535200000,91264.00000000,91419.22000000,91264.00000000,91398.06000000,62.03202000
1767536100000,91398.05000000,91402.71000000,91210.90000000,91241.29000000,61.10855000
1767537000000,91241.28000000,91249.81000000,91151.00000000,91204.33000000,82.74835000
1767537900000,91204.32000000,91348.00000000,91146.86000000,91336.39000000,66.19061000
1767538800000,91336.39000000,91381.60000000,91290.00000000,91313.76000000,69.08650000
1767539700000,91313.75000000,91313.76000000,91224.00000000,91233.33000000,85.90637000
1767540600000,91233.32000000,91290.00000000,91172.15000000,91206.77000000,74.42514000
1767541500000,91206.77000000,91338.04000000,91096.27000000,91334.94000000,87.56297000
1767542400000,91334.94000000,91455.90000000,91244.60000000,91282.27000000,162.96857000
1767543300000,91282.28000000,91362.73000000,91247.03000000,91341.50000000,48.23407000
1767544200000,91341.50000000,91437.41000000,91300.00000000,91301.31000000,90.37865000
1767545100000,91301.31000000,91331.87000000,91300.00000000,91321.00000000,24.86293000
1767546000000,91321.00000000,91431.34000000,91306.77000000,91349.89000000,56.23326000
1767546900000,91349.88000000,91431.00000000,91320.38000000,91362.23000000,28.20484000
1767547800000,91362.24000000,91436.21000000,91362.23000000,91385.64000000,26.82102000
1767548700000,91385.64000000,91409.57000000,91335.36000000,91335.73000000,25.85315000
1767549600000,91335.72000000,91335.73000000,91236.53000000,91236.54000000,36.41099000
1767550500000,91236.53000000,91254.00000000,91140.62000000,91179.65000000,72.12841000
1767551400000,91179.65000000,91228.95000000,91000.00000000,91219.99000000,157.19189000
1767552300000,91220.00000000,91226.67000000,91160.00000000,91205.39000000,38.93730000
1767553200000,91205.38000000,91205.39000000,90863.47000000,91012.94000000,221.55719000
1767554100000,91012.95000000,91204.33000000,90987.33000000,91124.10000000,78.74885000
1767555000000,91124.11000000,91182.32000000,91054.00000000,91068.01000000,35.90265000
1767555900000,91068.01000000,91175.31000000,91068.00000000,91138.07000000,36.09577000
1767556800000,91138.06000000,91282.33000000,91132.00000000,91270.00000000,44.42242000
1767557700000,91270.01000000,91340.00000000,91240.00000000,91339.99000000,37.28425000
1767558600000,91340.00000000,91340.00000000,91270.00000000,91295.61000000,38.41317000
1767559500000,91295.60000000,91349.38000000,91267.81000000,91313.94000000,27.40204000
1767560400000,91313.93000000,91421.96000000,91267.71000000,91360.01000000,44.83689000
1767561300000,91360.00000000,91360.01000000,91308.01000000,91312.00000000,31.78891000
1767562200000,91312.00000000,91344.00000000,91212.00000000,91212.00000000,23.86596000
1767563100000,91212.00000000,91294.00000000,91182.71000000,91279.99000000,34.84619000
1767564000000,91279.99000000,91401.98000000,91150.47000000,91191.59000000,49.95983000
1767564900000,91191.59000000,91285.38000000,91150.47000000,91285.37000000,47.53052000
1767565800000,91285.37000000,91292.00000000,91180.00000000,91203.74000000,31.04655000
1767566700000,91203.74000000,91264.35000000,91177.10000000,91220.01000000,20.49585000
1767567600000,91220.00000000,91524.43000000,91220.00000000,91333.33000000,134.53023000
1767568500000,91333.33000000,91522.87000000,91284.00000000,91372.55000000,64.66083000
1767569400000,91372.56000000,91437.44000000,91300.00000000,91320.39000000,61.88046000
1767570300000,91320.39000000,91590.00000000,91269.69000000,91529.73000000,127.36036000
1767571200000,91529.74000000,92070.00000000,91514.81000000,91895.35000000,992.50076000
1767572100000,91895.35000000,91999.99000000,91703.15000000,91847.38000000,307.72942000
1767573000000,91847.37000000,92062.74000000,91710.36000000,92043.61000000,278.74893000
1767573900000,92043.61000000,92426.82000000,91973.81000000,92405.46000000,482.89353000
1767574800000,92405.46000000,92986.40000000,92280.69000000,92954.39000000,640.96418000
1767575700000,92954.40000000,92986.00000000,92707.04000000,92978.35000000,353.32944000
1767576600000,92978.35000000,93388.00000000,92813.09000000,93200.00000000,707.29727000
1767577500000,93199.99000000,93255.55000000,92937.21000000,92967.28000000,275.91296000
1767578400000,92967.29000000,93157.99000000,92788.00000000,92869.71000000,326.30477000
1767579300000,92869.70000000,93000.00000000,92724.98000000,92746.20000000,238.94176000
1767580200000,92746.20000000,92995.56000000,92746.20000000,92922.56000000,176.00617000
1767581100000,92922.56000000,93098.39000000,92920.39000000,93033.11000000,172.43311000
1767582000000,93033.11000000,93204.70000000,92958.33000000,93000.00000000,194.13196000
1767582900000,93000.00000000,93034.15000000,92932.33000000,92994.58000000,118.37783000
1767583800000,92994.59000000,93129.23000000,92937.51000000,92937.52000000,205.40362000
1767584700000,92937.52000000,92969.88000000,92871.26000000,92878.22000000,77.58680000
1767585600000,92878.22000000,92947.87000000,92763.64000000,92763.65000000,125.63386000
1767586500000,92763.64000000,92838.13000000,92420.00000000,92478.51000000,232.64032000
1767587400000,92478.51000000,92556.00000000,92330.46000000,92399.29000000,125.84727000
1767588300000,92399.29000000,92642.43000000,92399.28000000,92595.07000000,104.71728000
1767589200000,92595.07000000,92715.19000000,92574.00000000,92647.29000000,92.76932000
1767590100000,92647.30000000,92720.73000000,92600.00000000,92709.15000000,56.25589000
1767591000000,92709.14000000,92709.15000000,92549.97000000,92554.60000000,95.96341000
1767591900000,92554.59000000,92572.00000000,92340.39000000,92359.99000000,155.54938000
1767592800000,92359.99000000,92488.07000000,92359.98000000,92436.24000000,57.79437000
1767593700000,92436.25000000,92467.91000000,92270.77000000,92279.88000000,74.84198000
1767594600000,92279.88000000,92428.23000000,92155.00000000,92427.86000000,107.86213000
1767595500000,92427.85000000,92500.00000000,92373.58000000,92491.81000000,80.21027000
1767596400000,92491.82000000,92625.46000000,92484.72000000,92625.46000000,87.68952000
1767597300000,92625.45000000,92644.31000000,92549.99000000,92563.00000000,60.51643000
1767598200000,92563.00000000,92598.24000000,92522.44000000,92547.40000000,202.09346000
1767599100000,92547.39000000,92552.60000000,92520.62000000,92520.63000000,178.48201000
1767600000000,92520.63000000,92664.29000000,92501.57000000,92655.64000000,130.27410000
1767600900000,92655.64000000,92774.28000000,92627.85000000,92700.00000000,105.70561000
1767601800000,92700.00000000,92729.10000000,92484.00000000,92485.13000000,192.44847000
1767602700000,92485.13000000,92572.00000000,92446.00000000,92467.53000000,174.83939000
1767603600000,92467.54000000,92531.52000000,92320.17000000,92429.80000000,323.97878000
1767604500000,92429.79000000,92650.00000000,92421.31000000,92630.30000000,148.00478000
1767605400000,92630.31000000,92646.45000000,92535.16000000,92646.44000000,66.27252000
1767606300000,92646.45000000,92845.53000000,92646.44000000,92688.60000000,107.07767000
1767607200000,92688.61000000,92954.58000000,92679.12000000,92915.65000000,118.50179000
1767608100000,92915.65000000,92945.50000000,92852.87000000,92895.69000000,136.67904000
1767609000000,92895.69000000,93025.24000000,92751.56000000,92853.18000000,226.35785000
1767609900000,92853.18000000,93151.00000000,92853.18000000,93080.00000000,200.29195000
1767610800000,93080.00000000,93080.00000000,92892.46000000,92892.47000000,206.93636000
1767611700000,92892.46000000,93151.00000000,92883.03000000,92971.99000000,139.72395000
1767612600000,92972.00000000,93061.05000000,92904.85000000,93012.37000000,118.62302000
1767613500000,93012.38000000,93151.00000000,92999.50000000,93134.26000000,102.47318000
1767614400000,93134.25000000,93185.66000000,93052.16000000,93155.57000000,127.77153000
1767615300000,93155.57000000,93206.20000000,92927.81000000,92927.81000000,131.97579000
1767616200000,92927.81000000,92959.50000000,92800.01000000,92816.91000000,94.69156000
1767617100000,92816.91000000,92914.91000000,92752.60000000,92874.28000000,99.14982000
1767618000000,92874.28000000,93020.00000000,92808.56000000,92934.81000000,112.67370000
1767618900000,92934.81000000,92934.81000000,92716.00000000,92784.52000000,87.92703000
1767619800000,92784.53000000,92784.53000000,92535.41000000,92607.44000000,163.38237000
1767620700000,92607.45000000,92756.00000000,92580.01000000,92742.74000000,122.26596000
1767621600000,92742.73000000,92878.43000000,92711.57000000,92750.00000000,133.58404000
1767622500000,92750.00000000,92831.50000000,92700.00000000,92766.90000000,70.98943000
1767623400000,92766.91000000,93349.66000000,92407.13000000,93283.28000000,524.54313000
1767624300000,93283.27000000,93666.00000000,92932.69000000,93428.00000000,625.94283000
1767625200000,93428.00000000,93538.39000000,93170.95000000,93438.47000000,380.76637000
1767626100000,93438.48000000,93794.76000000,93227.50000000,93394.30000000,492.57590000
1767627000000,93394.30000000,93969.40000000,93316.06000000,93857.89000000,599.96254000
1767627900000,93857.90000000,94000.00000000,93725.87000000,93957.73000000,455.89424000
1767628800000,93957.74000000,94050.10000000,93769.59000000,93927.14000000,488.36221000
1767629700000,93927.13000000,94076.35000000,93681.40000000,93837.93000000,362.91792000
1767630600000,93837.93000000,93920.38000000,93716.30000000,93725.50000000,238.42230000
1767631500000,93725.49000000,93814.38000000,93586.65000000,93701.31000000,209.08935000
1767632400000,93701.30000000,93778.00000000,93620.77000000,93673.86000000,156.85233000
1767633300000,93673.86000000,93703.49000000,93250.00000000,93446.54000000,208.47963000
1767634200000,93446.54000000,93871.18000000,93446.53000000,93794.67000000,226.80061000
1767635100000,93794.68000000,94477.69000000,93794.67000000,94317.84000000,562.18653000
1767636000000,94317.84000000,94410.00000000,94075.21000000,94216.00000000,320.05831000
1767636900000,94216.00000000,94223.62000000,93955.88000000,94035.87000000,230.70099000
