timestamp,open,high,low,close,volume
1767841200000,90956.50000000,91142.51000000,90616.36000000,90813.40000000,547.79189000
1767844800000,90813.40000000,91168.00000000,90700.00000000,91022.75000000,357.33917000
1767848400000,91022.74000000,91188.00000000,90786.14000000,90829.58000000,295.83835000
1767852000000,90829.58000000,90872.00000000,89897.01000000,89898.01000000,1360.25581000
1767855600000,89898.00000000,90588.00000000,89641.84000000,90548.02000000,1094.34311000
1767859200000,90548.02000000,90917.22000000,90155.05000000,90227.25000000,841.98085000
1767862800000,90227.25000000,90374.78000000,89956.00000000,90010.00000000,514.04982000
1767866400000,90009.99000000,90493.18000000,89777.25000000,90410.10000000,526.53398000
1767870000000,90409.61000000,90487.31000000,90022.26000000,90226.77000000,548.71612000
1767873600000,90226.77000000,90240.85000000,89781.96000000,89989.21000000,992.96975000
1767877200000,89989.20000000,90105.08000000,89861.59000000,89962.14000000,441.44929000
1767880800000,89962.14000000,90171.00000000,89311.00000000,90024.01000000,1521.76403000
1767884400000,90024.00000000,90847.52000000,89820.89000000,90781.57000000,1428.07575000
1767888000000,90781.57000000,90926.84000000,90312.89000000,90926.84000000,855.68064000
1767891600000,90926.84000000,91440.00000000,90842.00000000,91366.39000000,874.20589000
1767895200000,91366.39000000,91469.00000000,90952.00000000,91117.35000000,517.40477000
1767898800000,91117.35000000,91333.00000000,90812.98000000,90937.41000000,409.29800000
1767902400000,90937.42000000,90996.02000000,90568.11000000,90927.62000000,476.53275000
1767906000000,90927.63000000,91336.63000000,90917.70000000,91272.96000000,629.96765000
1767909600000,91272.96000000,91493.00000000,91033.11000000,91231.90000000,417.67218000
1767913200000,91231.89000000,91336.63000000,91046.87000000,91099.99000000,233.87135000
1767916800000,91100.00000000,91307.72000000,91058.70000000,91290.33000000,179.40576000
1767920400000,91290.34000000,91632.10000000,90850.00000000,91056.19000000,545.56598000
1767924000000,91056.20000000,91481.19000000,91023.00000000,91038.38000000,431.10210000
1767927600000,91038.39000000,91271.73000000,90941.44000000,91220.23000000,417.79460000
1767931200000,91220.24000000,91236.72000000,90933.30000000,91012.80000000,322.36121000
1767934800000,91012.81000000,91119.81000000,90882.71000000,91091.82000000,292.21625000
1767938400000,91091.82000000,91146.47000000,90989.29000000,91137.58000000,209.50276000
1767942000000,91137.58000000,91137.58000000,90738.34000000,90741.84000000,669.47590000
1767945600000,90741.85000000,90843.77000000,89694.66000000,90033.52000000,1141.88324000
1767949200000,90033.52000000,90481.20000000,90014.60000000,90338.46000000,507.45187000
1767952800000,90338.47000000,90558.01000000,90283.47000000,90485.87000000,396.79277000
1767956400000,90485.87000000,90691.32000000,90404.21000000,90463.11000000,540.59585000
1767960000000,90463.12000000,90603.53000000,90235.13000000,90449.23000000,690.17113000
1767963600000,90449.22000000,90938.62000000,90405.15000000,90607.66000000,722.68305000
1767967200000,90607.66000000,90666.91000000,89940.00000000,90150.00000000,840.37741000
1767970800000,90150.01000000,92082.55000000,89850.00000000,91176.47000000,3441.12901000
1767974400000,91176.48000000,91783.32000000,91175.79000000,91623.89000000,1143.47636000
1767978000000,91623.89000000,91680.41000000,91012.00000000,91422.23000000,688.89123000
1767981600000,91422.23000000,91507.82000000,90340.00000000,90820.31000000,551.14415000
1767985200000,90820.30000000,90820.30000000,90190.00000000,90332.15000000,578.57871000
1767988800000,90332.14000000,90580.62000000,90235.00000000,90303.36000000,313.31668000
1767992400000,90303.37000000,90643.81000000,90113.87000000,90541.97000000,207.05117000
1767996000000,90541.98000000,90723.06000000,90353.91000000,90630.08000000,575.52178000
1767999600000,90630.08000000,90732.01000000,90604.58000000,90641.28000000,183.79042000
1768003200000,90641.27000000,90693.89000000,90527.99000000,90600.00000000,151.21516000
1768006800000,90600.00000000,90732.20000000,90587.00000000,90688.00000000,113.18366000
1768010400000,90688.00000000,90782.23000000,90607.02000000,90697.17000000,139.70054000
1768014000000,90697.17000000,90697.18000000,90554.26000000,90626.14000000,124.89032000
1768017600000,90626.15000000,90649.99000000,90408.23000000,90448.30000000,164.87324000
1768021200000,90448.30000000,90617.62000000,90431.45000000,90603.52000000,84.41081000
1768024800000,90603.52000000,90603.53000000,90474.35000000,90505.47000000,74.15884000
1768028400000,90505.48000000,90682.70000000,90505.47000000,90678.50000000,168.18359000
1768032000000,90678.50000000,90773.33000000,90618.28000000,90661.95000000,288.33994000
1768035600000,90661.94000000,90768.97000000,90630.09000000,90768.96000000,158.69299000
1768039200000,90768.97000000,90832.00000000,90728.45000000,90828.00000000,126.67512000
1768042800000,90828.00000000,90828.00000000,90708.25000000,90723.86000000,73.68827000
1768046400000,90723.87000000,90788.78000000,90665.75000000,90733.71000000,94.62022000
1768050000000,90733.71000000,90772.78000000,90633.86000000,90656.51000000,82.99160000
1768053600000,90656.52000000,90658.69000000,90538.46000000,90591.01000000,144.35468000
1768057200000,90591.01000000,90665.76000000,90584.17000000,90665.75000000,92.51513000
1768060800000,90665.76000000,90725.74000000,90609.56000000,90676.66000000,142.80125000
1768064400000,90676.66000000,90746.00000000,90544.96000000,90544.96000000,152.86625000
1768068000000,90544.96000000,90595.63000000,90504.55000000,90595.62000000,158.53961000
1768071600000,90595.62000000,90631.37000000,90580.61000000,90626.54000000,75.94050000
1768075200000,90626.54000000,90659.03000000,90571.00000000,90572.86000000,99.38243000
1768078800000,90572.86000000,90572.86000000,90500.38000000,90510.74000000,144.94285000
1768082400000,90510.75000000,90600.00000000,90404.00000000,90427.76000000,161.64189000
1768086000000,90427.76000000,90567.15000000,90427.75000000,90504.70000000,85.50833000
1768089600000,90504.70000000,90650.75000000,90451.10000000,90640.44000000,114.36360000
1768093200000,90640.44000000,90675.53000000,90558.95000000,90628.23000000,83.46973000
1768096800000,90628.24000000,90731.90000000,90615.34000000,90699.00000000,123.06702000
1768100400000,90699.00000000,90737.95000000,90631.64000000,90733.50000000,142.98004000
1768104000000,90733.49000000,90785.48000000,90661.53000000,90785.48000000,141.85581000
1768107600000,90785.48000000,90850.00000000,90740.00000000,90774.43000000,128.06651000
1768111200000,90774.42000000,90796.83000000,90585.34000000,90744.00000000,169.88277000
1768114800000,90744.00000000,90749.00000000,90675.52000000,90710.79000000,107.03833000
1768118400000,90710.80000000,90816.00000000,90610.27000000,90790.01000000,261.70108000
1768122000000,90790.01000000,90815.44000000,90675.60000000,90740.02000000,180.86038000
1768125600000,90740.01000000,90740.02000000,90692.79000000,90736.67000000,123.08314000
1768129200000,90736.66000000,90756.00000000,90695.05000000,90754.99000000,128.73157000
1768132800000,90754.99000000,91020.00000000,90720.21000000,90938.13000000,211.42505000
1768136400000,90938.12000000,90972.33000000,90821.47000000,90849.45000000,154.00693000
1768140000000,90849.45000000,91191.50000000,90849.45000000,91127.16000000,282.45011000
1768143600000,91127.17000000,91153.99000000,90708.25000000,90875.79000000,496.14604000
1768147200000,90875.79000000,91283.89000000,90875.79000000,91039.15000000,389.24788000
1768150800000,91039.14000000,91147.82000000,90904.07000000,90986.68000000,234.85682000
1768154400000,90986.68000000,90986.69000000,90793.43000000,90886.68000000,177.99755000
1768158000000,90886.68000000,90922.08000000,90673.30000000,90690.80000000,159.30510000
1768161600000,90690.81000000,90743.72000000,90370.85000000,90708.26000000,497.31755000
1768165200000,90708.25000000,90838.69000000,90590.61000000,90757.06000000,217.97309000
1768168800000,90757.07000000,90757.07000000,90453.36000000,90526.02000000,255.60666000
1768172400000,90526.01000000,91041.79000000,90236.00000000,91013.65000000,695.70318000
1768176000000,91013.66000000,91258.66000000,90700.29000000,91258.65000000,740.61830000
1768179600000,91258.66000000,91799.00000000,91086.00000000,91412.44000000,973.78286000
1768183200000,91412.44000000,92384.40000000,91374.00000000,92203.56000000,1103.07593000
1768186800000,92203.56000000,92519.95000000,91808.11000000,91808.12000000,968.99203000
1768190400000,91808.12000000,92290.81000000,91741.82000000,92175.78000000,651.26560000
1768194000000,92175.79000000,92267.66000000,92037.51000000,92111.86000000,274.66206000
1768197600000,92111.87000000,92207.01000000,91805.43000000,91836.34000000,279.64865000
1768201200000,91836.35000000,91970.00000000,91381.36000000,91408.09000000,500.65720000
1768204800000,91408.09000000,91630.13000000,90388.89000000,90752.27000000,1298.94335000
1768208400000,90752.28000000,90942.85000000,90648.15000000,90685.64000000,605.22242000
1768212000000,90685.65000000,90793.18000000,90370.00000000,90433.46000000,399.68146000
1768215600000,90433.45000000,90824.86000000,90425.36000000,90620.96000000,457.29481000
1768219200000,90620.95000000,90863.74000000,90615.66000000,90789.37000000,244.81991000
1768222800000,90789.37000000,90829.73000000,90538.00000000,90636.01000000,327.61952000
1768226400000,90636.00000000,91131.39000000,90128.44000000,90908.95000000,1300.15719000
1768230000000,90908.95000000,91665.00000000,90705.91000000,91665.00000000,1031.47333000
1768233600000,91664.99000000,92332.00000000,91567.81000000,92123.52000000,1578.09092000
1768237200000,92123.51000000,92306.62000000,91000.53000000,91522.83000000,1208.45838000
1768240800000,91522.83000000,91943.26000000,91411.79000000,91691.80000000,505.47425000
1768244400000,91691.80000000,91880.00000000,91434.80000000,91861.27000000,337.94969000
1768248000000,91861.27000000,92046.23000000,91417.99000000,91484.86000000,374.00813000
1768251600000,91484.87000000,91502.37000000,90938.20000000,91055.17000000,398.88227000
1768255200000,91055.17000000,91441.34000000,91052.21000000,91244.99000000,313.86446000
1768258800000,91244.99000000,91311.68000000,91059.88000000,91296.20000000,313.43996000
1768262400000,91296.20000000,91546.08000000,91249.00000000,91482.74000000,334.56358000
1768266000000,91482.74000000,91546.08000000,91042.66000000,91185.35000000,442.20574000
1768269600000,91185.34000000,91382.82000000,91097.80000000,91118.30000000,271.94314000
1768273200000,91118.30000000,91453.45000000,91118.29000000,91408.91000000,263.81213000
1768276800000,91408.90000000,91650.81000000,91350.71000000,91515.16000000,272.26771000
1768280400000,91515.17000000,92255.94000000,91472.36000000,91920.99000000,991.25943000
1768284000000,91921.00000000,92275.38000000,91806.19000000,92184.36000000,600.50125000
1768287600000,92184.37000000,92212.48000000,91905.33000000,91942.00000000,704.56170000
1768291200000,91941.99000000,92250.66000000,91924.27000000,92165.90000000,528.98890000
1768294800000,92165.89000000,92672.11000000,91950.00000000,92269.42000000,1215.58278000
1768298400000,92269.42000000,92350.03000000,92021.15000000,92128.62000000,394.76711000
1768302000000,92128.63000000,92261.04000000,91972.44000000,92000.74000000,405.87783000
1768305600000,92000.73000000,92153.84000000,91910.25000000,92109.35000000,280.96679000
1768309200000,92109.35000000,92606.42000000,91978.66000000,92076.12000000,1336.20170000
1768312800000,92076.11000000,92915.12000000,91787.61000000,92462.03000000,1289.79234000
1768316400000,92462.03000000,93450.00000000,92132.66000000,93449.99000000,1429.93474000
1768320000000,93449.99000000,93760.00000000,93078.31000000,93389.63000000,1920.24440000
1768323600000,93389.63000000,93498.72000000,93100.00000000,93241.99000000,796.01222000
1768327200000,93241.99000000,93871.29000000,93198.09000000,93633.71000000,950.82758000
1768330800000,93633.71000000,94231.82000000,93475.07000000,94226.84000000,1085.51387000
1768334400000,94226.85000000,94500.00000000,94113.13000000,94408.70000000,1604.35758000
1768338000000,94408.70000000,94507.99000000,94062.00000000,94087.23000000,1173.77039000
1768341600000,94087.23000000,96495.00000000,94087.23000000,95757.21000000,3452.31954000
1768345200000,95757.19000000,96107.97000000,95055.01000000,95414.00000000,1275.24237000
1768348800000,95413.99000000,95647.91000000,95154.04000000,95236.84000000,662.80362000
1768352400000,95236.84000000,95582.00000000,95116.03000000,95245.60000000,749.06956000
1768356000000,95245.61000000,95562.00000000,95190.06000000,95347.46000000,588.58584000
1768359600000,95347.47000000,95722.01000000,95285.50000000,95720.99000000,381.44090000
1768363200000,95720.99000000,95799.22000000,95224.44000000,95245.16000000,460.39311000
1768366800000,95245.17000000,95270.25000000,94972.00000000,95005.00000000,669.59606000
1768370400000,95005.01000000,95028.88000000,94559.28000000,95028.87000000,859.31999000
1768374000000,95028.88000000,95233.99000000,94850.00000000,95205.10000000,884.32504000
1768377600000,95205.11000000,95315.15000000,94900.00000000,94900.01000000,380.43239000
1768381200000,94900.01000000,95186.51000000,94870.01000000,95088.24000000,468.07232000
1768384800000,95088.24000000,95291.98000000,94888.00000000,95091.75000000,526.44388000
1768388400000,95091.49000000,95091.49000000,94737.95000000,94792.99000000,381.08629000
1768392000000,94793.00000000,95154.78000000,94680.67000000,95077.56000000,424.37035000
1768395600000,95077.56000000,95241.70000000,94890.68000000,94998.19000000,454.30020000
1768399200000,94998.20000000,96827.00000000,94982.56000000,96493.15000000,2348.26402000
1768402800000,96493.14000000,97084.68000000,96188.25000000,96764.57000000,2804.69067000
1768406400000,96764.57000000,97693.66000000,96730.77000000,97293.24000000,2448.97546000
1768410000000,97293.23000000,97777.00000000,96800.00000000,96956.07000000,2017.29615000
1768413600000,96956.07000000,97110.00000000,96246.56000000,96806.55000000,1150.91366000
1768417200000,96806.54000000,97640.68000000,96688.36000000,97267.42000000,1063.44638000
1768420800000,97267.42000000,97924.49000000,97209.25000000,97655.28000000,1157.33493000
1768424400000,97655.27000000,97717.72000000,97390.00000000,97564.00000000,494.72849000
1768428000000,97563.99000000,97587.34000000,96772.02000000,96878.34000000,1038.79474000
1768431600000,96878.34000000,97371.33000000,96865.34000000,96951.78000000,437.21023000
1768435200000,96951.78000000,97000.00000000,96500.00000000,96658.03000000,798.45682000
1768438800000,96658.03000000,96959.09000000,96297.32000000,96445.31000000,701.30226000
1768442400000,96445.32000000,96617.06000000,96095.80000000,96339.91000000,530.33501000
1768446000000,96339.92000000,96393.58000000,95777.00000000,95985.10000000,791.58790000
1768449600000,95985.11000000,96387.42000000,95952.89000000,96316.27000000,483.75975000
1768453200000,96316.27000000,96510.57000000,96247.64000000,96429.71000000,419.70339000
1768456800000,96429.71000000,96588.45000000,96172.41000000,96243.78000000,473.63021000
1768460400000,96243.79000000,96760.15000000,96191.79000000,96630.48000000,679.19921000
1768464000000,96630.47000000,96662.00000000,96289.98000000,96643.00000000,760.49437000
1768467600000,96643.01000000,97193.34000000,96559.19000000,97040.75000000,1029.77719000
1768471200000,97040.75000000,97070.39000000,96750.00000000,96818.68000000,414.89635000
1768474800000,96818.68000000,96935.39000000,96580.03000000,96581.08000000,588.17595000
1768478400000,96581.07000000,96994.65000000,96525.24000000,96981.65000000,332.67430000
1768482000000,96981.66000000,97032.99000000,96620.12000000,96846.75000000,496.85903000
1768485600000,96846.74000000,97165.03000000,95592.69000000,96063.43000000,1629.09421000
1768489200000,96063.43000000,96791.67000000,95435.91000000,96737.04000000,2359.55410000
1768492800000,96737.04000000,96969.99000000,96272.72000000,96738.51000000,1973.14331000
1768496400000,96738.50000000,97163.00000000,96426.18000000,96636.35000000,2398.07402000
1768500000000,96636.35000000,96650.51000000,95745.25000000,95835.00000000,2117.40598000
1768503600000,95835.01000000,95920.31000000,95183.13000000,95516.01000000,1380.26708000
1768507200000,95516.01000000,95660.00000000,95134.48000000,95260.67000000,524.36978000
1768510800000,95260.68000000,95631.08000000,95196.00000000,95584.35000000,297.62442000
1768514400000,95584.36000000,95871.00000000,95488.91000000,95583.87000000,269.05055000
1768518000000,95583.87000000,95718.31000000,95378.58000000,95604.80000000,276.37850000
1768521600000,95604.81000000,95828.01000000,95570.96000000,95633.50000000,207.12295000
1768525200000,95633.50000000,95855.12000000,95420.75000000,95664.18000000,401.56495000
1768528800000,95664.17000000,95687.47000000,95393.90000000,95504.40000000,384.29986000
1768532400000,95504.40000000,95586.60000000,95321.58000000,95354.69000000,214.15334000
1768536000000,95354.69000000,95582.41000000,95133.03000000,95261.29000000,700.90747000
1768539600000,95261.30000000,95676.73000000,95242.18000000,95660.37000000,746.76630000
1768543200000,95660.38000000,95816.83000000,95534.00000000,95741.21000000,443.54681000
1768546800000,95741.22000000,95788.34000000,95489.60000000,95653.16000000,403.70542000
1768550400000,95653.16000000,95871.47000000,95570.68000000,95676.00000000,594.74259000
1768554000000,95676.01000000,95788.17000000,95601.50000000,95613.53000000,177.27273000
1768557600000,95613.53000000,95637.00000000,95280.51000000,95307.35000000,538.64006000
1768561200000,95307.35000000,95470.00000000,95261.43000000,95429.09000000,303.73259000
1768564800000,95429.09000000,95569.00000000,95353.50000000,95458.55000000,289.70117000
1768568400000,95458.55000000,95579.00000000,95288.05000000,95448.87000000,277.92918000
1768572000000,95448.86000000,95809.08000000,95192.35000000,95192.36000000,624.83754000
1768575600000,95192.36000000,95663.15000000,94293.46000000,94585.98000000,1821.66491000
1768579200000,94585.99000000,94990.73000000,94508.00000000,94872.55000000,811.28371000
1768582800000,94872.55000000,95130.49000000,94555.88000000,95076.08000000,513.23212000
1768586400000,95076.09000000,95215.74000000,94960.04000000,95001.19000000,353.51337000
1768590000000,95001.19000000,95055.31000000,94841.31000000,95002.09000000,176.56522000
1768593600000,95002.09000000,95561.50000000,94682.00000000,95553.60000000,414.87593000
1768597200000,95553.61000000,95600.00000000,95359.69000000,95523.52000000,341.14068000
1768600800000,95523.52000000,95574.00000000,95260.64000000,95514.00000000,283.10566000
1768604400000,95513.99000000,95577.89000000,95433.83000000,95550.94000000,143.41004000
1768608000000,95550.94000000,95578.20000000,95433.94000000,95465.97000000,129.13356000
1768611600000,95465.97000000,95530.00000000,95384.86000000,95399.93000000,104.26658000
1768615200000,95399.94000000,95412.86000000,95200.00000000,95371.35000000,155.12882000
1768618800000,95371.36000000,95384.87000000,95270.79000000,95372.95000000,132.45240000
1768622400000,95372.94000000,95372.95000000,95260.64000000,95303.64000000,131.52683000
1768626000000,95303.63000000,95373.64000000,95275.05000000,95323.67000000,103.95781000
1768629600000,95323.68000000,95347.89000000,95186.29000000,95240.07000000,125.70578000
1768633200000,95240.08000000,95240.08000000,95041.70000000,95101.67000000,197.34545000
1768636800000,95101.67000000,95260.65000000,95021.67000000,95247.51000000,164.49559000
1768640400000,95247.51000000,95290.08000000,95176.90000000,95260.65000000,104.24877000
1768644000000,95260.65000000,95271.21000000,95116.47000000,95116.48000000,127.24070000
1768647600000,95116.48000000,95323.86000000,95073.57000000,95323.86000000,218.85009000
1768651200000,95323.85000000,95412.84000000,95243.63000000,95251.15000000,215.62364000
1768654800000,95251.15000000,95438.33000000,95198.81000000,95438.32000000,227.83624000
1768658400000,95438.32000000,95544.07000000,95357.02000000,95471.18000000,259.56584000
1768662000000,95471.17000000,95639.45000000,95433.81000000,95573.64000000,747.96943000
1768665600000,95573.65000000,95576.14000000,95212.25000000,95315.23000000,330.67135000
1768669200000,95315.23000000,95440.80000000,95295.17000000,95357.24000000,141.20490000
1768672800000,95357.23000000,95465.98000000,95346.00000000,95428.25000000,100.50730000
1768676400000,95428.25000000,95428.25000000,95290.70000000,95291.38000000,64.10708000
1768680000000,95291.37000000,95383.84000000,95291.36000000,95378.18000000,65.25873000
1768683600000,95378.19000000,95412.86000000,95283.99000000,95302.94000000,114.01955000
1768687200000,95302.94000000,95302.94000000,95050.00000000,95170.97000000,209.18455000
1768690800000,95170.98000000,95208.96000000,95123.79000000,95147.77000000,110.50038000
1768694400000,95147.77000000,95250.00000000,95067.83000000,95112.47000000,179.02691000
1768698000000,95112.48000000,95112.48000000,94876.33000000,94966.90000000,243.72080000
1768701600000,94966.89000000,95069.07000000,94880.53000000,95022.01000000,148.46070000
1768705200000,95022.01000000,95205.74000000,95022.01000000,95200.29000000,149.82604000
1768708800000,95200.29000000,95200.30000000,95075.30000000,95095.68000000,90.87843000
1768712400000,95095.68000000,95260.00000000,95059.27000000,95188.55000000,176.45319000
1768716000000,95188.54000000,95199.62000000,95144.30000000,95171.43000000,144.72253000
1768719600000,95171.44000000,95183.30000000,95028.27000000,95028.27000000,293.23856000
1768723200000,95028.27000000,95195.00000000,95021.44000000,95183.93000000,124.96260000
1768726800000,95183.93000000,95295.35000000,95149.18000000,95275.73000000,312.28376000
1768730400000,95275.73000000,95295.39000000,95088.00000000,95180.66000000,344.24187000
1768734000000,95180.67000000,95180.67000000,95061.65000000,95168.06000000,178.51779000
1768737600000,95168.06000000,95178.09000000,95081.32000000,95113.25000000,122.90856000
1768741200000,95113.24000000,95205.40000000,94910.00000000,95146.82000000,328.31194000
1768744800000,95146.82000000,95376.24000000,94928.51000000,94955.79000000,530.35330000
1768748400000,94955.78000000,95125.47000000,94915.21000000,95119.28000000,195.60522000
1768752000000,95119.27000000,95186.30000000,95073.02000000,95169.35000000,105.98121000
1768755600000,95169.35000000,95280.24000000,95140.61000000,95274.36000000,147.92595000
1768759200000,95274.35000000,95521.71000000,95180.90000000,95439.60000000,407.32335000
1768762800000,95439.60000000,95514.00000000,95333.99000000,95380.99000000,260.23192000
1768766400000,95380.99000000,95441.22000000,95285.20000000,95304.01000000,77.90234000
1768770000000,95304.01000000,95430.45000000,95284.23000000,95430.44000000,81.51777000
1768773600000,95430.45000000,95531.12000000,95412.86000000,95498.61000000,319.96465000
1768777200000,95498.60000000,95498.60000000,93615.40000000,93673.14000000,1930.81880000
1768780800000,93673.14000000,93673.14000000,91910.20000000,92711.02000000,4221.82713000
1768784400000,92711.02000000,92875.68000000,92247.97000000,92586.65000000,910.87085000
1768788000000,92586.65000000,92672.00000000,92383.94000000,92566.80000000,452.44264000
1768791600000,92566.80000000,92776.83000000,92500.00000000,92690.09000000,556.40187000
1768795200000,92690.08000000,92748.32000000,92502.58000000,92665.00000000,506.12587000
1768798800000,92665.00000000,92811.11000000,92504.24000000,92511.77000000,357.86057000
1768802400000,92511.77000000,92629.26000000,92385.07000000,92583.27000000,427.02868000
1768806000000,92583.27000000,92861.41000000,92562.00000000,92841.62000000,421.22196000
1768809600000,92841.62000000,93368.44000000,92702.56000000,93259.09000000,865.57873000
1768813200000,93259.09000000,93268.12000000,92950.00000000,93060.06000000,474.82948000
1768816800000,93060.06000000,93081.30000000,92900.00000000,93064.88000000,263.24721000
1768820400000,93064.88000000,93317.29000000,92969.94000000,93191.96000000,305.33086000
1768824000000,93191.96000000,93226.44000000,92979.48000000,93070.60000000,586.84126000
1768827600000,93070.60000000,93151.37000000,92807.34000000,93031.86000000,326.88604000
1768831200000,93031.85000000,93039.60000000,92700.00000000,92812.43000000,417.89495000
1768834800000,92812.43000000,93081.00000000,92812.43000000,93068.62000000,467.20202000
1768838400000,93068.62000000,93420.00000000,92994.00000000,93301.86000000,380.00206000
1768842000000,93301.85000000,93389.45000000,93150.00000000,93242.99000000,357.60248000
1768845600000,93242.99000000,93259.39000000,92930.00000000,93065.84000000,235.78814000
1768849200000,93065.83000000,93154.32000000,93000.00000000,93105.85000000,179.79114000
1768852800000,93105.85000000,93274.82000000,93084.15000000,93141.94000000,178.48795000
1768856400000,93141.95000000,93342.36000000,93000.03000000,93003.42000000,240.63302000
1768860000000,93003.41000000,93060.00000000,92565.78000000,92565.78000000,374.00927000
1768863600000,92565.78000000,92750.00000000,92158.48000000,92631.00000000,787.62329000
1768867200000,92630.99000000,92870.00000000,92370.25000000,92717.90000000,325.00059000
1768870800000,92717.90000000,92867.28000000,92525.80000000,92716.48000000,251.70499000
1768874400000,92716.47000000,92729.94000000,92370.68000000,92552.16000000,354.36518000
1768878000000,92552.15000000,92650.00000000,92264.70000000,92434.92000000,329.07012000
1768881600000,92434.93000000,92470.37000000,92000.01000000,92062.61000000,363.95619000
1768885200000,92062.62000000,92084.80000000,91294.11000000,91624.18000000,1546.22756000
1768888800000,91624.19000000,91625.31000000,90771.78000000,90929.98000000,1830.88581000
1768892400000,90929.98000000,91319.05000000,90862.83000000,91177.98000000,907.06352000
1768896000000,91177.99000000,91255.70000000,90693.00000000,91116.00000000,1083.79650000
1768899600000,91116.00000000,91116.00000000,90899.00000000,91036.25000000,381.95269000
1768903200000,91036.25000000,91294.11000000,90998.08000000,91269.58000000,415.15786000
1768906800000,91269.57000000,91442.88000000,91214.36000000,91218.99000000,373.22315000
1768910400000,91218.99000000,91318.94000000,91027.74000000,91280.31000000,528.83740000
1768914000000,91280.31000000,91289.64000000,90777.00000000,90958.88000000,722.76892000
1768917600000,90958.89000000,91371.11000000,90272.53000000,90531.15000000,1809.16854000
1768921200000,90531.15000000,90808.04000000,89859.06000000,90684.95000000,1977.53179000
1768924800000,90684.95000000,90974.49000000,90023.99000000,90165.51000000,895.41274000
1768928400000,90165.50000000,90505.68000000,89431.10000000,89775.46000000,1552.70440000
1768932000000,89775.47000000,89958.00000000,89395.07000000,89501.00000000,885.28879000
1768935600000,89501.00000000,89795.45000000,89292.48000000,89725.76000000,781.35230000
1768939200000,89725.77000000,89854.20000000,89400.00000000,89733.99000000,735.02193000
1768942800000,89734.00000000,89829.11000000,89428.00000000,89476.01000000,445.56945000
1768946400000,89476.01000000,89645.56000000,87900.00000000,88509.18000000,2094.09769000
1768950000000,88509.18000000,88534.21000000,87895.98000000,88427.66000000,1417.16799000
1768953600000,88427.66000000,88982.00000000,88250.00000000,88936.01000000,1052.93124000
1768957200000,88936.01000000,89165.20000000,88850.00000000,89020.91000000,502.12138000
1768960800000,89020.91000000,89381.86000000,89000.00000000,89048.57000000,884.94036000
1768964400000,89048.56000000,89598.80000000,89046.00000000,89432.33000000,540.55763000
1768968000000,89432.33000000,89630.00000000,89354.72000000,89448.89000000,300.28776000
1768971600000,89448.89000000,90120.44000000,89437.25000000,89950.04000000,554.58380000
1768975200000,89950.03000000,89950.04000000,89491.96000000,89649.62000000,369.00614000
1768978800000,89649.63000000,89767.29000000,89093.28000000,89213.95000000,825.75082000
1768982400000,89213.96000000,89385.40000000,89000.00000000,89197.35000000,723.12982000
1768986000000,89197.36000000,89493.46000000,89080.00000000,89112.30000000,307.89975000
1768989600000,89112.30000000,89395.08000000,89080.00000000,89248.99000000,328.36365000
1768993200000,89248.99000000,89382.00000000,88700.00000000,88789.99000000,651.53578000
1768996800000,88789.99000000,88849.39000000,88196.72000000,88736.31000000,1271.35096000
1769000400000,88736.31000000,89020.32000000,88558.67000000,88672.64000000,735.83253000
1769004000000,88672.64000000,89993.88000000,88611.15000000,89805.43000000,1602.75733000
1769007600000,89805.43000000,90574.00000000,89759.59000000,90288.04000000,1074.26054000
1769011200000,90288.04000000,90360.00000000,87590.00000000,87602.40000000,2075.92566000
1769014800000,87602.39000000,88156.47000000,87263.53000000,87932.38000000,1818.07575000
1769018400000,87932.37000000,88657.23000000,87585.05000000,88485.43000000,743.38561000
1769022000000,88485.43000000,90450.00000000,88280.55000000,90355.56000000,1787.81485000
1769025600000,90355.56000000,90377.00000000,89392.00000000,90214.01000000,1099.33527000
1769029200000,90214.02000000,90339.58000000,89950.36000000,90249.18000000,428.70398000
1769032800000,90249.18000000,90377.00000000,89752.38000000,89763.51000000,414.26891000
1769036400000,89763.51000000,90212.89000000,89344.98000000,89454.73000000,524.68420000
1769040000000,89454.73000000,90032.50000000,89454.72000000,89908.49000000,394.22125000
1769043600000,89908.50000000,90198.51000000,89826.38000000,90113.19000000,341.32729000
1769047200000,90113.20000000,90359.99000000,89851.03000000,89938.30000000,436.55946000
1769050800000,89938.30000000,90166.67000000,89702.84000000,89899.51000000,389.70123000
1769054400000,89899.51000000,90076.77000000,89826.67000000,89998.91000000,327.01022000
1769058000000,89998.91000000,90075.80000000,89928.09000000,90026.30000000,201.60447000
1769061600000,90026.30000000,90215.79000000,89900.00000000,90172.11000000,274.11012000
1769065200000,90172.12000000,90196.99000000,89802.00000000,89818.79000000,410.94787000
1769068800000,89818.79000000,89968.28000000,89760.00000000,89920.16000000,241.50947000
1769072400000,89920.16000000,90113.43000000,89883.80000000,90033.02000000,235.39671000
1769076000000,90033.02000000,90101.83000000,89960.00000000,90078.77000000,307.75831000
1769079600000,90078.76000000,90150.00000000,89897.87000000,89941.26000000,341.24190000
1769083200000,89941.26000000,90099.99000000,89873.09000000,90021.09000000,250.41912000
1769086800000,90021.09000000,90340.00000000,89478.92000000,89619.81000000,800.98427000
1769090400000,89619.81000000,89742.67000000,89039.78000000,89088.59000000,1132.03645000
1769094000000,89088.60000000,89445.24000000,88515.37000000,89000.01000000,1328.81681000
1769097600000,89000.00000000,89270.00000000,88676.95000000,89054.06000000,820.87315000
1769101200000,89054.07000000,89616.04000000,89024.55000000,89550.01000000,536.51415000
1769104800000,89550.00000000,89797.50000000,89301.90000000,89333.94000000,457.15553000
1769108400000,89333.93000000,89924.46000000,89114.48000000,89777.90000000,489.86443000
1769112000000,89777.89000000,89946.13000000,89398.87000000,89409.72000000,338.82702000
1769115600000,89409.73000000,89669.21000000,89238.32000000,89268.66000000,272.77807000
1769119200000,89268.66000000,89566.00000000,89140.13000000,89346.99000000,294.98276000
1769122800000,89346.99000000,89583.62000000,89170.74000000,89559.67000000,200.86486000
1769126400000,89559.68000000,89638.84000000,89450.48000000,89520.01000000,225.79843000
1769130000000,89520.01000000,89939.39000000,89520.01000000,89939.38000000,281.57226000
1769133600000,89939.39000000,89979.97000000,89655.41000000,89663.48000000,375.68609000
1769137200000,89663.47000000,89924.78000000,89646.18000000,89924.78000000,261.08428000
1769140800000,89924.78000000,90088.94000000,89871.73000000,89965.42000000,430.92263000
1769144400000,89965.43000000,89969.02000000,89473.99000000,89616.03000000,360.88730000
1769148000000,89616.04000000,89799.36000000,89400.00000000,89509.59000000,450.16637000
1769151600000,89509.59000000,89686.40000000,89447.52000000,89549.45000000,487.74127000
1769155200000,89549.45000000,89632.18000000,89133.35000000,89221.46000000,544.19233000
1769158800000,89221.46000000,89388.71000000,88897.81000000,88977.72000000,632.36708000
1769162400000,88977.72000000,89160.74000000,88860.44000000,89046.49000000,334.46792000
1769166000000,89046.49000000,89355.51000000,89000.00000000,89202.48000000,481.66038000
1769169600000,89202.47000000,89383.09000000,89099.20000000,89267.83000000,219.71914000
1769173200000,89267.83000000,89450.18000000,89237.65000000,89350.81000000,297.76310000
1769176800000,89350.80000000,89733.71000000,88663.65000000,89017.85000000,1240.76676000
1769180400000,89017.85000000,89865.53000000,88578.36000000,89761.61000000,1078.68425000
1769184000000,89761.61000000,90490.06000000,89489.00000000,90124.85000000,1266.72506000
1769187600000,90124.86000000,91224.99000000,89978.40000000,90600.00000000,1346.59832000
1769191200000,90600.00000000,91039.75000000,90449.42000000,90530.45000000,698.45416000
1769194800000,90530.44000000,90534.59000000,89612.01000000,89982.79000000,1118.99851000
1769198400000,89982.79000000,90156.06000000,89200.68000000,89503.68000000,917.72716000
1769202000000,89503.67000000,89691.18000000,89317.00000000,89349.99000000,308.43710000
1769205600000,89349.99000000,89752.45000000,89335.35000000,89624.61000000,406.19522000
1769209200000,89624.60000000,89631.00000000,89472.13000000,89600.26000000,151.87407000
1769212800000,89600.26000000,89625.41000000,89424.39000000,89452.83000000,130.78736000
1769216400000,89452.83000000,89588.72000000,89450.58000000,89550.24000000,118.84415000
1769220000000,89550.24000000,89722.57000000,89550.24000000,89702.85000000,142.98732000
1769223600000,89702.85000000,89957.39000000,89670.88000000,89770.02000000,368.35777000
1769227200000,89770.03000000,89853.38000000,89709.08000000,89829.35000000,167.98668000
1769230800000,89829.36000000,89849.78000000,89751.21000000,89775.20000000,112.02746000
1769234400000,89775.20000000,89784.88000000,89602.22000000,89649.32000000,420.23986000
1769238000000,89649.33000000,89692.31000000,89572.81000000,89620.10000000,254.69309000
1769241600000,89620.11000000,89686.43000000,89583.02000000,89660.88000000,190.29089000
1769245200000,89660.88000000,89660.88000000,89600.00000000,89600.00000000,126.61337000
1769248800000,89600.01000000,89654.79000000,89577.97000000,89626.80000000,82.58886000
1769252400000,89626.79000000,89676.26000000,89595.40000000,89595.40000000,114.10267000
1769256000000,89595.41000000,89595.41000000,89486.87000000,89537.82000000,179.07545000
1769259600000,89537.82000000,89540.44000000,89368.21000000,89368.22000000,156.70890000
1769263200000,89368.22000000,89512.05000000,89171.75000000,89450.03000000,346.65964000
1769266800000,89450.03000000,89492.14000000,89263.64000000,89275.77000000,334.47117000
1769270400000,89275.77000000,89369.79000000,89162.08000000,89290.01000000,235.06029000
1769274000000,89290.01000000,89414.38000000,89252.93000000,89406.50000000,135.14408000
1769277600000,89406.50000000,89461.40000000,89382.05000000,89395.23000000,84.40453000
1769281200000,89395.22000000,89395.23000000,89276.58000000,89331.36000000,105.47816000
1769284800000,89331.36000000,89399.99000000,89331.35000000,89380.01000000,46.43346000
1769288400000,89380.00000000,89386.61000000,89270.00000000,89386.61000000,99.49846000
1769292000000,89386.61000000,89489.84000000,89304.85000000,89430.00000000,137.03504000
1769295600000,89429.99000000,89474.65000000,89215.59000000,89225.34000000,137.07871000
1769299200000,89225.34000000,89315.18000000,89183.49000000,89315.18000000,121.64277000
1769302800000,89315.18000000,89319.13000000,89102.58000000,89176.31000000,180.68432000
1769306400000,89176.31000000,89268.36000000,89129.62000000,89139.04000000,174.65440000
1769310000000,89139.04000000,89176.72000000,88838.72000000,88960.35000000,472.84604000
1769313600000,88960.36000000,89090.13000000,88941.03000000,89006.96000000,349.85772000
1769317200000,89006.97000000,89045.44000000,88870.45000000,88990.90000000,204.95163000
1769320800000,88990.89000000,88990.90000000,88649.98000000,88831.36000000,567.42395000
1769324400000,88831.36000000,88831.36000000,88635.84000000,88659.99000000,242.80483000
1769328000000,88659.99000000,88760.00000000,88136.00000000,88300.01000000,461.92857000
1769331600000,88300.00000000,88488.00000000,88238.50000000,88398.38000000,288.59867000
1769335200000,88398.38000000,88671.27000000,88398.37000000,88659.51000000,354.58647000
1769338800000,88659.52000000,88710.00000000,88536.11000000,88570.17000000,171.64836000
1769342400000,88570.17000000,88800.00000000,88450.00000000,88791.99000000,329.09813000
1769346000000,88791.98000000,88971.89000000,88650.98000000,88921.00000000,278.06000000
1769349600000,88920.99000000,88938.94000000,88624.55000000,88710.10000000,293.57615000
1769353200000,88710.10000000,88760.35000000,88340.75000000,88446.50000000,370.52290000
1769356800000,88446.51000000,88448.85000000,87560.00000000,88077.26000000,1878.84709000
1769360400000,88077.25000000,88108.24000000,87767.18000000,87892.17000000,467.38462000
1769364000000,87892.16000000,87983.29000000,86827.10000000,87420.01000000,1893.52035000
1769367600000,87420.01000000,87508.15000000,86194.85000000,86495.16000000,1925.07483000
1769371200000,86495.17000000,86718.75000000,86222.02000000,86654.61000000,753.55910000
1769374800000,86654.60000000,87013.79000000,86400.00000000,86568.50000000,666.32154000
1769378400000,86568.51000000,86694.78000000,86217.32000000,86521.39000000,849.36578000
1769382000000,86521.39000000,86791.91000000,86074.72000000,86670.36000000,1129.26197000
1769385600000,86670.36000000,87167.84000000,86509.63000000,86854.86000000,788.16762000
1769389200000,86854.86000000,87809.99000000,86815.37000000,87698.73000000,1118.10870000
1769392800000,87698.74000000,87973.11000000,87435.18000000,87563.38000000,1015.63506000
1769396400000,87563.39000000,87691.41000000,87062.76000000,87282.05000000,1083.65608000
1769400000000,87282.04000000,87953.00000000,87244.27000000,87737.06000000,1109.49828000
1769403600000,87737.06000000,87956.27000000,87673.12000000,87826.01000000,765.12364000
1769407200000,87826.01000000,88031.73000000,87764.00000000,87937.44000000,915.62979000
1769410800000,87937.45000000,88074.48000000,87701.72000000,88000.64000000,768.40988000
1769414400000,88000.64000000,88424.45000000,87846.89000000,87975.39000000,790.54723000
1769418000000,87975.39000000,88000.00000000,87600.69000000,87663.12000000,543.28474000
1769421600000,87663.12000000,87950.00000000,87660.00000000,87897.55000000,242.48130000
1769425200000,87897.55000000,87980.00000000,87765.99000000,87855.00000000,244.05793000
1769428800000,87855.01000000,87971.99000000,87735.38000000,87799.45000000,288.85651000
1769432400000,87799.44000000,88048.00000000,87681.40000000,87960.01000000,556.52991000
1769436000000,87960.01000000,88508.41000000,87450.08000000,88178.10000000,1822.59356000
1769439600000,88178.09000000,88860.00000000,87325.03000000,87641.41000000,1769.32177000
1769443200000,87641.41000000,87964.60000000,87206.00000000,87606.99000000,686.77865000
1769446800000,87607.00000000,87789.47000000,87035.51000000,87700.62000000,580.63374000
1769450400000,87700.61000000,88403.73000000,87639.26000000,88403.72000000,550.84106000
1769454000000,88403.73000000,88537.95000000,87950.00000000,88013.19000000,515.97407000
1769457600000,88013.19000000,88118.00000000,87542.05000000,87629.22000000,428.95260000
1769461200000,87629.23000000,88238.29000000,87573.35000000,88064.69000000,392.85938000
1769464800000,88064.69000000,88270.29000000,88001.75000000,88140.01000000,324.81747000
1769468400000,88140.01000000,88659.09000000,88021.86000000,88347.08000000,463.75556000
1769472000000,88347.08000000,88457.30000000,88200.00000000,88353.97000000,302.20293000
1769475600000,88353.97000000,88700.00000000,88194.82000000,88550.61000000,340.87375000
1769479200000,88550.61000000,88858.96000000,88550.61000000,88831.60000000,479.89810000
1769482800000,88831.59000000,88898.00000000,88582.57000000,88788.00000000,526.26275000
1769486400000,88787.99000000,89010.00000000,88511.88000000,88579.58000000,508.81601000
1769490000000,88579.58000000,88586.26000000,88399.99000000,88456.30000000,306.33125000
1769493600000,88456.31000000,88522.86000000,88278.03000000,88332.67000000,277.06987000
1769497200000,88332.68000000,88555.14000000,88312.60000000,88320.41000000,356.10224000
1769500800000,88320.41000000,88397.85000000,88120.04000000,88170.82000000,305.95946000
1769504400000,88170.83000000,88170.83000000,87868.00000000,87886.82000000,501.60080000
1769508000000,87886.82000000,88055.75000000,87743.84000000,87786.53000000,315.39119000
1769511600000,87786.53000000,88093.19000000,87743.52000000,87992.74000000,339.68763000
1769515200000,87992.74000000,88165.24000000,87955.98000000,87986.96000000,497.99816000
1769518800000,87986.96000000,88076.82000000,87799.20000000,87982.15000000,400.06912000
1769522400000,87982.15000000,88474.23000000,87659.23000000,87745.02000000,762.91064000
1769526000000,87745.02000000,88189.44000000,87578.67000000,88047.46000000,838.96558000
1769529600000,88047.46000000,88819.89000000,88002.57000000,88641.44000000,1128.77578000
1769533200000,88641.43000000,88699.45000000,87304.33000000,87546.58000000,1183.80567000
1769536800000,87546.58000000,88510.15000000,87450.00000000,88285.05000000,865.62099000
1769540400000,88285.05000000,88549.32000000,88049.89000000,88408.77000000,469.70931000
1769544000000,88408.78000000,89497.19000000,88373.49000000,89396.16000000,1024.56489000
1769547600000,89396.03000000,89523.16000000,89008.75000000,89081.46000000,689.88066000
1769551200000,89081.47000000,89421.91000000,89021.61000000,89243.63000000,281.54432000
1769554800000,89243.63000000,89515.78000000,89143.92000000,89250.00000000,421.36315000
1769558400000,89249.99000000,89468.01000000,89154.80000000,89467.72000000,258.84583000
1769562000000,89467.73000000,89497.96000000,89196.87000000,89404.57000000,267.52883000
1769565600000,89404.57000000,89453.89000000,89100.01000000,89285.77000000,214.15071000
1769569200000,89285.78000000,89311.87000000,88985.00000000,89126.67000000,353.86100000
1769572800000,89126.68000000,89160.00000000,88840.00000000,88975.04000000,312.10964000
1769576400000,88975.03000000,89105.56000000,88849.00000000,89084.10000000,326.80822000
1769580000000,89084.10000000,89400.00000000,89084.10000000,89317.47000000,340.81001000
1769583600000,89317.47000000,89358.51000000,89099.81000000,89134.35000000,370.19520000
1769587200000,89134.35000000,89258.02000000,88833.65000000,88925.47000000,515.45435000
1769590800000,88925.47000000,89567.26000000,88849.99000000,89567.25000000,490.95043000
1769594400000,89567.25000000,89703.87000000,89330.22000000,89403.77000000,688.45427000
1769598000000,89403.76000000,90156.72000000,89313.13000000,90080.00000000,1092.21486000
1769601600000,90079.99000000,90176.88000000,89790.00000000,89998.69000000,946.78783000
1769605200000,89998.69000000,90488.00000000,89969.42000000,90257.91000000,1485.47795000
1769608800000,90257.91000000,90276.78000000,89460.01000000,89617.27000000,997.73721000
1769612400000,89617.27000000,89849.75000000,88904.61000000,89479.66000000,998.88376000
1769616000000,89479.66000000,89830.00000000,89248.61000000,89629.66000000,744.86311000
1769619600000,89629.66000000,90600.00000000,89277.21000000,90169.88000000,923.32635000
1769623200000,90169.89000000,90178.91000000,89312.88000000,89546.24000000,748.51147000
1769626800000,89544.00000000,89719.58000000,89006.36000000,89402.58000000,893.38320000
1769630400000,89402.57000000,89896.00000000,89010.00000000,89130.63000000,590.94624000
1769634000000,89130.63000000,89490.24000000,88878.01000000,89412.17000000,381.49994000
1769637600000,89412.18000000,89479.04000000,89138.00000000,89396.15000000,156.23518000
1769641200000,89396.15000000,89471.41000000,89209.48000000,89299.99000000,233.14943000
1769644800000,89300.00000000,89348.00000000,88900.00000000,89143.91000000,431.21285000
1769648400000,89143.92000000,89159.99000000,88548.87000000,88603.56000000,624.81108000
1769652000000,88603.56000000,88754.64000000,87704.00000000,87907.06000000,1097.35161000
1769655600000,87907.05000000,88265.39000000,87771.30000000,88053.71000000,769.73434000
1769659200000,88053.71000000,88345.66000000,87901.23000000,88315.20000000,311.34380000
1769662800000,88315.20000000,88408.08000000,88142.66000000,88186.54000000,354.31355000
1769666400000,88186.53000000,88338.67000000,88168.90000000,88319.35000000,284.51762000
1769670000000,88319.35000000,88430.05000000,88250.00000000,88352.97000000,526.73614000
1769673600000,88352.96000000,88500.00000000,87907.80000000,88064.16000000,823.67262000
1769677200000,88064.16000000,88160.00000000,87892.00000000,87892.01000000,372.84765000
1769680800000,87892.00000000,88046.59000000,87832.18000000,87946.46000000,575.41561000
1769684400000,87946.47000000,88066.94000000,87750.01000000,87846.50000000,527.10516000
1769688000000,87846.50000000,88121.29000000,87817.97000000,88121.21000000,516.69113000
1769691600000,88121.21000000,88182.29000000,87951.67000000,88052.88000000,283.13252000
1769695200000,88052.87000000,88075.23000000,87008.00000000,87014.40000000,1065.77381000
1769698800000,87014.40000000,87039.51000000,84366.56000000,84934.02000000,8241.95640000
1769702400000,84934.02000000,85392.20000000,84268.17000000,85270.00000000,4076.75879000
1769706000000,85270.01000000,85638.30000000,84012.78000000,84261.66000000,2652.67947000
1769709600000,84261.66000000,84630.55000000,83415.00000000,83477.02000000,2305.76692000
1769713200000,83477.02000000,84334.97000000,83383.33000000,84012.11000000,1752.68525000
1769716800000,84012.11000000,84398.36000000,83824.90000000,84216.91000000,1089.07114000
1769720400000,84216.91000000,84706.32000000,84200.00000000,84526.57000000,780.67473000
1769724000000,84526.57000000,84615.74000000,84306.24000000,84570.05000000,335.13893000
1769727600000,84570.04000000,84737.69000000,84445.70000000,84650.16000000,631.99089000
1769731200000,84650.16000000,84735.75000000,84100.00000000,84192.00000000,730.18491000
1769734800000,84192.00000000,84192.01000000,81118.00000000,82468.02000000,6080.28823000
1769738400000,82468.01000000,82535.89000000,81154.00000000,82164.88000000,3963.98084000
1769742000000,82164.88000000,82738.89000000,82036.35000000,82676.43000000,1470.66915000
1769745600000,82676.42000000,83332.20000000,82676.42000000,82938.92000000,1147.37787000
1769749200000,82938.92000000,83329.36000000,82903.23000000,82914.19000000,818.20759000
1769752800000,82914.20000000,82919.21000000,82056.08000000,82602.81000000,1199.37024000
1769756400000,82602.81000000,83100.00000000,82483.27000000,82816.98000000,1624.46252000
1769760000000,82816.98000000,82995.41000000,82438.80000000,82671.70000000,959.74241000
1769763600000,82671.70000000,82834.19000000,82160.00000000,82363.72000000,1026.26025000
1769767200000,82363.71000000,82897.41000000,82172.02000000,82833.92000000,661.39040000
1769770800000,82833.92000000,83314.85000000,82682.15000000,83151.36000000,607.68303000
1769774400000,83151.36000000,83329.35000000,82650.00000000,82800.50000000,693.01620000
1769778000000,82800.49000000,83087.34000000,82421.64000000,82740.92000000,760.57185000
1769781600000,82740.93000000,83797.99000000,82738.68000000,83098.00000000,1785.40114000
1769785200000,83098.00000000,83616.46000000,82382.01000000,82883.94000000,1512.89136000
1769788800000,82882.84000000,83493.60000000,82549.35000000,83149.00000000,956.54558000
1769792400000,83149.00000000,83475.80000000,82641.60000000,82943.23000000,1094.09504000
1769796000000,82943.23000000,84160.00000000,81871.37000000,83931.13000000,2213.77003000
1769799600000,83931.13000000,84621.16000000,83917.36000000,84242.99000000,1851.84536000
1769803200000,84243.00000000,84299.99000000,83539.20000000,83906.34000000,2390.62988000
1769806800000,83906.34000000,84523.11000000,83790.44000000,84273.70000000,835.94444000
1769810400000,84273.71000000,84327.06000000,83918.42000000,84219.99000000,454.50219000
1769814000000,84220.00000000,84298.96000000,83933.82000000,84260.49000000,357.01742000
1769817600000,84260.50000000,84270.02000000,84014.01000000,84067.83000000,380.99765000
1769821200000,84067.83000000,84266.22000000,83908.00000000,83999.99000000,474.79523000
1769824800000,84000.00000000,84183.42000000,83815.02000000,84130.01000000,514.80351000
1769828400000,84130.01000000,84232.00000000,84022.69000000,84022.69000000,356.74317000
1769832000000,84022.70000000,84146.22000000,83941.43000000,83992.45000000,214.26773000
1769835600000,83992.44000000,84097.37000000,83903.70000000,84000.01000000,249.62585000
1769839200000,84000.01000000,84050.51000000,83638.40000000,83786.09000000,407.33324000
1769842800000,83786.09000000,83805.02000000,83404.67000000,83546.81000000,478.71890000
1769846400000,83546.82000000,83629.08000000,82560.75000000,83074.07000000,1142.87539000
1769850000000,83074.08000000,83300.00000000,82894.00000000,83109.10000000,471.08907000
1769853600000,83109.10000000,83203.26000000,82917.32000000,83160.00000000,515.13254000
1769857200000,83160.00000000,83160.00000000,82851.97000000,83020.00000000,279.69189000
1769860800000,83020.00000000,83140.00000000,82720.00000000,82762.00000000,537.57574000
1769864400000,82761.99000000,82919.29000000,82478.59000000,82767.99000000,539.85854000
1769868000000,82768.00000000,82928.20000000,80825.76000000,81479.99000000,4166.24097000
1769871600000,81480.00000000,81789.68000000,81088.00000000,81302.15000000,1568.15407000
1769875200000,81302.16000000,82200.00000000,80098.01000000,80365.04000000,5113.56418000
1769878800000,80365.05000000,80550.74000000,78159.90000000,78893.92000000,6669.26832000
1769882400000,78893.92000000,79143.64000000,75719.90000000,78038.38000000,7783.32311000
1769886000000,78038.39000000,78576.30000000,77194.00000000,77750.01000000,2463.45994000
1769889600000,77750.01000000,78141.95000000,77092.34000000,77999.03000000,1378.50317000
1769893200000,77999.02000000,78365.02000000,77372.69000000,78292.00000000,1330.56660000
1769896800000,78292.00000000,78499.94000000,78000.00000000,78155.17000000,902.43744000
1769900400000,78155.16000000,79240.00000000,78078.67000000,78741.09000000,1552.86508000
1769904000000,78741.10000000,79424.00000000,78644.09000000,78902.31000000,1738.02598000
1769907600000,78902.31000000,78943.62000000,78284.00000000,78532.17000000,1163.10084000
1769911200000,78532.32000000,79060.44000000,78378.00000000,78900.01000000,762.94469000
1769914800000,78900.01000000,79008.36000000,78666.73000000,78868.28000000,594.31033000
1769918400000,78868.29000000,79119.30000000,78720.97000000,78971.75000000,441.04188000
1769922000000,78973.22000000,79006.00000000,78527.13000000,78620.91000000,744.74280000
1769925600000,78620.90000000,78824.10000000,78266.63000000,78300.00000000,568.62406000
1769929200000,78300.01000000,78724.01000000,77967.69000000,78343.00000000,808.74546000
1769932800000,78343.00000000,78863.00000000,78252.64000000,78604.02000000,567.72389000
1769936400000,78604.02000000,79136.10000000,78551.15000000,79034.45000000,479.76229000
1769940000000,79034.45000000,79220.72000000,78148.10000000,78279.73000000,863.43565000
1769943600000,78279.73000000,78877.89000000,78279.72000000,78743.56000000,539.38656000
1769947200000,78743.57000000,78760.00000000,78244.00000000,78459.67000000,620.90729000
1769950800000,78459.68000000,78768.68000000,78203.21000000,78317.51000000,482.47432000
1769954400000,78317.51000000,78520.00000000,77236.68000000,78211.12000000,1658.37078000
1769958000000,78211.12000000,78254.20000000,76761.98000000,77593.40000000,2045.87767000
1769961600000,77593.40000000,77838.48000000,77087.76000000,77494.77000000,1084.57336000
1769965200000,77494.77000000,77748.00000000,77300.00000000,77745.32000000,549.82327000
1769968800000,77745.33000000,78443.10000000,77727.27000000,78029.28000000,791.63632000
1769972400000,78029.29000000,78106.10000000,77000.01000000,77174.78000000,457.49789000
1769976000000,77174.77000000,77740.91000000,76606.00000000,77103.04000000,1125.71882000
1769979600000,77103.04000000,77161.26000000,76359.87000000,76526.03000000,1221.60590000
1769983200000,76526.03000000,77779.63000000,76456.78000000,77249.31000000,1235.13318000
1769986800000,77249.31000000,77610.72000000,75700.00000000,76968.21000000,4850.01845000
1769990400000,76968.22000000,78231.26000000,76606.39000000,77672.61000000,1960.16053000
1769994000000,77672.61000000,77942.28000000,76619.69000000,77518.87000000,1238.02224000
1769997600000,77518.87000000,77555.62000000,76449.84000000,76491.17000000,1406.18164000
1770001200000,76491.18000000,76575.93000000,74604.00000000,76292.98000000,6845.40126000
1770004800000,76292.98000000,76621.28000000,75335.90000000,75894.15000000,2387.03559000
1770008400000,75894.15000000,75999.99000000,74911.14000000,75502.10000000,2327.56014000
1770012000000,75502.10000000,76834.71000000,74957.51000000,76549.32000000,3207.27225000
1770015600000,76549.32000000,76958.00000000,76327.90000000,76660.79000000,1646.53051000
1770019200000,76660.78000000,77191.15000000,76628.28000000,76881.28000000,1422.14452000
1770022800000,76881.28000000,77815.00000000,76652.00000000,77725.33000000,2196.40917000
1770026400000,77725.33000000,77876.69000000,77474.85000000,77504.54000000,1049.86427000
1770030000000,77504.54000000,77970.62000000,77451.11000000,77759.99000000,983.08962000
1770033600000,77760.00000000,78434.00000000,77706.00000000,77988.51000000,1103.97039000
1770037200000,77988.50000000,78458.00000000,77800.00000000,78224.79000000,960.76337000
1770040800000,78224.80000000,78885.00000000,77626.44000000,77844.79000000,2220.07608000
1770044400000,77844.78000000,79360.00000000,77564.62000000,78850.06000000,3238.00821000
1770048000000,78850.06000000,79288.28000000,78584.00000000,78634.76000000,1987.74899000
1770051600000,78634.75000000,79213.99000000,78603.93000000,78988.64000000,1407.01094000
1770055200000,78988.65000000,78988.65000000,78369.13000000,78569.84000000,992.65857000
1770058800000,78569.83000000,78697.99000000,78283.27000000,78341.50000000,1074.65868000
1770062400000,78341.50000000,78667.38000000,77888.00000000,78008.59000000,902.54602000
1770066000000,78008.59000000,78552.76000000,77922.00000000,78532.06000000,507.24426000
1770069600000,78532.07000000,78853.35000000,78528.21000000,78795.20000000,488.24484000
1770073200000,78795.20000000,78962.78000000,78560.00000000,78738.61000000,720.98807000
1770076800000,78738.60000000,79099.99000000,78408.05000000,79065.24000000,994.28607000
1770080400000,79065.24000000,79186.81000000,78716.79000000,79017.63000000,990.18740000
1770084000000,79017.64000000,79017.64000000,77800.00000000,77808.01000000,959.76758000
1770087600000,77808.02000000,78907.18000000,77644.09000000,78753.32000000,1068.28743000
1770091200000,78753.32000000,78999.99000000,78488.00000000,78798.39000000,719.00577000
1770094800000,78798.38000000,78809.78000000,78218.98000000,78240.45000000,581.74505000
1770098400000,78240.45000000,78665.91000000,77950.00000000,78594.17000000,881.03721000
1770102000000,78594.01000000,78923.93000000,78488.01000000,78794.67000000,705.05984000
1770105600000,78794.67000000,79084.29000000,78464.60000000,78747.96000000,840.32530000
1770109200000,78747.96000000,78841.35000000,77950.00000000,78400.01000000,972.94350000
1770112800000,78400.01000000,78560.00000000,78070.00000000,78120.36000000,505.87116000
1770116400000,78120.36000000,78349.24000000,78004.08000000,78079.50000000,475.83471000
1770120000000,78079.50000000,78416.90000000,78000.00000000,78330.26000000,933.62710000
1770123600000,78330.26000000,78458.89000000,78187.91000000,78307.65000000,529.49211000
1770127200000,78307.65000000,78434.61000000,77156.24000000,77201.22000000,2011.41490000
1770130800000,77201.21000000,78196.83000000,77055.54000000,78132.33000000,2069.08407000
1770134400000,78132.34000000,78134.53000000,76400.00000000,76488.08000000,3199.23624000
1770138000000,76488.08000000,76525.44000000,74882.28000000,74915.79000000,3210.53566000
1770141600000,74915.79000000,75302.76000000,73137.66000000,73139.13000000,8932.04301000
1770145200000,73139.12000000,75291.10000000,72945.50000000,74935.00000000,3497.82279000
1770148800000,74935.00000000,76721.25000000,74586.54000000,76475.52000000,2122.86901000
1770152400000,76475.53000000,76960.00000000,76124.05000000,76239.43000000,1110.97152000
1770156000000,76239.43000000,76299.19000000,75406.79000000,75708.83000000,1013.97922000
1770159600000,75708.82000000,76000.00000000,75428.16000000,75770.21000000,794.68224000
1770163200000,75770.21000000,76264.00000000,75467.22000000,75910.88000000,730.62893000
1770166800000,75910.88000000,76798.12000000,75910.88000000,76423.73000000,952.72942000
1770170400000,76423.73000000,76610.04000000,75707.41000000,75963.35000000,853.38888000
1770174000000,75963.35000000,76971.52000000,75906.05000000,76698.17000000,1036.93598000
1770177600000,76698.17000000,76830.69000000,76413.64000000,76479.75000000,577.39018000
1770181200000,76479.75000000,76526.80000000,76105.30000000,76279.99000000,1056.73491000
1770184800000,76280.00000000,76780.00000000,76259.90000000,76652.68000000,609.34015000
1770188400000,76652.68000000,76657.31000000,76335.46000000,76514.30000000,593.58526000
1770192000000,76514.30000000,76600.00000000,76068.69000000,76587.26000000,736.19473000
1770195600000,76587.26000000,76607.69000000,75967.10000000,76119.00000000,632.82215000
1770199200000,76119.00000000,76338.65000000,76069.00000000,76302.10000000,440.91077000
1770202800000,76302.10000000,76302.10000000,75666.00000000,76017.25000000,1102.73317000
1770206400000,76017.25000000,76260.85000000,76000.00000000,76180.85000000,942.91713000
1770210000000,76180.84000000,76186.98000000,74867.00000000,74867.00000000,1563.62436000
1770213600000,74867.00000000,75769.23000000,74256.00000000,74359.53000000,2801.90282000
1770217200000,74359.53000000,75328.28000000,73794.11000000,74136.36000000,3644.50098000
1770220800000,74136.48000000,74249.83000000,73076.92000000,73636.01000000,3089.62892000
1770224400000,73635.63000000,73863.92000000,72169.00000000,72576.08000000,5764.80542000
1770228000000,72576.08000000,74140.00000000,72273.68000000,73425.96000000,3480.01439000
1770231600000,73425.97000000,74007.28000000,73041.41000000,73923.29000000,1609.77508000
1770235200000,73923.30000000,74144.00000000,73425.56000000,73516.30000000,1052.61663000
1770238800000,73516.30000000,73654.00000000,72210.00000000,72799.99000000,1379.23839000
1770242400000,72800.00000000,73680.00000000,71888.00000000,72543.38000000,2426.62344000
1770246000000,72543.38000000,73520.59000000,72468.12000000,73165.83000000,1296.31791000
1770249600000,73165.84000000,73325.60000000,72754.21000000,72868.02000000,1031.56586000
1770253200000,72868.02000000,73341.18000000,71995.09000000,72421.26000000,1796.49365000
1770256800000,72421.26000000,72854.39000000,71305.55000000,71454.44000000,2979.51665000
1770260400000,71454.44000000,71884.47000000,71152.78000000,71223.25000000,2548.86017000
1770264000000,71223.25000000,71437.68000000,70701.00000000,70888.08000000,4293.99043000
1770267600000,70888.09000000,71150.16000000,70140.00000000,70732.72000000,4302.51294000
1770271200000,70732.73000000,70984.62000000,70434.05000000,70951.51000000,2020.09726000
1770274800000,70951.51000000,71622.82000000,70644.73000000,70756.85000000,2612.40429000
1770278400000,70756.86000000,71550.00000000,70683.58000000,71054.99000000,1815.06036000
1770282000000,71054.99000000,71978.58000000,71049.35000000,71550.00000000,1842.40706000
