timestamp,open,high,low,close,volume
1771520400000,66293.53000000,66682.30000000,66266.60000000,66660.76000000,196.79151000
1771521300000,66660.77000000,67049.99000000,66570.13000000,66621.45000000,335.75129000
1771522200000,66621.44000000,66726.38000000,66483.01000000,66609.81000000,132.39380000
1771523100000,66609.80000000,66665.59000000,66173.15000000,66369.42000000,234.10402000
1771524000000,66369.42000000,66649.39000000,66228.49000000,66639.09000000,195.72385000
1771524900000,66639.10000000,66916.00000000,66467.55000000,66903.70000000,160.91452000
1771525800000,66903.69000000,67016.00000000,66714.28000000,67008.47000000,249.81979000
1771526700000,67008.47000000,67073.13000000,66887.50000000,67030.49000000,259.05885000
1771527600000,67030.50000000,67198.10000000,66864.41000000,66910.21000000,225.79905000
1771528500000,66910.21000000,67075.59000000,66847.11000000,66935.40000000,130.76143000
1771529400000,66935.39000000,66962.61000000,66700.00000000,66876.78000000,153.02873000
1771530300000,66876.77000000,67130.23000000,66785.15000000,67050.00000000,196.88868000
1771531200000,67050.00000000,67127.32000000,66938.56000000,66974.09000000,113.19176000
1771532100000,66974.09000000,66996.04000000,66823.03000000,66940.00000000,83.08504000
1771533000000,66939.99000000,67034.78000000,66899.99000000,66942.04000000,95.91162000
1771533900000,66942.04000000,67166.98000000,66942.04000000,67149.11000000,152.69494000
1771534800000,67149.11000000,67168.86000000,67027.85000000,67027.90000000,78.25782000
1771535700000,67027.91000000,67073.35000000,66993.89000000,67040.99000000,64.82120000
1771536600000,67040.99000000,67075.72000000,66956.43000000,66958.00000000,63.32203000
1771537500000,66957.99000000,66989.93000000,66900.92000000,66916.51000000,59.00342000
1771538400000,66916.51000000,66933.00000000,66688.30000000,66891.98000000,430.60215000
1771539300000,66891.98000000,66891.98000000,66772.00000000,66772.00000000,146.70868000
1771540200000,66772.00000000,66856.89000000,66652.34000000,66852.65000000,150.65139000
1771541100000,66852.65000000,67000.00000000,66761.55000000,66915.14000000,126.05990000
1771542000000,66915.15000000,66980.99000000,66814.76000000,66850.77000000,110.83435000
1771542900000,66850.78000000,67023.61000000,66850.77000000,67006.28000000,71.38077000
1771543800000,67006.27000000,67006.27000000,66913.49000000,66965.49000000,48.83982000
1771544700000,66965.48000000,67022.90000000,66907.11000000,67003.73000000,73.58475000
1771545600000,67003.73000000,67193.99000000,66949.41000000,67191.72000000,82.52418000
1771546500000,67191.72000000,67486.62000000,67150.00000000,67388.99000000,363.21136000
1771547400000,67388.99000000,67388.99000000,67254.38000000,67284.01000000,88.47463000
1771548300000,67284.00000000,67296.19000000,67208.50000000,67228.91000000,60.79245000
1771549200000,67228.91000000,67355.79000000,67221.19000000,67336.00000000,74.92642000
1771550100000,67336.00000000,67336.00000000,67150.00000000,67209.61000000,63.88034000
1771551000000,67209.60000000,67348.83000000,67191.17000000,67330.48000000,57.49023000
1771551900000,67330.47000000,67330.47000000,67167.79000000,67279.90000000,117.01899000
1771552800000,67279.91000000,67347.76000000,67244.00000000,67281.34000000,64.67566000
1771553700000,67281.35000000,67298.68000000,67181.28000000,67201.90000000,53.54773000
1771554600000,67201.89000000,67315.01000000,67201.89000000,67304.23000000,62.77295000
1771555500000,67304.24000000,67332.56000000,67242.02000000,67242.03000000,51.10125000
1771556400000,67242.03000000,67316.75000000,67242.02000000,67280.39000000,39.57047000
1771557300000,67280.39000000,67481.30000000,67241.24000000,67414.25000000,112.07953000
1771558200000,67414.26000000,67488.67000000,67306.91000000,67324.97000000,106.63673000
1771559100000,67324.97000000,67394.00000000,67306.91000000,67366.25000000,74.21819000
1771560000000,67366.25000000,67402.23000000,67248.75000000,67326.24000000,96.00630000
1771560900000,67326.24000000,67353.39000000,67115.38000000,67229.55000000,117.09748000
1771561800000,67229.54000000,67329.48000000,67172.91000000,67302.00000000,71.96428000
1771562700000,67301.99000000,67301.99000000,67219.80000000,67264.83000000,77.32368000
1771563600000,67264.83000000,67275.33000000,67203.19000000,67257.54000000,60.27907000
1771564500000,67257.55000000,67450.00000000,67249.13000000,67407.34000000,128.19665000
1771565400000,67407.34000000,67949.00000000,67407.34000000,67910.17000000,499.28355000
1771566300000,67910.17000000,68006.00000000,67724.09000000,67790.10000000,419.62671000
1771567200000,67790.11000000,67894.20000000,67699.38000000,67857.31000000,174.31055000
1771568100000,67857.31000000,67888.00000000,67668.16000000,67721.02000000,122.07414000
1771569000000,67721.03000000,67844.00000000,67660.12000000,67753.28000000,107.74731000
1771569900000,67753.28000000,67893.00000000,67719.85000000,67847.47000000,78.53353000
1771570800000,67847.47000000,67863.30000000,67771.76000000,67822.50000000,98.37881000
1771571700000,67822.50000000,67990.00000000,67822.50000000,67948.63000000,113.84036000
1771572600000,67948.63000000,67955.81000000,67860.81000000,67879.79000000,130.09606000
1771573500000,67879.79000000,67941.28000000,67767.40000000,67825.91000000,116.71982000
1771574400000,67825.91000000,67896.53000000,67803.57000000,67869.99000000,68.66069000
1771575300000,67869.99000000,67950.85000000,67847.45000000,67870.00000000,84.74037000
1771576200000,67870.01000000,67896.75000000,67747.33000000,67792.86000000,89.59378000
1771577100000,67792.87000000,67900.00000000,67779.27000000,67879.99000000,47.00551000
1771578000000,67879.99000000,68230.01000000,67879.99000000,68132.01000000,661.08273000
1771578900000,68132.01000000,68208.08000000,68106.00000000,68200.60000000,148.85927000
1771579800000,68200.60000000,68224.80000000,68118.64000000,68135.42000000,89.86522000
1771580700000,68135.42000000,68226.10000000,68130.03000000,68218.85000000,96.98068000
1771581600000,68218.85000000,68318.39000000,68103.04000000,68182.18000000,174.74888000
1771582500000,68182.19000000,68294.91000000,68130.00000000,68263.00000000,90.82352000
1771583400000,68263.01000000,68291.65000000,68144.05000000,68162.35000000,90.42025000
1771584300000,68162.35000000,68187.01000000,67843.42000000,67948.99000000,282.74993000
1771585200000,67948.99000000,67983.91000000,67787.46000000,67869.99000000,233.30390000
1771586100000,67869.99000000,67888.40000000,67779.99000000,67874.58000000,273.49106000
1771587000000,67874.59000000,67895.20000000,67388.39000000,67443.55000000,646.84456000
1771587900000,67443.56000000,67609.00000000,67280.60000000,67318.41000000,335.46437000
1771588800000,67318.41000000,67500.00000000,67276.41000000,67477.54000000,153.43717000
1771589700000,67477.54000000,67531.53000000,67280.00000000,67323.72000000,177.53419000
1771590600000,67323.72000000,67500.00000000,67304.45000000,67475.31000000,99.26266000
1771591500000,67475.31000000,67594.00000000,67464.00000000,67541.77000000,172.92382000
1771592400000,67541.78000000,67541.78000000,67084.71000000,67143.24000000,391.38023000
1771593300000,67143.24000000,67253.61000000,66983.00000000,67202.01000000,200.23899000
1771594200000,67202.01000000,67220.88000000,66280.20000000,66624.09000000,2631.31210000
1771595100000,66624.09000000,66957.48000000,66500.00000000,66801.62000000,3855.66359000
1771596000000,66801.62000000,67000.00000000,66772.17000000,66926.73000000,330.20677000
1771596900000,66926.74000000,67079.98000000,66532.87000000,66976.34000000,2647.72909000
1771597800000,66976.34000000,67317.50000000,66755.82000000,67065.30000000,2046.52044000
1771598700000,67065.30000000,67147.94000000,66866.66000000,67069.65000000,239.03178000
1771599600000,67069.65000000,68083.98000000,66866.88000000,66889.91000000,1602.78899000
1771600500000,66889.90000000,67598.94000000,66536.64000000,67453.71000000,635.70389000
1771601400000,67453.71000000,67475.37000000,66936.03000000,67229.99000000,449.31679000
1771602300000,67229.98000000,67676.92000000,67151.45000000,67582.95000000,455.40089000
1771603200000,67582.95000000,67796.40000000,67502.38000000,67725.13000000,458.30545000
1771604100000,67725.13000000,67921.70000000,67307.29000000,67316.87000000,409.97942000
1771605000000,67316.86000000,67528.12000000,67283.24000000,67495.45000000,182.46288000
1771605900000,67495.45000000,67914.70000000,67491.47000000,67795.47000000,262.15528000
1771606800000,67795.48000000,67795.48000000,67057.17000000,67067.03000000,489.74623000
1771607700000,67067.04000000,67255.23000000,67005.53000000,67031.71000000,483.71173000
1771608600000,67031.71000000,67312.33000000,66952.11000000,67238.00000000,321.79068000
1771609500000,67238.00000000,67680.79000000,66971.21000000,67613.37000000,4789.90686000
1771610400000,67613.38000000,67784.46000000,67484.13000000,67574.97000000,326.38466000
1771611300000,67574.97000000,67687.20000000,67466.11000000,67664.75000000,214.13210000
1771612200000,67664.56000000,68000.00000000,67527.01000000,67791.66000000,474.90839000
1771613100000,67791.67000000,67977.28000000,67683.73000000,67924.21000000,306.20745000
1771614000000,67924.22000000,68000.00000000,67672.32000000,67709.07000000,251.02037000
1771614900000,67709.08000000,67796.40000000,67557.52000000,67625.23000000,200.74641000
1771615800000,67625.23000000,67836.60000000,67548.85000000,67610.60000000,148.77071000
1771616700000,67610.60000000,67729.58000000,67570.58000000,67646.03000000,253.91818000
1771617600000,67646.03000000,67885.55000000,67636.30000000,67816.34000000,260.99094000
1771618500000,67816.33000000,67816.33000000,67565.52000000,67580.10000000,137.83055000
1771619400000,67580.09000000,67734.01000000,67520.30000000,67734.00000000,107.43878000
1771620300000,67734.00000000,67762.49000000,67631.14000000,67750.40000000,179.67807000
1771621200000,67750.40000000,67806.25000000,67639.29000000,67720.54000000,178.58861000
1771622100000,67720.55000000,67748.84000000,67659.50000000,67746.05000000,95.87028000
1771623000000,67746.05000000,67840.00000000,67704.30000000,67764.00000000,88.81896000
1771623900000,67764.01000000,67832.28000000,67725.00000000,67825.87000000,88.64742000
1771624800000,67825.87000000,67830.00000000,67639.31000000,67659.40000000,141.67928000
1771625700000,67659.41000000,68000.00000000,67659.40000000,67936.48000000,208.59105000
1771626600000,67936.49000000,68116.60000000,67890.88000000,67963.75000000,205.81216000
1771627500000,67963.76000000,68104.00000000,67924.27000000,68078.13000000,113.55348000
1771628400000,68078.13000000,68233.99000000,68017.24000000,68026.40000000,222.45804000
1771629300000,68026.41000000,68059.30000000,67953.95000000,67996.48000000,104.94902000
1771630200000,67996.47000000,68032.01000000,67914.00000000,67975.91000000,129.97186000
1771631100000,67975.91000000,68040.46000000,67962.66000000,68020.01000000,125.36009000
1771632000000,68020.00000000,68051.16000000,67950.00000000,68017.36000000,132.18200000
1771632900000,68017.36000000,68017.36000000,67891.72000000,67927.99000000,105.78930000
1771633800000,67927.99000000,67947.33000000,67830.00000000,67840.67000000,148.93760000
1771634700000,67840.68000000,67871.36000000,67787.19000000,67841.00000000,150.63604000
1771635600000,67841.00000000,67928.82000000,67841.00000000,67928.82000000,85.53928000
1771636500000,67928.81000000,67928.81000000,67856.59000000,67856.59000000,81.34852000
1771637400000,67856.60000000,68003.74000000,67856.60000000,67976.28000000,48.42422000
1771638300000,67976.27000000,68005.99000000,67944.56000000,67951.24000000,35.31495000
1771639200000,67951.25000000,68016.56000000,67913.30000000,67989.01000000,78.54613000
1771640100000,67989.01000000,68055.22000000,67974.77000000,68055.21000000,40.04279000
1771641000000,68055.22000000,68099.54000000,68013.40000000,68077.87000000,63.67845000
1771641900000,68077.86000000,68077.86000000,67990.70000000,68001.05000000,42.29760000
1771642800000,68001.04000000,68001.04000000,67676.61000000,67761.42000000,251.70908000
1771643700000,67761.42000000,67828.33000000,67735.99000000,67800.29000000,104.39952000
1771644600000,67800.30000000,67830.10000000,67534.69000000,67616.93000000,159.81944000
1771645500000,67616.93000000,67670.99000000,67587.10000000,67667.77000000,53.43049000
1771646400000,67667.77000000,67704.40000000,67595.80000000,67662.19000000,67.26923000
1771647300000,67662.20000000,67721.32000000,67593.99000000,67717.00000000,55.63240000
1771648200000,67717.01000000,67763.36000000,67691.82000000,67691.82000000,45.90930000
1771649100000,67691.83000000,67846.88000000,67691.83000000,67816.97000000,59.81348000
1771650000000,67816.98000000,67876.00000000,67816.97000000,67848.19000000,24.84130000
1771650900000,67848.20000000,67879.05000000,67818.10000000,67860.94000000,67.46323000
1771651800000,67860.93000000,67888.40000000,67799.70000000,67858.55000000,32.78843000
1771652700000,67858.54000000,67867.88000000,67823.25000000,67851.93000000,16.15418000
1771653600000,67851.93000000,67924.39000000,67846.88000000,67917.32000000,106.70012000
1771654500000,67917.32000000,67922.14000000,67873.25000000,67873.26000000,26.40590000
1771655400000,67873.25000000,67873.26000000,67752.30000000,67783.71000000,72.56408000
1771656300000,67783.71000000,67795.36000000,67750.96000000,67793.38000000,22.48041000
1771657200000,67793.39000000,67850.01000000,67749.59000000,67825.45000000,24.20960000
1771658100000,67825.45000000,67860.68000000,67825.44000000,67856.01000000,24.56248000
1771659000000,67856.01000000,67884.74000000,67818.96000000,67834.07000000,29.34936000
1771659900000,67834.08000000,67858.56000000,67834.07000000,67856.01000000,40.08867000
1771660800000,67856.01000000,67910.50000000,67807.30000000,67910.49000000,64.03227000
1771661700000,67910.49000000,67996.48000000,67910.49000000,67980.85000000,69.50956000
1771662600000,67980.84000000,68010.00000000,67937.84000000,68000.02000000,55.73937000
1771663500000,68000.02000000,68079.41000000,67960.06000000,68055.03000000,103.88201000
1771664400000,68055.04000000,68070.08000000,67978.90000000,68000.27000000,61.10460000
1771665300000,68000.27000000,68272.85000000,68000.27000000,68235.09000000,241.58237000
1771666200000,68235.10000000,68314.54000000,68125.72000000,68194.90000000,201.85559000
1771667100000,68194.90000000,68220.01000000,68141.03000000,68147.53000000,95.24998000
1771668000000,68147.54000000,68250.00000000,68147.53000000,68182.25000000,63.03765000
1771668900000,68182.25000000,68213.15000000,68139.65000000,68184.94000000,61.32947000
1771669800000,68184.95000000,68236.29000000,68181.82000000,68230.84000000,60.03346000
1771670700000,68230.84000000,68234.42000000,68164.30000000,68215.54000000,27.81708000
1771671600000,68215.55000000,68271.45000000,68195.47000000,68269.92000000,59.63245000
1771672500000,68269.91000000,68283.34000000,68177.22000000,68185.61000000,90.49953000
1771673400000,68185.60000000,68198.20000000,68090.06000000,68094.00000000,82.45827000
1771674300000,68094.00000000,68120.72000000,68084.00000000,68092.45000000,46.73406000
1771675200000,68092.45000000,68137.99000000,67953.83000000,67989.96000000,116.57984000
1771676100000,67989.96000000,68013.03000000,67954.85000000,67968.00000000,53.17874000
1771677000000,67968.00000000,68036.41000000,67915.00000000,68031.31000000,47.07137000
1771677900000,68031.30000000,68218.20000000,68031.30000000,68203.42000000,91.05412000
1771678800000,68203.42000000,68203.42000000,68130.53000000,68147.29000000,43.00446000
1771679700000,68147.29000000,68250.00000000,68106.89000000,68237.93000000,74.91840000
1771680600000,68237.92000000,68243.47000000,68167.61000000,68167.61000000,35.99476000
1771681500000,68167.62000000,68260.00000000,68167.61000000,68259.99000000,48.34183000
1771682400000,68259.99000000,68268.00000000,68180.53000000,68267.99000000,84.68817000
1771683300000,68267.99000000,68644.00000000,68219.23000000,68432.80000000,430.60149000
1771684200000,68432.80000000,68624.40000000,68415.71000000,68541.67000000,275.22000000
1771685100000,68541.68000000,68586.48000000,68438.00000000,68450.01000000,90.00778000
1771686000000,68450.01000000,68520.10000000,68422.32000000,68489.47000000,66.31677000
1771686900000,68489.47000000,68570.00000000,68453.60000000,68453.61000000,66.19596000
1771687800000,68453.61000000,68698.70000000,68417.00000000,68631.72000000,197.82591000
1771688700000,68631.72000000,68696.63000000,68594.74000000,68615.00000000,97.30576000
1771689600000,68615.01000000,68630.76000000,68309.16000000,68356.78000000,217.00785000
1771690500000,68356.77000000,68356.77000000,68101.78000000,68274.36000000,241.21261000
1771691400000,68274.37000000,68356.01000000,68138.00000000,68356.00000000,157.82279000
1771692300000,68356.00000000,68356.01000000,68310.54000000,68322.60000000,42.45595000
1771693200000,68322.61000000,68349.26000000,68200.00000000,68264.45000000,56.90234000
1771694100000,68264.46000000,68322.70000000,68208.06000000,68283.38000000,42.32045000
1771695000000,68283.37000000,68474.01000000,68264.38000000,68425.60000000,65.96034000
1771695900000,68425.60000000,68469.61000000,68393.10000000,68437.45000000,47.04702000
1771696800000,68437.45000000,68445.00000000,68383.08000000,68407.61000000,28.44931000
1771697700000,68407.62000000,68558.20000000,68407.62000000,68490.45000000,108.72128000
1771698600000,68490.45000000,68579.72000000,68489.12000000,68546.03000000,73.73466000
1771699500000,68546.04000000,68644.00000000,68494.22000000,68574.00000000,109.37737000
1771700400000,68573.99000000,68658.50000000,68528.60000000,68591.34000000,76.43122000
1771701300000,68591.34000000,68622.04000000,68540.57000000,68573.68000000,51.94559000
1771702200000,68573.68000000,68649.08000000,68563.65000000,68627.16000000,52.30738000
1771703100000,68627.15000000,68627.15000000,68526.81000000,68543.51000000,38.46823000
1771704000000,68543.51000000,68551.14000000,68478.36000000,68489.18000000,54.36584000
1771704900000,68489.18000000,68605.63000000,68488.99000000,68565.05000000,82.99499000
1771705800000,68565.05000000,68571.03000000,68322.68000000,68385.30000000,109.22839000
1771706700000,68385.29000000,68417.65000000,68190.00000000,68211.19000000,122.78314000
1771707600000,68211.19000000,68346.35000000,68183.10000000,68291.03000000,81.16492000
1771708500000,68291.03000000,68372.30000000,68278.89000000,68345.55000000,36.54383000
1771709400000,68345.55000000,68377.97000000,68288.30000000,68289.88000000,32.37447000
1771710300000,68289.88000000,68390.93000000,68289.65000000,68379.95000000,20.54495000
1771711200000,68379.95000000,68437.56000000,68221.54000000,68251.30000000,57.66558000
1771712100000,68251.30000000,68324.75000000,68244.52000000,68263.55000000,48.29719000
1771713000000,68263.55000000,68289.78000000,67966.00000000,68099.02000000,131.05771000
1771713900000,68099.02000000,68181.50000000,67900.00000000,67972.00000000,141.70870000
1771714800000,67972.00000000,68017.28000000,67941.02000000,67950.48000000,58.34060000
1771715700000,67950.48000000,68095.53000000,67950.47000000,68075.77000000,39.71879000
1771716600000,68075.77000000,68124.54000000,68054.66000000,68058.00000000,42.32487000
1771717500000,68057.99000000,68062.09000000,67973.68000000,67975.93000000,62.43229000
1771718400000,67975.93000000,68037.43000000,67939.74000000,68015.09000000,70.97327000
1771719300000,68015.08000000,68060.40000000,67809.78000000,67856.03000000,114.51834000
1771720200000,67856.03000000,67931.16000000,67841.36000000,67846.01000000,61.16487000
1771721100000,67846.01000000,67962.60000000,67844.00000000,67946.00000000,47.94903000
1771722000000,67946.00000000,68081.26000000,67945.99000000,68033.38000000,76.14433000
1771722900000,68033.38000000,68116.60000000,68010.14000000,68116.60000000,91.61801000
1771723800000,68116.60000000,68156.94000000,68039.36000000,68126.46000000,53.68981000
1771724700000,68126.45000000,68171.46000000,68093.98000000,68159.31000000,43.63902000
1771725600000,68159.32000000,68222.16000000,68121.78000000,68215.41000000,53.78904000
1771726500000,68215.41000000,68215.41000000,68051.32000000,68056.09000000,31.44238000
1771727400000,68056.10000000,68116.67000000,67980.53000000,67983.82000000,106.68940000
1771728300000,67983.82000000,68031.61000000,67872.76000000,67909.68000000,97.49799000
1771729200000,67909.67000000,68022.98000000,67906.18000000,68018.00000000,43.96950000
1771730100000,68018.01000000,68040.05000000,67824.90000000,67968.68000000,131.89863000
1771731000000,67968.68000000,67992.91000000,67898.36000000,67992.90000000,53.29280000
1771731900000,67992.90000000,68062.03000000,67936.59000000,68041.43000000,36.20560000
1771732800000,68041.42000000,68086.00000000,68030.52000000,68069.63000000,42.67004000
1771733700000,68069.63000000,68069.63000000,67973.41000000,68013.40000000,30.94123000
1771734600000,68013.41000000,68047.00000000,67966.52000000,67987.14000000,50.86462000
1771735500000,67987.15000000,68006.51000000,67973.38000000,67983.50000000,75.08680000
1771736400000,67983.50000000,68011.75000000,67881.81000000,67913.79000000,70.57533000
1771737300000,67913.79000000,67964.22000000,67900.91000000,67947.88000000,24.43192000
1771738200000,67947.89000000,67947.89000000,67925.65000000,67940.10000000,15.76490000
1771739100000,67940.11000000,67977.52000000,67885.45000000,67977.52000000,43.99209000
1771740000000,67977.52000000,68052.00000000,67972.89000000,68046.27000000,54.96727000
1771740900000,68046.27000000,68178.79000000,68020.28000000,68116.50000000,117.21205000
1771741800000,68116.50000000,68174.41000000,68056.24000000,68058.61000000,61.81610000
1771742700000,68058.62000000,68087.31000000,68038.13000000,68038.13000000,69.09700000
1771743600000,68038.14000000,68038.14000000,67990.50000000,68036.27000000,90.02454000
1771744500000,68036.27000000,68038.94000000,68000.00000000,68023.58000000,51.08253000
1771745400000,68023.59000000,68095.57000000,68015.96000000,68085.95000000,53.08890000
1771746300000,68085.96000000,68085.96000000,68001.00000000,68005.30000000,72.17668000
1771747200000,68005.30000000,68019.46000000,67980.00000000,67986.78000000,26.63084000
1771748100000,67986.78000000,68006.00000000,67912.02000000,67963.26000000,50.13522000
1771749000000,67963.26000000,67993.93000000,67926.40000000,67959.13000000,59.14555000
1771749900000,67959.12000000,67988.58000000,67946.11000000,67950.10000000,47.74929000
1771750800000,67950.11000000,68043.04000000,67948.74000000,68043.03000000,55.84515000
1771751700000,68043.03000000,68054.82000000,68014.22000000,68024.11000000,33.74272000
1771752600000,68024.11000000,68053.14000000,67988.85000000,68050.56000000,34.74015000
1771753500000,68050.57000000,68101.46000000,68050.57000000,68053.32000000,48.73701000
1771754400000,68053.33000000,68053.33000000,68012.78000000,68045.41000000,29.36674000
1771755300000,68045.42000000,68126.40000000,68030.02000000,68090.44000000,65.34428000
1771756200000,68090.43000000,68138.00000000,68078.03000000,68099.36000000,72.90700000
1771757100000,68099.37000000,68153.20000000,68096.67000000,68129.56000000,37.30841000
1771758000000,68129.57000000,68243.44000000,68129.56000000,68207.60000000,72.75073000
1771758900000,68207.61000000,68245.00000000,68200.00000000,68231.00000000,36.44575000
1771759800000,68230.99000000,68238.13000000,68157.74000000,68186.45000000,33.47703000
1771760700000,68186.46000000,68219.98000000,68186.45000000,68219.97000000,28.81550000
1771761600000,68219.97000000,68232.40000000,67977.96000000,68012.16000000,131.14341000
1771762500000,68012.17000000,68086.00000000,67980.30000000,68077.15000000,48.93773000
1771763400000,68077.15000000,68077.16000000,67892.40000000,67892.40000000,123.08558000
1771764300000,67892.41000000,67980.00000000,67871.59000000,67928.22000000,69.26144000
1771765200000,67928.23000000,68013.50000000,67928.23000000,67988.56000000,54.84757000
1771766100000,67988.56000000,68040.80000000,67923.78000000,67930.51000000,51.78669000
1771767000000,67930.52000000,67973.85000000,67571.08000000,67633.61000000,372.69979000
1771767900000,67633.62000000,67712.33000000,67593.38000000,67652.38000000,200.26063000
1771768800000,67652.38000000,67671.28000000,67468.24000000,67650.31000000,174.33408000
1771769700000,67650.32000000,67680.00000000,67573.48000000,67626.45000000,86.24391000
1771770600000,67626.45000000,67682.47000000,67398.23000000,67440.00000000,200.96313000
1771771500000,67440.01000000,67571.27000000,67353.75000000,67443.89000000,364.02965000
1771772400000,67443.89000000,67486.76000000,67303.50000000,67413.99000000,186.43112000
1771773300000,67414.00000000,67609.00000000,67341.80000000,67599.03000000,136.90391000
1771774200000,67599.03000000,67813.20000000,67540.34000000,67777.51000000,258.09365000
1771775100000,67777.52000000,67810.96000000,67669.91000000,67684.14000000,72.21102000
1771776000000,67684.15000000,67718.13000000,67572.39000000,67581.60000000,86.74336000
1771776900000,67581.60000000,67631.96000000,67534.99000000,67535.74000000,88.74429000
1771777800000,67535.74000000,67575.86000000,67513.83000000,67569.39000000,49.94996000
1771778700000,67569.40000000,67652.00000000,67566.20000000,67632.76000000,73.83959000
1771779600000,67632.76000000,67635.22000000,67530.67000000,67571.29000000,78.72571000
1771780500000,67571.30000000,67576.04000000,67496.26000000,67496.27000000,71.03417000
1771781400000,67496.26000000,67538.85000000,67190.00000000,67260.75000000,409.26274000
1771782300000,67260.75000000,67401.59000000,67260.75000000,67384.49000000,132.07920000
1771783200000,67384.48000000,67426.29000000,67331.26000000,67403.06000000,127.42071000
1771784100000,67403.05000000,67461.41000000,67329.36000000,67340.58000000,74.96617000
1771785000000,67340.58000000,67387.06000000,67313.54000000,67376.13000000,71.99805000
1771785900000,67376.13000000,67451.24000000,67376.13000000,67422.62000000,88.14212000
1771786800000,67422.63000000,67484.00000000,67403.37000000,67411.89000000,57.55203000
1771787700000,67411.89000000,67463.39000000,67410.00000000,67433.58000000,47.42919000
1771788600000,67433.58000000,67488.70000000,67414.45000000,67484.41000000,62.28623000
1771789500000,67484.40000000,67484.40000000,67414.00000000,67428.32000000,55.48852000
1771790400000,67428.32000000,67458.76000000,67366.83000000,67385.78000000,57.03342000
1771791300000,67385.77000000,67491.96000000,67385.77000000,67450.55000000,50.85978000
1771792200000,67450.55000000,67453.22000000,67397.20000000,67414.14000000,69.30649000
1771793100000,67414.15000000,67486.68000000,67350.00000000,67401.74000000,95.30395000
1771794000000,67401.74000000,67480.70000000,67401.74000000,67447.92000000,55.99478000
1771794900000,67447.93000000,67513.60000000,67447.92000000,67458.45000000,50.62965000
1771795800000,67458.45000000,67617.25000000,67458.44000000,67591.14000000,79.05256000
1771796700000,67591.14000000,67643.94000000,67585.50000000,67612.66000000,50.18617000
1771797600000,67612.66000000,67616.98000000,67485.34000000,67510.40000000,88.62144000
1771798500000,67510.40000000,67691.14000000,67510.40000000,67594.09000000,85.98689000
1771799400000,67594.10000000,67710.80000000,67542.11000000,67679.27000000,100.00052000
1771800300000,67679.27000000,67751.44000000,67656.00000000,67666.16000000,95.05493000
1771801200000,67666.16000000,67726.19000000,67482.42000000,67497.03000000,118.80643000
1771802100000,67497.03000000,67616.28000000,67469.58000000,67606.64000000,134.06644000
1771803000000,67606.65000000,67606.65000000,67489.04000000,67508.55000000,73.32682000
1771803900000,67508.55000000,67730.98000000,67495.66000000,67643.40000000,92.59383000
1771804800000,67643.39000000,67684.86000000,67599.61000000,67627.55000000,66.70824000
1771805700000,67627.55000000,67630.49000000,67400.00000000,67474.01000000,126.51792000
1771806600000,67474.00000000,67474.00000000,67168.33000000,67180.25000000,159.80232000
1771807500000,67180.24000000,67180.25000000,66715.01000000,66740.47000000,412.19843000
1771808400000,66740.47000000,66740.47000000,65264.16000000,65481.74000000,2549.80869000
1771809300000,65481.74000000,65510.00000000,65000.00000000,65050.00000000,1491.06632000
1771810200000,65050.00000000,65409.62000000,65006.11000000,65123.14000000,773.80503000
1771811100000,65123.14000000,65171.00000000,64290.71000000,64427.65000000,2509.38204000
1771812000000,64427.64000000,64797.59000000,64325.98000000,64762.87000000,675.11760000
1771812900000,64762.87000000,64811.58000000,64524.72000000,64759.75000000,419.83721000
1771813800000,64759.75000000,64916.85000000,64685.93000000,64844.68000000,401.47421000
1771814700000,64844.68000000,64890.70000000,64710.00000000,64783.56000000,346.82788000
1771815600000,64783.56000000,65079.79000000,64773.31000000,64939.65000000,349.57153000
1771816500000,64939.65000000,64939.65000000,64700.00000000,64769.26000000,279.55932000
1771817400000,64769.26000000,65016.76000000,64721.68000000,65016.75000000,280.76071000
1771818300000,65016.75000000,65016.76000000,64909.76000000,64934.17000000,180.22755000
1771819200000,64934.18000000,65040.29000000,64828.62000000,65023.03000000,263.76164000
1771820100000,65023.03000000,65023.03000000,64719.98000000,64778.13000000,180.14510000
1771821000000,64778.14000000,64823.81000000,64685.64000000,64728.73000000,176.90826000
1771821900000,64728.72000000,64830.80000000,64710.00000000,64808.31000000,172.04638000
1771822800000,64808.31000000,65194.51000000,64796.85000000,65096.27000000,344.34908000
1771823700000,65096.26000000,65294.80000000,64862.50000000,65044.73000000,468.48241000
1771824600000,65044.73000000,65164.38000000,65015.12000000,65024.69000000,264.11672000
1771825500000,65024.69000000,65086.06000000,64956.36000000,65070.90000000,138.24119000
1771826400000,65070.90000000,65381.90000000,65033.90000000,65363.79000000,272.87906000
1771827300000,65363.78000000,65456.55000000,65309.74000000,65310.00000000,255.26146000
1771828200000,65310.00000000,65677.50000000,65283.80000000,65533.40000000,308.62059000
1771829100000,65533.41000000,65802.09000000,65524.79000000,65757.32000000,248.32035000
1771830000000,65757.33000000,65899.99000000,65697.50000000,65785.56000000,232.73677000
1771830900000,65785.57000000,65833.81000000,65641.55000000,65689.65000000,222.40343000
1771831800000,65689.65000000,66015.22000000,65683.71000000,65949.06000000,309.37217000
1771832700000,65949.07000000,65991.46000000,65892.13000000,65958.94000000,262.18266000
1771833600000,65958.94000000,65958.94000000,65700.00000000,65845.72000000,356.61855000
1771834500000,65845.71000000,65873.17000000,65593.12000000,65682.68000000,230.47283000
1771835400000,65682.69000000,65736.41000000,65579.71000000,65618.09000000,173.63336000
1771836300000,65618.10000000,65696.94000000,65565.78000000,65676.44000000,134.82222000
1771837200000,65676.44000000,65831.04000000,65672.76000000,65816.87000000,185.37186000
1771838100000,65816.87000000,65874.60000000,65711.07000000,65844.09000000,152.12122000
1771839000000,65844.09000000,66335.85000000,65823.01000000,66275.84000000,404.08986000
1771839900000,66275.84000000,66456.50000000,66244.18000000,66404.91000000,233.37737000
1771840800000,66404.92000000,66600.00000000,66296.17000000,66317.40000000,333.49047000
1771841700000,66317.39000000,66511.51000000,66269.72000000,66363.25000000,169.66918000
1771842600000,66363.25000000,66382.95000000,66220.00000000,66342.62000000,163.35451000
1771843500000,66342.63000000,66410.00000000,66244.17000000,66319.69000000,122.52784000
1771844400000,66319.69000000,66386.27000000,66249.44000000,66367.07000000,98.84931000
1771845300000,66367.08000000,66487.37000000,66305.38000000,66325.30000000,127.44314000
1771846200000,66325.31000000,66325.31000000,66114.30000000,66128.00000000,161.60298000
1771847100000,66127.99000000,66221.44000000,66114.22000000,66207.23000000,146.55622000
1771848000000,66207.23000000,66261.47000000,66162.57000000,66220.81000000,96.77124000
1771848900000,66220.81000000,66240.60000000,66025.04000000,66138.83000000,155.79404000
1771849800000,66138.82000000,66495.81000000,65886.51000000,66419.33000000,344.54327000
1771850700000,66419.33000000,66511.51000000,66228.01000000,66280.40000000,156.96832000
1771851600000,66280.40000000,66387.11000000,66211.87000000,66220.51000000,213.46859000
1771852500000,66220.51000000,66259.50000000,66124.34000000,66226.66000000,216.84017000
1771853400000,66226.65000000,66430.52000000,66142.07000000,66353.16000000,201.90328000
1771854300000,66353.15000000,66370.06000000,66103.35000000,66132.66000000,175.20150000
1771855200000,66132.65000000,66264.95000000,66121.08000000,66243.40000000,124.04916000
1771856100000,66243.40000000,66252.37000000,66049.54000000,66086.27000000,106.45952000
1771857000000,66086.26000000,66224.59000000,65529.73000000,65832.41000000,447.27685000
1771857900000,65832.42000000,66115.16000000,65616.06000000,65923.53000000,293.96061000
1771858800000,65923.52000000,66091.10000000,65700.01000000,65958.25000000,287.06491000
1771859700000,65958.26000000,66250.00000000,65750.00000000,65806.54000000,382.87293000
1771860600000,65806.54000000,65936.00000000,65709.62000000,65794.14000000,251.24037000
1771861500000,65794.14000000,65919.29000000,65579.53000000,65660.10000000,341.92533000
1771862400000,65660.10000000,65689.99000000,65178.83000000,65225.99000000,525.57343000
1771863300000,65226.00000000,65672.26000000,65225.99000000,65633.14000000,434.65572000
1771864200000,65633.13000000,65724.28000000,65450.33000000,65572.57000000,287.35217000
1771865100000,65572.56000000,65603.17000000,65301.89000000,65364.65000000,254.88251000
1771866000000,65364.66000000,65451.01000000,65043.51000000,65081.03000000,371.97197000
1771866900000,65081.07000000,65180.31000000,64571.58000000,64579.25000000,767.70561000
1771867800000,64577.76000000,64688.55000000,64333.38000000,64467.13000000,682.66356000
1771868700000,64467.13000000,64813.62000000,64152.04000000,64813.26000000,702.44826000
1771869600000,64813.27000000,64865.67000000,64621.65000000,64781.97000000,277.91597000
1771870500000,64781.98000000,64913.38000000,64602.90000000,64818.83000000,225.22266000
1771871400000,64818.84000000,65194.51000000,64735.00000000,64891.99000000,252.57111000
1771872300000,64891.99000000,64891.99000000,64586.00000000,64635.49000000,238.97959000
1771873200000,64635.49000000,64855.18000000,64603.34000000,64698.00000000,151.66805000
1771874100000,64698.00000000,64709.07000000,64354.27000000,64463.84000000,332.77485000
1771875000000,64463.84000000,64545.55000000,64048.71000000,64213.24000000,1357.73344000
1771875900000,64213.24000000,64358.54000000,64098.64000000,64295.10000000,315.82687000
1771876800000,64295.11000000,64376.86000000,63915.82000000,63961.55000000,429.30186000
1771877700000,63961.56000000,64174.86000000,63888.79000000,64004.36000000,503.48641000
1771878600000,64004.35000000,64323.42000000,63989.85000000,64269.42000000,167.10092000
1771879500000,64269.42000000,64487.94000000,64238.05000000,64473.14000000,213.32536000
1771880400000,64473.14000000,64704.36000000,64459.44000000,64599.99000000,235.46139000
1771881300000,64600.00000000,64646.85000000,64510.74000000,64558.27000000,106.61901000
1771882200000,64558.27000000,64783.54000000,64530.83000000,64649.68000000,142.85172000
1771883100000,64649.67000000,64723.13000000,64555.16000000,64580.66000000,108.31473000
1771884000000,64580.66000000,65004.09000000,64555.59000000,64968.59000000,822.20770000
1771884900000,64968.59000000,65035.98000000,64850.09000000,64941.99000000,327.23651000
1771885800000,64942.00000000,64942.00000000,64758.72000000,64794.50000000,184.38341000
1771886700000,64794.49000000,64878.00000000,64639.97000000,64725.56000000,118.02903000
1771887600000,64725.56000000,64900.63000000,64702.53000000,64860.22000000,96.46392000
1771888500000,64860.23000000,64895.19000000,64780.23000000,64839.94000000,62.36422000
1771889400000,64839.93000000,64879.88000000,64612.88000000,64621.91000000,71.53122000
1771890300000,64621.95000000,64683.77000000,64538.90000000,64656.02000000,174.45277000
1771891200000,64656.01000000,64895.02000000,64656.01000000,64895.02000000,101.96620000
1771892100000,64895.01000000,65026.75000000,64803.42000000,64858.78000000,153.33086000
1771893000000,64858.77000000,64986.68000000,64826.60000000,64918.95000000,102.05144000
1771893900000,64918.94000000,64999.76000000,64874.99000000,64941.43000000,80.25147000
1771894800000,64941.42000000,64941.42000000,64240.49000000,64324.95000000,349.43723000
1771895700000,64324.95000000,64535.09000000,63433.84000000,64432.90000000,1390.44722000
1771896600000,64432.89000000,64614.50000000,64068.34000000,64334.00000000,445.87377000
1771897500000,64334.01000000,64406.45000000,64067.41000000,64160.27000000,217.00105000
1771898400000,64160.26000000,64322.70000000,64000.00000000,64245.23000000,199.59822000
1771899300000,64245.24000000,64317.25000000,64023.11000000,64313.72000000,138.14920000
1771900200000,64313.73000000,64500.00000000,64115.29000000,64132.43000000,152.87463000
1771901100000,64132.42000000,64180.88000000,64078.59000000,64109.81000000,109.01322000
1771902000000,64109.80000000,64109.80000000,63558.15000000,63685.23000000,500.40398000
1771902900000,63685.23000000,63853.00000000,63576.74000000,63705.78000000,233.80621000
1771903800000,63705.79000000,63789.38000000,63639.34000000,63672.47000000,174.28979000
1771904700000,63672.47000000,63689.81000000,63342.90000000,63595.51000000,404.26933000
1771905600000,63595.51000000,63628.52000000,63000.00000000,63012.06000000,617.46395000
1771906500000,63012.06000000,63394.15000000,62868.69000000,63220.71000000,853.97108000
1771907400000,63220.71000000,63367.81000000,62986.16000000,63338.78000000,270.33845000
1771908300000,63338.78000000,63394.16000000,63239.75000000,63378.84000000,355.13702000
1771909200000,63378.84000000,63551.58000000,63280.00000000,63497.07000000,205.37288000
1771910100000,63497.06000000,63497.07000000,62700.80000000,62820.77000000,510.57008000
1771911000000,62820.77000000,63084.56000000,62728.04000000,62989.98000000,306.28975000
1771911900000,62989.99000000,63105.84000000,62952.68000000,63104.79000000,251.83766000
1771912800000,63104.79000000,63229.34000000,62900.00000000,63145.35000000,189.83012000
1771913700000,63145.36000000,63316.64000000,63109.94000000,63211.11000000,174.96643000
1771914600000,63211.11000000,63322.28000000,63170.00000000,63260.01000000,109.12325000
1771915500000,63260.01000000,63260.01000000,62919.50000000,63082.79000000,204.02788000
1771916400000,63082.79000000,63367.20000000,62866.42000000,63327.48000000,298.24435000
1771917300000,63327.48000000,63346.30000000,63155.57000000,63274.86000000,159.69324000
1771918200000,63274.87000000,63300.00000000,63087.85000000,63096.48000000,242.64085000
1771919100000,63096.47000000,63200.00000000,63005.31000000,63192.96000000,190.38281000
1771920000000,63192.79000000,63274.65000000,63009.92000000,63218.67000000,211.72998000
1771920900000,63218.66000000,63323.34000000,63087.19000000,63298.21000000,160.97766000
1771921800000,63298.21000000,63425.94000000,63267.48000000,63381.79000000,157.30548000
1771922700000,63381.79000000,63444.66000000,63345.22000000,63392.15000000,139.13344000
1771923600000,63392.15000000,63411.80000000,63212.29000000,63285.29000000,159.70402000
1771924500000,63285.29000000,63300.00000000,63100.00000000,63144.83000000,133.95882000
1771925400000,63144.83000000,63200.00000000,62908.92000000,63150.18000000,246.96668000
1771926300000,63150.18000000,63257.59000000,63050.39000000,63249.99000000,116.54114000
1771927200000,63250.00000000,63282.86000000,63112.70000000,63219.31000000,147.96890000
1771928100000,63219.31000000,63307.84000000,63156.24000000,63269.99000000,82.27170000
1771929000000,63269.99000000,63300.00000000,63150.00000000,63205.91000000,129.81515000
1771929900000,63205.92000000,63369.71000000,63165.49000000,63284.50000000,87.13636000
1771930800000,63284.51000000,63317.95000000,63183.42000000,63197.35000000,80.43146000
1771931700000,63197.35000000,63237.32000000,63147.06000000,63170.01000000,101.45785000
1771932600000,63170.01000000,63250.00000000,63063.63000000,63201.35000000,174.05697000
1771933500000,63201.34000000,63240.00000000,63150.03000000,63227.10000000,105.13754000
1771934400000,63227.11000000,63306.92000000,63101.70000000,63264.40000000,130.36658000
1771935300000,63264.39000000,63343.59000000,63222.89000000,63324.02000000,88.62969000
1771936200000,63324.03000000,63340.48000000,63080.40000000,63113.58000000,166.83380000
1771937100000,63113.58000000,63135.81000000,62965.21000000,62969.05000000,256.32845000
1771938000000,62969.04000000,63097.65000000,62910.57000000,63079.86000000,254.01049000
1771938900000,63079.86000000,63100.00000000,62851.63000000,62920.29000000,274.83778000
1771939800000,62920.30000000,63091.57000000,62510.28000000,62931.54000000,1630.81889000
1771940700000,62931.54000000,63030.02000000,62890.39000000,62900.00000000,202.53232000
1771941600000,62900.01000000,63016.00000000,62762.03000000,62944.02000000,234.32359000
1771942500000,62944.03000000,63029.07000000,62800.70000000,63000.89000000,154.34074000
1771943400000,63000.89000000,63463.83000000,62767.30000000,63336.41000000,537.82226000
1771944300000,63336.40000000,63834.21000000,63267.14000000,63453.99000000,481.70296000
1771945200000,63454.00000000,63661.00000000,63300.00000000,63585.00000000,281.45654000
1771946100000,63581.94000000,63970.05000000,63550.06000000,63928.22000000,396.02354000
1771947000000,63928.21000000,63983.72000000,63666.22000000,63748.29000000,241.77146000
1771947900000,63748.28000000,64031.76000000,63720.41000000,63973.97000000,207.85534000
1771948800000,63973.98000000,64428.90000000,63956.62000000,64163.30000000,692.90147000
1771949700000,64163.30000000,64219.38000000,63882.75000000,63956.21000000,242.86809000
1771950600000,63956.21000000,64132.15000000,63689.54000000,64043.02000000,285.53605000
1771951500000,64043.03000000,64300.00000000,63814.53000000,64265.52000000,201.90412000
1771952400000,64265.53000000,64520.00000000,64166.17000000,64412.00000000,359.74568000
1771953300000,64412.00000000,64412.00000000,64109.94000000,64147.96000000,361.74243000
1771954200000,64147.96000000,64264.55000000,64099.74000000,64099.75000000,96.22308000
1771955100000,64099.75000000,64264.37000000,64042.80000000,64219.71000000,199.61386000
1771956000000,64219.70000000,64414.88000000,63872.72000000,63970.62000000,309.11887000
1771956900000,63970.63000000,64348.91000000,63931.59000000,64292.00000000,159.52238000
1771957800000,64292.01000000,64498.18000000,64287.44000000,64370.98000000,156.09965000
1771958700000,64370.97000000,64500.00000000,64364.70000000,64435.06000000,185.15228000
1771959600000,64435.05000000,64743.11000000,64259.10000000,64310.66000000,360.40810000
1771960500000,64310.66000000,64426.79000000,64250.52000000,64312.96000000,118.94033000
1771961400000,64312.96000000,64518.96000000,64303.75000000,64472.18000000,138.95585000
1771962300000,64472.18000000,64488.58000000,64387.31000000,64435.03000000,103.99035000
1771963200000,64435.03000000,64481.76000000,64318.03000000,64397.43000000,101.49585000
1771964100000,64397.43000000,64508.61000000,64397.43000000,64473.95000000,89.46982000
1771965000000,64473.96000000,64591.99000000,64392.82000000,64499.99000000,105.75054000
1771965900000,64499.99000000,64520.69000000,64388.80000000,64472.90000000,112.50823000
1771966800000,64472.90000000,64472.90000000,64134.97000000,64241.10000000,195.96124000
1771967700000,64241.09000000,64241.10000000,63820.50000000,63916.22000000,196.76875000
1771968600000,63916.22000000,64070.22000000,63871.79000000,64015.28000000,100.53349000
1771969500000,64015.28000000,64086.29000000,63993.60000000,64042.66000000,83.14564000
1771970400000,64042.66000000,64227.81000000,63973.79000000,64219.60000000,105.00516000
1771971300000,64219.60000000,64219.70000000,64086.24000000,64145.11000000,51.16498000
1771972200000,64145.11000000,64187.23000000,64073.93000000,64090.44000000,66.98984000
1771973100000,64090.44000000,64145.52000000,63984.32000000,64120.95000000,65.00184000
1771974000000,64120.96000000,64148.70000000,63853.99000000,64071.98000000,173.68681000
1771974900000,64071.97000000,64220.04000000,64067.55000000,64185.01000000,101.53435000
1771975800000,64185.01000000,64248.65000000,64128.29000000,64142.19000000,57.90066000
1771976700000,64142.19000000,64142.19000000,64027.00000000,64058.15000000,56.29523000
1771977600000,64058.15000000,64080.81000000,63913.27000000,63919.23000000,56.57361000
1771978500000,63919.22000000,64061.34000000,63918.26000000,63959.99000000,61.23366000
1771979400000,63960.00000000,64271.42000000,63960.00000000,64257.60000000,75.60152000
1771980300000,64257.59000000,64319.29000000,64139.19000000,64224.30000000,98.97158000
1771981200000,64224.29000000,65940.92000000,64145.20000000,65606.34000000,1083.87647000
1771982100000,65606.34000000,66300.00000000,65423.53000000,65944.66000000,967.94544000
1771983000000,65944.67000000,66271.99000000,65769.46000000,65813.69000000,498.11719000
1771983900000,65813.68000000,66057.14000000,65784.10000000,65896.75000000,290.14146000
1771984800000,65896.74000000,66310.00000000,65890.62000000,66229.81000000,676.96241000
1771985700000,66229.81000000,66257.40000000,66036.58000000,66113.25000000,216.54153000
1771986600000,66113.24000000,66173.73000000,65883.01000000,65933.96000000,161.27210000
1771987500000,65933.96000000,66025.93000000,65866.66000000,65884.83000000,198.13998000
1771988400000,65884.84000000,65955.87000000,65807.35000000,65834.99000000,152.93683000
1771989300000,65834.99000000,65848.61000000,65493.80000000,65586.17000000,283.38366000
1771990200000,65586.17000000,65636.61000000,65371.99000000,65459.61000000,210.34669000
1771991100000,65459.62000000,65553.28000000,65350.28000000,65391.73000000,155.12800000
1771992000000,65391.74000000,65533.82000000,65116.65000000,65439.57000000,289.31100000
1771992900000,65439.56000000,65622.91000000,65349.37000000,65589.68000000,194.80301000
1771993800000,65589.68000000,65650.00000000,65536.58000000,65638.65000000,132.95104000
1771994700000,65638.66000000,65638.66000000,65412.00000000,65457.99000000,106.43212000
1771995600000,65458.00000000,65511.21000000,65311.20000000,65339.80000000,107.63133000
1771996500000,65339.81000000,65381.08000000,65157.94000000,65197.50000000,159.80646000
1771997400000,65197.50000000,65239.72000000,64755.26000000,64839.45000000,406.52815000
1771998300000,64839.45000000,64993.60000000,64769.69000000,64882.76000000,157.64749000
1771999200000,64882.77000000,65024.57000000,64882.29000000,64989.10000000,110.59028000
1772000100000,64989.10000000,65124.04000000,64908.20000000,65027.52000000,84.40495000
1772001000000,65027.52000000,65118.92000000,64982.50000000,65093.50000000,75.54170000
1772001900000,65093.50000000,65094.73000000,64865.78000000,64898.22000000,124.23269000
1772002800000,64898.22000000,65080.39000000,64781.18000000,65027.36000000,88.66070000
1772003700000,65027.35000000,65193.25000000,65002.74000000,65116.59000000,168.67317000
1772004600000,65116.59000000,65189.87000000,64876.91000000,64944.66000000,207.55569000
1772005500000,64944.66000000,65045.57000000,64930.28000000,65028.30000000,217.70055000
1772006400000,65028.30000000,65090.34000000,64955.79000000,65032.95000000,135.31113000
1772007300000,65032.95000000,65247.10000000,65011.99000000,65192.31000000,127.27675000
1772008200000,65192.32000000,65464.20000000,65188.89000000,65420.85000000,212.43458000
1772009100000,65420.85000000,65586.87000000,65375.40000000,65530.49000000,219.34143000
1772010000000,65530.48000000,65692.62000000,65454.43000000,65552.00000000,223.00552000
1772010900000,65552.00000000,65641.12000000,65511.45000000,65570.10000000,141.69987000
1772011800000,65570.09000000,65570.10000000,65396.47000000,65467.38000000,100.35865000
1772012700000,65467.39000000,65579.67000000,65455.84000000,65558.71000000,80.74428000
1772013600000,65558.71000000,65612.49000000,65473.02000000,65568.58000000,75.39097000
1772014500000,65568.57000000,65648.74000000,65362.25000000,65368.19000000,95.59820000
1772015400000,65368.19000000,65425.00000000,65345.00000000,65423.96000000,54.87021000
1772016300000,65423.96000000,65512.50000000,65361.83000000,65400.87000000,89.26615000
1772017200000,65400.87000000,65401.47000000,65200.80000000,65244.63000000,126.19576000
1772018100000,65244.64000000,65400.00000000,65204.00000000,65362.21000000,96.27349000
1772019000000,65362.20000000,65485.91000000,65331.99000000,65433.81000000,123.75137000
1772019900000,65433.81000000,65459.97000000,65375.14000000,65430.04000000,96.37948000
1772020800000,65430.04000000,65531.01000000,65324.62000000,65498.32000000,144.57665000
1772021700000,65498.33000000,65929.94000000,65490.13000000,65780.60000000,340.10294000
1772022600000,65780.60000000,65887.87000000,65749.10000000,65842.02000000,198.63298000
1772023500000,65842.02000000,66240.00000000,65820.01000000,66068.94000000,633.40559000
1772024400000,66068.94000000,66300.00000000,66033.21000000,66050.01000000,452.82069000
1772025300000,66050.01000000,66250.00000000,66025.39000000,66179.44000000,280.55153000
1772026200000,66179.44000000,66416.69000000,66142.70000000,66315.81000000,299.27363000
1772027100000,66315.81000000,66684.10000000,66219.36000000,66248.62000000,827.39702000
1772028000000,66248.63000000,66499.79000000,66207.72000000,66482.86000000,321.57639000
1772028900000,66482.86000000,66628.21000000,66436.67000000,66579.46000000,286.00879000
1772029800000,66579.20000000,66779.64000000,66202.66000000,66259.02000000,795.05952000
1772030700000,66259.02000000,67009.78000000,66253.20000000,66973.20000000,777.52314000
1772031600000,66973.19000000,67249.20000000,66765.47000000,66844.44000000,623.91251000
1772032500000,66844.45000000,67071.91000000,66715.13000000,67071.05000000,519.76152000
1772033400000,67071.06000000,67550.83000000,66966.84000000,67515.29000000,726.07324000
1772034300000,67515.30000000,67578.00000000,67218.71000000,67412.33000000,653.16105000
1772035200000,67412.32000000,67788.52000000,67404.00000000,67601.23000000,481.88619000
1772036100000,67601.24000000,68100.01000000,67575.01000000,67872.16000000,815.17234000
1772037000000,67872.17000000,68000.00000000,67823.52000000,67954.52000000,290.41419000
1772037900000,67954.53000000,68332.00000000,67954.52000000,68297.35000000,471.95661000
1772038800000,68297.35000000,68647.23000000,68016.53000000,68512.40000000,855.87451000
1772039700000,68512.39000000,68686.86000000,68275.62000000,68565.44000000,470.70027000
1772040600000,68565.44000000,68770.00000000,68400.89000000,68770.00000000,550.99398000
1772041500000,68770.00000000,68879.96000000,68600.00000000,68674.20000000,585.61790000
1772042400000,68674.20000000,68918.79000000,68373.33000000,68871.08000000,419.40543000
1772043300000,68871.09000000,69500.00000000,68708.35000000,69348.39000000,772.35968000
1772044200000,69348.39000000,69550.00000000,69203.49000000,69478.55000000,483.69138000
1772045100000,69478.55000000,69509.26000000,69262.70000000,69328.07000000,429.55124000
1772046000000,69328.06000000,69406.93000000,68764.94000000,68915.55000000,865.41042000
1772046900000,68915.55000000,69153.28000000,68854.45000000,68972.90000000,361.16227000
1772047800000,68972.90000000,69004.56000000,68779.60000000,68896.61000000,295.59371000
1772048700000,68896.62000000,69093.34000000,68850.08000000,69038.26000000,150.67322000
1772049600000,69038.26000000,69091.40000000,68619.22000000,68644.69000000,290.75600000
1772050500000,68644.68000000,68873.18000000,68640.76000000,68802.37000000,180.96159000
1772051400000,68802.38000000,69200.00000000,68775.76000000,69124.96000000,276.91968000
1772052300000,69124.96000000,69374.95000000,69100.01000000,69148.69000000,328.29276000
1772053200000,69148.69000000,69226.28000000,68940.00000000,68990.91000000,170.81181000
1772054100000,68990.92000000,69069.50000000,68800.00000000,68803.70000000,149.89128000
1772055000000,68803.71000000,69988.83000000,68773.83000000,69221.59000000,916.38811000
1772055900000,69221.59000000,69221.59000000,68812.40000000,68919.72000000,325.02830000
1772056800000,68919.72000000,69176.00000000,68886.99000000,69074.88000000,151.84201000
1772057700000,69074.88000000,69089.25000000,68830.01000000,68878.86000000,123.46817000
1772058600000,68878.87000000,68905.97000000,68268.53000000,68420.42000000,522.57564000
1772059500000,68420.42000000,68529.83000000,68055.91000000,68432.13000000,294.99849000
1772060400000,68432.13000000,68696.97000000,68212.52000000,68517.64000000,240.50348000
1772061300000,68517.64000000,68522.00000000,68262.83000000,68277.25000000,133.66587000
1772062200000,68277.24000000,68294.02000000,67600.00000000,67695.86000000,397.66262000
1772063100000,67695.87000000,68000.00000000,67642.39000000,67988.04000000,248.38595000
1772064000000,67988.04000000,68172.00000000,67727.52000000,68153.57000000,331.99165000
1772064900000,68153.58000000,68445.82000000,68119.70000000,68280.80000000,289.06987000
1772065800000,68280.79000000,68539.17000000,67974.51000000,68195.93000000,349.76130000
1772066700000,68195.93000000,68373.25000000,68119.04000000,68335.99000000,163.74560000
1772067600000,68335.99000000,68700.00000000,68210.35000000,68568.51000000,267.51805000
1772068500000,68568.50000000,68593.91000000,68370.23000000,68390.41000000,106.34404000
1772069400000,68390.41000000,68551.99000000,68221.44000000,68347.47000000,135.03695000
1772070300000,68347.47000000,68393.20000000,68224.60000000,68248.30000000,110.29131000
1772071200000,68248.30000000,68267.10000000,67779.93000000,67863.22000000,411.82375000
1772072100000,67863.23000000,68152.15000000,67863.22000000,67936.40000000,156.45883000
1772073000000,67936.41000000,68201.35000000,67936.41000000,68184.94000000,138.64922000
1772073900000,68184.94000000,68351.00000000,68105.65000000,68257.45000000,126.26230000
1772074800000,68257.46000000,68379.59000000,68046.38000000,68145.89000000,163.81709000
1772075700000,68145.89000000,68186.54000000,68072.39000000,68102.57000000,82.47484000
1772076600000,68102.57000000,68279.75000000,68044.18000000,68239.36000000,99.23363000
1772077500000,68239.37000000,68316.16000000,68182.40000000,68216.86000000,62.99187000
1772078400000,68216.87000000,68613.69000000,68179.62000000,68526.27000000,176.56337000
1772079300000,68526.27000000,68693.42000000,68424.76000000,68562.56000000,136.27460000
1772080200000,68562.55000000,68860.00000000,68552.12000000,68728.89000000,175.19436000
1772081100000,68728.89000000,68745.38000000,68570.57000000,68571.36000000,99.52641000
1772082000000,68571.36000000,68571.37000000,68231.31000000,68301.57000000,128.32136000
1772082900000,68301.56000000,68412.48000000,68127.58000000,68357.86000000,181.22615000
1772083800000,68357.86000000,68447.40000000,68261.72000000,68414.34000000,80.28250000
1772084700000,68414.35000000,68509.57000000,68348.85000000,68443.81000000,96.98982000
1772085600000,68443.82000000,68522.00000000,68282.70000000,68459.95000000,139.20252000
1772086500000,68459.96000000,68459.96000000,68250.01000000,68255.65000000,214.52335000
1772087400000,68255.65000000,68260.20000000,68122.54000000,68127.56000000,146.24808000
1772088300000,68127.56000000,68226.98000000,68042.90000000,68176.75000000,118.65964000
1772089200000,68176.75000000,68264.70000000,68167.91000000,68229.23000000,107.68225000
1772090100000,68229.22000000,68290.18000000,68103.30000000,68177.70000000,97.68789000
1772091000000,68177.69000000,68194.11000000,67994.81000000,67999.85000000,308.16041000
1772091900000,67999.85000000,68018.93000000,67817.87000000,67825.04000000,326.61351000
1772092800000,67825.05000000,68049.72000000,67792.00000000,68048.93000000,155.24777000
1772093700000,68048.93000000,68236.00000000,67965.70000000,68029.71000000,173.46396000
1772094600000,68029.72000000,68144.27000000,67927.74000000,67990.00000000,206.29937000
1772095500000,67990.00000000,68116.70000000,67904.00000000,67954.01000000,226.67998000
1772096400000,67954.00000000,68418.51000000,67933.25000000,68325.83000000,290.78052000
1772097300000,68325.83000000,68328.13000000,68159.12000000,68188.52000000,123.51204000
1772098200000,68188.52000000,68471.89000000,68150.00000000,68400.03000000,218.76908000
1772099100000,68400.04000000,68644.59000000,68400.03000000,68589.41000000,462.25455000
1772100000000,68589.41000000,68722.64000000,68500.00000000,68514.86000000,241.91584000
1772100900000,68514.85000000,68542.17000000,68332.27000000,68332.28000000,232.33770000
1772101800000,68332.27000000,68464.49000000,68270.96000000,68440.00000000,125.07367000
1772102700000,68439.99000000,68450.40000000,68257.64000000,68301.62000000,89.33351000
1772103600000,68301.61000000,68404.25000000,68261.10000000,68347.55000000,142.90431000
1772104500000,68347.55000000,68352.19000000,68144.15000000,68158.58000000,160.93932000
1772105400000,68158.59000000,68230.70000000,68071.68000000,68084.73000000,187.97669000
1772106300000,68084.72000000,68100.39000000,67965.46000000,68051.31000000,231.12899000
1772107200000,68051.30000000,68238.39000000,68027.85000000,68202.45000000,144.71435000
1772108100000,68202.45000000,68303.83000000,68139.42000000,68150.46000000,178.36254000
1772109000000,68150.45000000,68290.17000000,68082.32000000,68082.32000000,143.28963000
1772109900000,68082.33000000,68232.20000000,68009.88000000,68171.56000000,175.71229000
1772110800000,68171.55000000,68213.98000000,67994.43000000,68032.95000000,128.25476000
1772111700000,68032.95000000,68166.10000000,67923.34000000,68158.51000000,162.51058000
1772112600000,68158.51000000,68193.71000000,67972.74000000,68081.66000000,148.02757000
1772113500000,68081.65000000,68195.52000000,67848.69000000,67905.35000000,260.17492000
1772114400000,67905.34000000,68034.46000000,67650.82000000,67987.84000000,366.54696000
1772115300000,67987.83000000,68151.78000000,67817.20000000,68116.00000000,161.35704000
1772116200000,68116.00000000,68272.21000000,67738.43000000,67799.74000000,547.01684000
1772117100000,67799.59000000,67826.62000000,67264.22000000,67697.74000000,694.34649000
1772118000000,67696.89000000,67743.36000000,67249.70000000,67374.30000000,323.80666000
1772118900000,67374.30000000,67395.66000000,66855.21000000,66979.88000000,800.47130000
1772119800000,66979.87000000,67468.01000000,66761.16000000,67347.34000000,624.50857000
1772120700000,67347.34000000,67610.47000000,67230.81000000,67382.00000000,347.09487000
1772121600000,67382.00000000,67441.97000000,67055.00000000,67150.03000000,316.71777000
1772122500000,67150.03000000,67566.85000000,67114.21000000,67452.01000000,187.96313000
1772123400000,67452.00000000,67458.05000000,66909.09000000,67041.58000000,331.64348000
1772124300000,67041.58000000,67061.24000000,66500.00000000,66643.55000000,1213.87655000
1772125200000,66643.56000000,67011.54000000,66600.46000000,66890.89000000,393.91989000
1772126100000,66890.88000000,67044.10000000,66761.47000000,66936.31000000,171.18212000
1772127000000,66936.31000000,67022.65000000,66710.00000000,66747.47000000,156.98806000
1772127900000,66747.46000000,66854.57000000,66620.01000000,66826.80000000,163.73748000
1772128800000,66826.80000000,66883.64000000,66575.73000000,66771.52000000,267.19274000
1772129700000,66771.51000000,67027.24000000,66745.24000000,66863.00000000,171.94366000
1772130600000,66863.00000000,67373.90000000,66842.51000000,67262.95000000,441.80897000
1772131500000,67262.94000000,67352.84000000,67181.81000000,67310.53000000,177.52659000
1772132400000,67310.53000000,67903.12000000,67285.99000000,67503.83000000,473.43139000
1772133300000,67503.83000000,67770.51000000,67487.86000000,67572.96000000,290.29708000
1772134200000,67572.95000000,67703.69000000,67394.64000000,67478.24000000,266.22393000
