timestamp,open,high,low,close,volume
1763420400000,92247.64000000,92294.15000000,91898.00000000,92020.12000000,325.76366000
1763421300000,92020.11000000,92020.11000000,91824.00000000,91884.37000000,426.05589000
1763422200000,91884.37000000,92046.00000000,91793.90000000,91960.97000000,277.61385000
1763423100000,91960.97000000,92234.52000000,91960.97000000,92215.14000000,437.63509000
1763424000000,92215.14000000,92357.51000000,92114.72000000,92217.44000000,378.29507000
1763424900000,92217.44000000,92300.00000000,92000.00000000,92029.83000000,282.25819000
1763425800000,92029.83000000,92068.80000000,91341.17000000,91426.01000000,508.49073000
1763426700000,91426.00000000,92207.30000000,91200.00000000,92169.86000000,662.18153000
1763427600000,92169.86000000,92221.01000000,91915.24000000,91945.25000000,407.32575000
1763428500000,91945.26000000,92200.00000000,91658.25000000,91798.86000000,518.00683000
1763429400000,91798.86000000,92074.22000000,91732.17000000,91909.83000000,401.28083000
1763430300000,91909.84000000,91939.23000000,91624.50000000,91714.29000000,336.62743000
1763431200000,91714.29000000,91739.18000000,91136.63000000,91181.86000000,567.31188000
1763432100000,91181.87000000,91700.00000000,90759.09000000,91670.89000000,977.54039000
1763433000000,91670.90000000,91750.00000000,91142.35000000,91333.54000000,373.25720000
1763433900000,91333.54000000,91685.18000000,90687.42000000,90866.01000000,628.58130000
1763434800000,90866.01000000,90892.21000000,90250.00000000,90385.58000000,1490.25188000
1763435700000,90385.58000000,90544.44000000,90008.00000000,90027.77000000,878.97974000
1763436600000,90027.76000000,90927.69000000,89700.00000000,90627.80000000,1667.87973000
1763437500000,90627.81000000,90914.59000000,90604.00000000,90842.72000000,568.96713000
1763438400000,90842.72000000,90851.66000000,90260.04000000,90295.93000000,616.90892000
1763439300000,90295.93000000,90377.58000000,89900.00000000,89924.85000000,813.90290000
1763440200000,89924.86000000,90158.17000000,89836.52000000,89850.01000000,430.77899000
1763441100000,89850.00000000,90173.90000000,89253.78000000,90081.90000000,1488.41524000
1763442000000,90081.90000000,90259.21000000,89719.63000000,90233.89000000,490.04877000
1763442900000,90233.89000000,90469.14000000,90172.97000000,90193.68000000,412.40848000
1763443800000,90193.68000000,90380.90000000,89924.47000000,90017.45000000,366.35107000
1763444700000,90017.45000000,90360.60000000,90017.45000000,90221.33000000,306.84572000
1763445600000,90221.33000000,90233.16000000,89950.00000000,90156.61000000,242.85659000
1763446500000,90156.61000000,90176.44000000,89968.01000000,90066.39000000,260.62256000
1763447400000,90066.38000000,90113.53000000,89463.24000000,89477.15000000,446.20223000
1763448300000,89477.16000000,89795.45000000,89371.12000000,89651.30000000,386.27607000
1763449200000,89651.29000000,89922.29000000,89337.39000000,89874.69000000,422.54208000
1763450100000,89874.70000000,90193.51000000,89650.92000000,90155.29000000,923.36420000
1763451000000,90155.29000000,90555.88000000,90001.21000000,90470.01000000,843.19364000
1763451900000,90470.02000000,90553.77000000,90391.71000000,90512.10000000,577.34989000
1763452800000,90512.10000000,90851.66000000,90509.79000000,90803.38000000,471.31221000
1763453700000,90803.38000000,91192.85000000,90652.12000000,90842.01000000,911.40538000
1763454600000,90842.01000000,91440.00000000,90804.24000000,91358.94000000,497.25299000
1763455500000,91358.93000000,91414.51000000,91166.53000000,91220.00000000,345.82078000
1763456400000,91219.99000000,91288.00000000,90928.36000000,91173.39000000,548.91206000
1763457300000,91173.39000000,91457.00000000,90889.93000000,90934.00000000,327.64704000
1763458200000,90934.01000000,91182.06000000,90900.97000000,91170.00000000,256.32982000
1763459100000,91170.00000000,91487.58000000,91120.28000000,91400.01000000,309.07525000
1763460000000,91400.01000000,91597.61000000,91368.00000000,91390.31000000,349.49882000
1763460900000,91390.32000000,91550.00000000,91256.80000000,91340.79000000,275.40961000
1763461800000,91340.80000000,91587.61000000,91325.24000000,91521.05000000,212.95964000
1763462700000,91521.05000000,91617.17000000,91274.00000000,91585.02000000,249.19201000
1763463600000,91585.01000000,91615.43000000,91386.22000000,91431.07000000,248.93913000
1763464500000,91431.08000000,91573.82000000,91247.56000000,91468.65000000,381.91257000
1763465400000,91468.65000000,91607.26000000,91271.22000000,91569.06000000,220.65504000
1763466300000,91569.07000000,91600.00000000,91491.18000000,91517.82000000,171.14173000
1763467200000,91517.83000000,91554.82000000,91110.00000000,91117.31000000,225.53953000
1763468100000,91117.32000000,91573.27000000,91110.14000000,91222.71000000,177.62307000
1763469000000,91222.71000000,91878.11000000,91217.80000000,91807.95000000,291.60513000
1763469900000,91807.96000000,91840.00000000,91392.77000000,91518.54000000,212.22476000
1763470800000,91518.54000000,91659.94000000,91416.60000000,91486.66000000,173.64041000
1763471700000,91486.67000000,91591.08000000,91283.79000000,91288.58000000,149.45313000
1763472600000,91288.58000000,91439.43000000,90905.70000000,91168.00000000,540.37851000
1763473500000,91168.00000000,91492.10000000,91164.56000000,91476.56000000,173.04364000
1763474400000,91476.56000000,91557.43000000,91206.52000000,91238.80000000,157.05943000
1763475300000,91238.79000000,91904.95000000,91238.79000000,91785.82000000,473.28153000
1763476200000,91785.82000000,92450.23000000,91415.18000000,91471.24000000,1231.28727000
1763477100000,91471.23000000,91843.02000000,91359.29000000,91359.29000000,490.15568000
1763478000000,91359.30000000,92250.00000000,91010.00000000,92037.89000000,695.70257000
1763478900000,92037.89000000,93049.91000000,91965.62000000,92801.62000000,1192.03061000
1763479800000,92801.63000000,93000.00000000,92400.01000000,92744.01000000,529.03674000
1763480700000,92744.00000000,93027.08000000,92489.90000000,92910.10000000,385.45362000
1763481600000,92910.10000000,93261.56000000,92579.23000000,93146.28000000,739.16699000
1763482500000,93146.28000000,93817.45000000,93054.50000000,93733.14000000,738.56301000
1763483400000,93733.15000000,93836.01000000,93304.36000000,93330.56000000,638.70452000
1763484300000,93330.56000000,93526.00000000,93182.59000000,93499.16000000,416.87828000
1763485200000,93499.15000000,93657.15000000,93304.00000000,93312.10000000,380.15099000
1763486100000,93312.10000000,93530.00000000,92873.90000000,92963.58000000,308.41928000
1763487000000,92963.58000000,93492.31000000,92821.26000000,93325.99000000,334.38727000
1763487900000,93325.99000000,93339.60000000,93116.02000000,93256.92000000,166.83630000
1763488800000,93256.92000000,93766.00000000,93256.92000000,93638.65000000,186.95373000
1763489700000,93638.65000000,93644.79000000,93205.23000000,93231.99000000,166.42019000
1763490600000,93231.99000000,93431.44000000,93151.04000000,93367.01000000,170.19278000
1763491500000,93367.01000000,93658.00000000,93293.47000000,93331.08000000,168.54881000
1763492400000,93331.09000000,93525.67000000,93229.50000000,93469.04000000,91.10769000
1763493300000,93469.05000000,93521.51000000,93340.14000000,93442.74000000,108.79899000
1763494200000,93442.75000000,93612.00000000,93200.09000000,93200.68000000,134.82459000
1763495100000,93200.68000000,93296.00000000,92994.88000000,93195.61000000,167.41579000
1763496000000,93195.61000000,93298.00000000,92931.02000000,93077.98000000,114.49486000
1763496900000,93077.99000000,93251.89000000,93000.00000000,93133.23000000,93.36064000
1763497800000,93133.23000000,93180.00000000,92727.82000000,92792.81000000,147.60326000
1763498700000,92792.81000000,92993.75000000,92657.25000000,92783.36000000,183.55064000
1763499600000,92783.36000000,93010.49000000,92666.66000000,93003.41000000,136.46108000
1763500500000,93003.41000000,93030.00000000,92858.54000000,92940.66000000,85.43210000
1763501400000,92940.65000000,92940.66000000,92609.87000000,92638.01000000,123.50372000
1763502300000,92638.00000000,92661.73000000,92462.72000000,92491.59000000,196.81160000
1763503200000,92491.60000000,93078.00000000,92491.59000000,93074.81000000,151.94498000
1763504100000,93074.82000000,93272.25000000,92999.99000000,93246.88000000,121.05307000
1763505000000,93246.88000000,93423.74000000,93243.95000000,93264.00000000,70.96851000
1763505900000,93264.01000000,93282.00000000,93101.00000000,93160.00000000,95.18956000
1763506800000,93159.99000000,93163.34000000,92727.27000000,92840.83000000,153.73912000
1763507700000,92841.50000000,92937.86000000,92735.99000000,92829.95000000,300.39265000
1763508600000,92829.17000000,93019.29000000,92800.89000000,92872.94000000,261.35015000
1763509500000,92872.95000000,93038.31000000,92748.00000000,92960.83000000,131.63987000
1763510400000,92960.83000000,92980.22000000,92500.01000000,92512.33000000,172.15983000
1763511300000,92512.33000000,92554.00000000,91929.86000000,92301.53000000,349.81422000
1763512200000,92301.53000000,92658.80000000,92054.82000000,92621.40000000,239.02177000
1763513100000,92621.26000000,92661.76000000,92409.83000000,92416.51000000,114.06259000
1763514000000,92416.52000000,92440.76000000,92019.14000000,92039.23000000,432.46665000
1763514900000,92039.23000000,92644.49000000,91935.03000000,92431.00000000,196.02734000
1763515800000,92430.99000000,92508.00000000,92206.04000000,92371.48000000,104.80819000
1763516700000,92371.48000000,92449.24000000,92153.85000000,92439.99000000,123.20289000
1763517600000,92440.00000000,92760.00000000,92329.10000000,92736.35000000,150.17726000
1763518500000,92736.36000000,92865.24000000,92280.00000000,92612.33000000,137.02807000
1763519400000,92612.32000000,92859.53000000,92576.54000000,92631.06000000,119.81894000
1763520300000,92631.06000000,92819.99000000,92543.21000000,92569.12000000,124.39923000
1763521200000,92569.12000000,92636.00000000,92335.31000000,92335.79000000,147.98239000
1763522100000,92335.79000000,92336.42000000,92153.84000000,92299.90000000,141.00525000
1763523000000,92299.90000000,92299.91000000,91741.72000000,91892.53000000,255.55970000
1763523900000,91892.53000000,92000.00000000,91660.49000000,91874.52000000,257.61944000
1763524800000,91874.51000000,91976.12000000,91708.48000000,91744.37000000,162.56784000
1763525700000,91744.38000000,91839.93000000,91597.68000000,91694.96000000,216.47547000
1763526600000,91694.96000000,91706.86000000,91337.59000000,91450.02000000,539.99195000
1763527500000,91450.02000000,91499.99000000,91163.19000000,91163.20000000,233.42595000
1763528400000,91163.20000000,91267.73000000,90860.06000000,90906.28000000,445.79820000
1763529300000,90906.27000000,91102.00000000,90825.81000000,90840.55000000,274.57696000
1763530200000,90840.55000000,90845.88000000,90331.38000000,90345.87000000,510.39673000
1763531100000,90345.86000000,90459.99000000,90025.06000000,90459.99000000,552.63654000
1763532000000,90459.99000000,90692.91000000,90282.83000000,90669.42000000,295.08649000
1763532900000,90669.43000000,90836.31000000,90493.01000000,90815.99000000,428.47767000
1763533800000,90816.00000000,91020.01000000,90815.99000000,90960.02000000,274.62599000
1763534700000,90960.02000000,91104.00000000,90808.19000000,90990.87000000,225.32950000
1763535600000,90990.88000000,91373.67000000,90948.37000000,91320.00000000,319.95388000
1763536500000,91320.00000000,91433.17000000,91178.01000000,91270.65000000,402.00500000
1763537400000,91270.65000000,91808.72000000,91186.34000000,91755.31000000,367.88533000
1763538300000,91755.32000000,92028.92000000,91728.49000000,91863.64000000,386.00602000
1763539200000,91863.64000000,91906.00000000,91677.99000000,91795.73000000,155.14833000
1763540100000,91795.74000000,91950.00000000,91617.94000000,91923.78000000,212.02846000
1763541000000,91923.79000000,91923.79000000,91494.00000000,91600.00000000,178.57718000
1763541900000,91599.99000000,91599.99000000,91287.34000000,91470.44000000,258.07695000
1763542800000,91470.44000000,91500.00000000,91072.41000000,91349.76000000,267.96906000
1763543700000,91349.77000000,91405.84000000,91111.05000000,91292.81000000,190.63528000
1763544600000,91292.81000000,91499.21000000,91292.81000000,91452.07000000,137.09760000
1763545500000,91452.06000000,91513.72000000,91273.86000000,91513.72000000,144.51984000
1763546400000,91513.72000000,91700.55000000,91484.42000000,91520.00000000,148.33052000
1763547300000,91520.01000000,91604.82000000,91350.00000000,91500.01000000,204.21777000
1763548200000,91500.01000000,91511.89000000,91400.00000000,91495.85000000,75.42938000
1763549100000,91495.86000000,91495.86000000,91225.98000000,91314.75000000,152.52238000
1763550000000,91314.74000000,91642.19000000,91312.00000000,91642.19000000,83.16142000
1763550900000,91642.18000000,91782.04000000,91550.39000000,91550.40000000,176.94038000
1763551800000,91550.40000000,91620.00000000,91471.02000000,91579.49000000,64.73366000
1763552700000,91579.49000000,91595.96000000,91334.18000000,91410.22000000,91.47418000
1763553600000,91410.23000000,91597.15000000,91338.13000000,91427.52000000,80.63005000
1763554500000,91427.52000000,91461.52000000,91220.00000000,91362.84000000,133.02614000
1763555400000,91362.84000000,91514.90000000,91309.44000000,91463.29000000,72.07731000
1763556300000,91463.28000000,91879.85000000,91432.35000000,91780.00000000,318.57675000
1763557200000,91780.00000000,91799.99000000,91550.39000000,91609.20000000,86.68403000
1763558100000,91609.19000000,91798.25000000,91581.60000000,91789.75000000,117.45287000
1763559000000,91789.76000000,91900.00000000,91350.29000000,91488.61000000,269.88535000
1763559900000,91488.61000000,91542.00000000,91228.82000000,91405.02000000,254.05265000
1763560800000,91405.02000000,91533.13000000,91148.00000000,91485.90000000,185.63772000
1763561700000,91485.90000000,91509.38000000,91037.50000000,91121.93000000,296.48481000
1763562600000,91121.94000000,91857.30000000,91105.77000000,91784.04000000,524.41537000
1763563500000,91784.03000000,91854.27000000,91500.00000000,91713.44000000,382.84546000
1763564400000,91713.45000000,92335.55000000,91695.55000000,92035.89000000,701.80007000
1763565300000,92035.89000000,92384.61000000,91127.47000000,91235.13000000,630.36885000
1763566200000,91235.14000000,91252.61000000,90568.17000000,90696.85000000,627.63656000
1763567100000,90696.88000000,91109.13000000,89880.00000000,89951.70000000,1332.51798000
1763568000000,89951.70000000,90228.81000000,89900.05000000,90124.40000000,588.63983000
1763568900000,90124.40000000,90232.56000000,89600.00000000,89696.37000000,649.19586000
1763569800000,89696.36000000,89862.85000000,89453.88000000,89712.15000000,789.36032000
1763570700000,89712.15000000,89933.44000000,89465.05000000,89905.78000000,389.92211000
1763571600000,89905.77000000,90133.33000000,89339.00000000,89360.01000000,580.04648000
1763572500000,89360.01000000,89651.57000000,89312.99000000,89527.70000000,454.54165000
1763573400000,89527.69000000,89577.47000000,88889.00000000,89328.63000000,1168.60918000
1763574300000,89328.63000000,89559.89000000,89074.04000000,89500.01000000,446.30136000
1763575200000,89500.00000000,89744.51000000,89316.00000000,89658.60000000,421.84707000
1763576100000,89658.60000000,89723.13000000,88850.00000000,89068.26000000,695.49425000
1763577000000,89068.26000000,89309.09000000,88880.00000000,88906.92000000,493.01029000
1763577900000,88906.92000000,89297.18000000,88792.00000000,89237.83000000,605.82733000
1763578800000,89237.82000000,89384.27000000,89007.24000000,89155.44000000,400.98557000
1763579700000,89155.43000000,89215.79000000,88854.00000000,88954.20000000,298.29693000
1763580600000,88954.20000000,89026.09000000,88680.00000000,88723.33000000,445.07498000
1763581500000,88723.33000000,89100.00000000,88630.71000000,88884.56000000,360.04164000
1763582400000,88884.56000000,88928.63000000,88608.00000000,88721.30000000,319.55358000
1763583300000,88721.30000000,89396.23000000,88721.29000000,89396.23000000,344.64733000
1763584200000,89396.23000000,89516.93000000,89110.40000000,89196.47000000,241.94709000
1763585100000,89196.47000000,89704.39000000,89087.06000000,89516.91000000,515.63791000
1763586000000,89516.91000000,89935.54000000,89450.01000000,89694.17000000,563.32244000
1763586900000,89694.17000000,90850.00000000,89685.50000000,90118.00000000,864.94526000
1763587800000,90118.00000000,90636.17000000,90063.09000000,90510.49000000,821.42595000
1763588700000,90510.50000000,90765.75000000,90405.51000000,90600.68000000,640.59691000
1763589600000,90600.67000000,90628.01000000,90344.49000000,90344.50000000,354.89664000
1763590500000,90344.50000000,90635.58000000,90101.14000000,90594.86000000,221.08508000
1763591400000,90594.85000000,90629.76000000,90393.07000000,90516.48000000,108.98194000
1763592300000,90516.48000000,90559.98000000,90339.19000000,90480.56000000,83.29315000
1763593200000,90480.56000000,91372.05000000,90480.56000000,91327.03000000,422.88249000
1763594100000,91327.03000000,91537.57000000,91199.11000000,91391.08000000,366.92057000
1763595000000,91391.08000000,91507.01000000,91261.99000000,91284.91000000,200.34947000
1763595900000,91284.91000000,91594.00000000,91264.74000000,91554.96000000,173.60930000
1763596800000,91554.96000000,91557.59000000,91185.26000000,91492.90000000,180.49011000
1763597700000,91492.91000000,91898.24000000,91431.14000000,91855.18000000,233.58234000
1763598600000,91855.18000000,92300.00000000,91855.18000000,92232.72000000,391.42002000
1763599500000,92232.72000000,92260.60000000,91856.00000000,91891.32000000,240.20874000
1763600400000,91891.32000000,92335.00000000,91820.01000000,92213.10000000,280.26877000
1763601300000,92213.10000000,92500.00000000,92137.57000000,92227.82000000,340.95137000
1763602200000,92227.82000000,92716.44000000,92227.82000000,92568.22000000,254.03552000
1763603100000,92568.21000000,92660.00000000,92472.85000000,92590.13000000,183.66537000
1763604000000,92590.13000000,92798.14000000,92384.61000000,92667.65000000,333.61311000
1763604900000,92667.65000000,92729.25000000,92440.00000000,92497.47000000,155.77555000
1763605800000,92497.48000000,92587.45000000,92345.12000000,92401.49000000,120.11894000
1763606700000,92401.49000000,92717.95000000,92322.04000000,92592.84000000,295.34643000
1763607600000,92592.85000000,92683.84000000,92418.07000000,92438.99000000,197.97869000
1763608500000,92439.00000000,92717.52000000,92365.73000000,92380.55000000,296.01196000
1763609400000,92380.55000000,92665.98000000,92360.84000000,92479.64000000,232.46410000
1763610300000,92479.64000000,92568.00000000,92418.99000000,92440.32000000,193.12872000
1763611200000,92440.33000000,92550.00000000,92377.29000000,92469.37000000,171.43970000
1763612100000,92469.38000000,92469.38000000,92124.00000000,92289.91000000,193.51495000
1763613000000,92289.91000000,92400.00000000,92190.74000000,92313.09000000,118.88516000
1763613900000,92313.09000000,92990.00000000,92294.51000000,92962.83000000,447.28375000
1763614800000,92962.84000000,93160.00000000,92812.73000000,92881.50000000,449.83474000
1763615700000,92881.50000000,92933.31000000,92660.74000000,92679.34000000,187.69265000
1763616600000,92679.35000000,92698.13000000,92571.95000000,92572.45000000,101.30340000
1763617500000,92572.46000000,92744.12000000,92566.55000000,92616.20000000,139.36290000
1763618400000,92616.21000000,92851.06000000,92615.25000000,92695.72000000,97.54510000
1763619300000,92695.71000000,92695.71000000,92396.67000000,92447.19000000,466.81402000
1763620200000,92447.19000000,92498.11000000,91782.89000000,91846.91000000,502.83193000
1763621100000,91846.90000000,91990.86000000,91687.07000000,91974.70000000,257.76803000
1763622000000,91974.69000000,92087.65000000,91798.24000000,92067.94000000,192.90712000
1763622900000,92068.00000000,92076.01000000,91846.24000000,91936.44000000,120.11876000
1763623800000,91936.45000000,92192.64000000,91936.45000000,92146.76000000,120.31474000
1763624700000,92146.76000000,92445.80000000,92146.76000000,92320.18000000,224.27305000
1763625600000,92320.18000000,92400.94000000,92093.46000000,92131.05000000,196.07665000
1763626500000,92131.06000000,92291.61000000,92060.34000000,92278.79000000,129.82183000
1763627400000,92278.78000000,92336.03000000,92184.00000000,92263.07000000,113.48912000
1763628300000,92263.08000000,92325.51000000,92036.27000000,92128.22000000,182.47664000
1763629200000,92128.22000000,92135.01000000,91984.00000000,92076.05000000,153.97940000
1763630100000,92076.04000000,92110.33000000,91765.99000000,91819.28000000,167.48404000
1763631000000,91819.27000000,91937.90000000,91692.30000000,91692.30000000,156.71862000
1763631900000,91692.30000000,91959.21000000,91440.55000000,91950.00000000,708.99770000
1763632800000,91950.01000000,92050.01000000,91603.84000000,91633.96000000,344.33251000
1763633700000,91633.96000000,91992.53000000,91632.00000000,91973.05000000,183.22366000
1763634600000,91973.06000000,92062.83000000,91741.18000000,91796.68000000,136.79405000
1763635500000,91796.67000000,91838.49000000,91706.51000000,91801.39000000,254.46975000
1763636400000,91801.39000000,91823.80000000,91642.65000000,91743.67000000,101.37192000
1763637300000,91743.67000000,91799.71000000,91485.40000000,91564.79000000,112.78736000
1763638200000,91564.80000000,91847.23000000,91564.79000000,91795.43000000,118.00496000
1763639100000,91795.43000000,92029.64000000,91763.67000000,91934.00000000,140.80915000
1763640000000,91934.01000000,91988.95000000,91692.72000000,91692.73000000,116.14845000
1763640900000,91692.73000000,91879.67000000,91688.00000000,91733.65000000,105.69370000
1763641800000,91733.64000000,91936.87000000,91715.21000000,91758.21000000,127.35334000
1763642700000,91758.22000000,91999.99000000,91741.48000000,91839.25000000,93.84384000
1763643600000,91839.25000000,92020.00000000,91713.43000000,92011.38000000,132.00889000
1763644500000,92011.38000000,92115.96000000,91744.89000000,91917.97000000,312.30513000
1763645400000,91917.97000000,92541.92000000,91610.00000000,91627.72000000,772.37188000
1763646300000,91627.72000000,92020.00000000,91451.99000000,91529.36000000,318.57110000
1763647200000,91529.36000000,91529.36000000,90431.54000000,90705.37000000,709.91758000
1763648100000,90705.37000000,91493.96000000,90644.95000000,91452.53000000,511.90438000
1763649000000,91452.53000000,91682.60000000,90848.32000000,91026.00000000,554.37245000
1763649900000,91026.00000000,91263.99000000,90664.34000000,91103.19000000,451.47746000
1763650800000,91103.19000000,91171.78000000,90350.75000000,90406.01000000,485.06690000
1763651700000,90406.00000000,90848.36000000,90250.00000000,90629.88000000,502.75559000
1763652600000,90629.88000000,90694.00000000,90213.15000000,90596.80000000,375.92503000
1763653500000,90596.81000000,90608.60000000,89835.34000000,89869.88000000,593.13852000
1763654400000,89869.88000000,89911.73000000,88411.38000000,88720.19000000,1818.39767000
1763655300000,88722.80000000,89253.81000000,88267.00000000,88709.52000000,1463.37254000
1763656200000,88709.52000000,88932.09000000,88111.50000000,88224.76000000,735.54446000
1763657100000,88224.76000000,88431.00000000,87487.95000000,87878.10000000,1901.14718000
1763658000000,87878.10000000,88158.49000000,86738.75000000,87049.92000000,2432.84002000
1763658900000,87049.92000000,87377.37000000,86816.08000000,87132.00000000,1277.46512000
1763659800000,87131.99000000,87366.46000000,86395.47000000,86758.36000000,1399.22155000
1763660700000,86758.35000000,87293.43000000,86630.52000000,87233.81000000,738.86480000
1763661600000,87233.80000000,87713.19000000,86939.59000000,87698.62000000,1072.98145000
1763662500000,87699.81000000,87769.23000000,86870.01000000,86960.28000000,759.59427000
1763663400000,86960.28000000,87046.21000000,86641.95000000,86767.29000000,480.28171000
1763664300000,86767.29000000,86767.29000000,86318.78000000,86486.27000000,774.22463000
1763665200000,86486.27000000,86596.99000000,86100.00000000,86420.78000000,858.83179000
1763666100000,86420.78000000,87146.29000000,86280.00000000,86928.00000000,611.86999000
1763667000000,86928.00000000,86928.00000000,86441.12000000,86679.95000000,819.73931000
1763667900000,86679.96000000,87041.86000000,86455.34000000,86921.28000000,451.30639000
1763668800000,86921.27000000,86921.27000000,86325.23000000,86335.17000000,417.69504000
1763669700000,86335.17000000,87067.93000000,86334.00000000,87056.71000000,324.37700000
1763670600000,87056.72000000,87131.07000000,86440.01000000,86591.45000000,384.31350000
1763671500000,86591.45000000,86738.27000000,86359.36000000,86462.97000000,349.39209000
1763672400000,86462.97000000,86944.33000000,86429.09000000,86920.48000000,237.51963000
1763673300000,86920.48000000,87478.97000000,86880.00000000,87154.64000000,290.42466000
1763674200000,87154.65000000,87595.92000000,87062.91000000,87595.92000000,239.92930000
1763675100000,87595.92000000,87674.23000000,87259.25000000,87282.60000000,447.18351000
1763676000000,87282.44000000,87898.40000000,87192.91000000,87894.12000000,502.06811000
1763676900000,87894.11000000,88131.31000000,87781.22000000,88131.31000000,233.10747000
1763677800000,88131.55000000,88250.00000000,87648.60000000,88131.01000000,364.80945000
1763678700000,88131.00000000,88205.19000000,87919.41000000,88065.97000000,174.58639000
1763679600000,88065.98000000,88173.09000000,87342.08000000,87563.32000000,278.99588000
1763680500000,87563.32000000,87754.75000000,87198.41000000,87265.51000000,203.67296000
1763681400000,87265.52000000,87297.92000000,86768.81000000,87042.48000000,337.11773000
1763682300000,87042.48000000,87076.00000000,86560.00000000,86637.23000000,267.67379000
1763683200000,86637.22000000,87288.33000000,86592.00000000,87286.75000000,295.15525000
1763684100000,87286.75000000,87411.76000000,87063.29000000,87281.37000000,245.06813000
1763685000000,87281.38000000,87498.94000000,87031.60000000,87227.06000000,186.93528000
1763685900000,87227.07000000,87436.35000000,87199.52000000,87285.24000000,117.84739000
1763686800000,87285.24000000,87464.08000000,87093.99000000,87145.49000000,213.98715000
1763687700000,87145.49000000,87394.72000000,86834.81000000,87281.96000000,264.39681000
1763688600000,87281.96000000,87322.85000000,86911.00000000,87240.42000000,167.05692000
1763689500000,87240.43000000,87326.12000000,87000.00000000,87049.86000000,196.43134000
1763690400000,87049.86000000,87067.52000000,86407.81000000,86441.44000000,578.19682000
1763691300000,86441.43000000,86819.11000000,86175.71000000,86503.13000000,533.17282000
1763692200000,86503.14000000,86667.68000000,85868.76000000,85910.46000000,786.25206000
1763693100000,85910.46000000,86267.99000000,85360.00000000,85444.93000000,1106.02235000
1763694000000,85444.93000000,86057.98000000,85439.55000000,85786.96000000,794.53588000
1763694900000,85786.96000000,85972.04000000,85433.39000000,85690.07000000,402.30391000
1763695800000,85690.06000000,86135.58000000,85582.91000000,86056.99000000,306.03019000
1763696700000,86056.99000000,86132.10000000,85821.34000000,85821.34000000,235.12683000
1763697600000,85821.35000000,85894.00000000,85626.74000000,85704.52000000,194.71958000
1763698500000,85704.51000000,85900.00000000,85600.43000000,85850.86000000,214.75338000
1763699400000,85850.86000000,86000.00000000,85404.05000000,85879.08000000,394.47481000
1763700300000,85879.07000000,86119.19000000,85716.86000000,86053.09000000,232.58081000
1763701200000,86053.10000000,86242.97000000,85954.33000000,86205.38000000,195.32067000
1763702100000,86205.38000000,86350.00000000,86140.00000000,86208.42000000,224.25011000
1763703000000,86208.42000000,86459.53000000,85825.59000000,86066.15000000,585.28948000
1763703900000,86066.16000000,86220.01000000,85972.28000000,86195.08000000,230.07329000
1763704800000,86195.09000000,86255.02000000,85820.55000000,85977.51000000,245.25092000
1763705700000,85977.50000000,85978.59000000,85603.47000000,85633.40000000,405.98950000
1763706600000,85633.39000000,85845.30000000,85551.72000000,85662.61000000,368.79945000
1763707500000,85662.61000000,85728.58000000,85550.00000000,85581.30000000,327.04360000
1763708400000,85581.31000000,85769.86000000,85450.00000000,85526.28000000,475.02373000
1763709300000,85526.27000000,85534.84000000,85177.02000000,85205.17000000,508.24152000
1763710200000,85212.45000000,85310.00000000,82000.00000000,84373.38000000,7869.66753000
1763711100000,84373.38000000,84398.28000000,83790.00000000,84049.39000000,1734.01267000
1763712000000,84049.38000000,84693.21000000,83702.35000000,84505.74000000,1208.89549000
1763712900000,84505.74000000,84709.89000000,84183.88000000,84223.36000000,905.90972000
1763713800000,84223.35000000,84430.50000000,83600.09000000,83791.27000000,968.38674000
1763714700000,83791.27000000,83980.00000000,83521.07000000,83643.45000000,1113.64340000
1763715600000,83643.45000000,83988.40000000,83596.93000000,83702.81000000,551.52220000
1763716500000,83702.81000000,83767.20000000,83064.76000000,83079.79000000,755.72209000
1763717400000,83079.79000000,83226.83000000,82474.59000000,82658.30000000,1757.02486000
1763718300000,82658.30000000,82757.65000000,82104.01000000,82207.84000000,1318.58387000
1763719200000,82207.83000000,82500.00000000,81716.80000000,82110.41000000,1830.86546000
1763720100000,82110.41000000,82479.92000000,81648.00000000,82057.68000000,1367.48828000
1763721000000,82057.69000000,82911.99000000,82054.49000000,82544.54000000,1661.11433000
1763721900000,82544.55000000,82808.88000000,82362.39000000,82703.61000000,729.24700000
1763722800000,82703.61000000,83340.72000000,82618.02000000,83081.51000000,650.35495000
1763723700000,83081.52000000,83235.29000000,82843.96000000,82925.23000000,374.08990000
1763724600000,82925.22000000,83110.87000000,82380.69000000,82517.34000000,577.23384000
1763725500000,82517.35000000,82517.35000000,82192.49000000,82309.66000000,414.84446000
1763726400000,82309.67000000,82446.84000000,81939.65000000,82310.84000000,1432.13128000
1763727300000,82310.85000000,82310.85000000,80600.00000000,80945.66000000,3089.32579000
1763728200000,80945.66000000,83044.50000000,80945.65000000,83010.37000000,2989.25652000
1763729100000,83010.37000000,83618.13000000,83000.01000000,83285.35000000,1670.36869000
1763730000000,83285.34000000,83878.89000000,83116.86000000,83820.00000000,1359.29829000
1763730900000,83820.01000000,84354.79000000,83389.78000000,83429.91000000,1114.96309000
1763731800000,83429.91000000,84200.24000000,83286.30000000,84155.86000000,764.60299000
1763732700000,84155.86000000,84427.79000000,84051.77000000,84115.28000000,827.32758000
1763733600000,84115.29000000,84213.83000000,83750.00000000,83828.33000000,718.54261000
1763734500000,83828.32000000,83840.00000000,83544.82000000,83689.70000000,570.16849000
1763735400000,83689.69000000,85285.70000000,83586.39000000,84916.47000000,2394.33371000
1763736300000,84916.47000000,85496.00000000,84241.43000000,84850.00000000,1451.67475000
1763737200000,84850.01000000,85103.42000000,84055.78000000,84173.05000000,1038.25072000
1763738100000,84173.05000000,84329.09000000,83605.01000000,83623.77000000,1119.41117000
1763739000000,83623.77000000,83860.00000000,82782.68000000,83227.42000000,1583.30773000
1763739900000,83227.42000000,83396.65000000,82729.54000000,82932.47000000,918.39023000
1763740800000,82932.46000000,83111.42000000,82333.00000000,82929.78000000,823.50753000
1763741700000,82929.77000000,83301.64000000,82563.98000000,83282.12000000,741.99193000
1763742600000,83282.11000000,83792.89000000,82947.84000000,83369.41000000,653.61761000
1763743500000,83369.40000000,84919.60000000,83142.55000000,84919.59000000,676.77447000
1763744400000,84919.58000000,85498.00000000,84565.11000000,85128.68000000,723.70940000
1763745300000,85128.68000000,85572.82000000,84961.45000000,85205.27000000,603.05304000
1763746200000,85205.28000000,85493.94000000,85002.33000000,85179.25000000,398.90624000
1763747100000,85179.25000000,85391.18000000,84791.01000000,84877.07000000,340.30010000
1763748000000,84877.06000000,84949.99000000,83563.13000000,83674.03000000,743.99742000
1763748900000,83674.03000000,84173.81000000,83304.87000000,84065.67000000,560.87196000
1763749800000,84065.67000000,84589.70000000,83980.00000000,84529.65000000,376.80131000
1763750700000,84529.66000000,85083.31000000,84401.98000000,84577.11000000,421.11121000
1763751600000,84577.12000000,84884.40000000,84443.93000000,84560.88000000,329.03188000
1763752500000,84560.87000000,85025.71000000,84480.16000000,84894.66000000,277.63725000
1763753400000,84894.67000000,84996.92000000,84355.96000000,84446.10000000,258.72187000
1763754300000,84446.09000000,84458.15000000,84080.00000000,84209.30000000,177.50960000
1763755200000,84209.30000000,84373.71000000,83853.96000000,84214.93000000,271.33434000
1763756100000,84214.93000000,84217.88000000,83509.72000000,83537.47000000,233.73721000
1763757000000,83537.46000000,84267.25000000,83464.96000000,84248.86000000,291.77067000
1763757900000,84248.86000000,84650.00000000,84220.79000000,84571.20000000,418.27346000
1763758800000,84571.19000000,84748.13000000,84351.51000000,84622.62000000,289.32271000
1763759700000,84622.63000000,85000.01000000,84427.34000000,84963.57000000,307.33458000
1763760600000,84963.57000000,85398.30000000,84941.74000000,85260.26000000,374.49904000
1763761500000,85261.00000000,85416.66000000,85140.08000000,85182.14000000,215.39622000
1763762400000,85182.14000000,85404.24000000,85082.47000000,85165.57000000,179.76934000
1763763300000,85165.58000000,85206.57000000,84736.14000000,84828.99000000,273.70648000
1763764200000,84828.99000000,84828.99000000,84343.88000000,84668.10000000,198.15872000
1763765100000,84668.09000000,84960.01000000,84267.25000000,84284.42000000,235.94030000
1763766000000,84284.43000000,84450.00000000,84121.38000000,84446.10000000,275.16027000
1763766900000,84446.10000000,85041.98000000,84443.14000000,85032.63000000,388.55663000
1763767800000,85032.63000000,85263.53000000,84871.51000000,85252.93000000,217.65593000
1763768700000,85252.93000000,85353.03000000,85031.83000000,85129.43000000,117.67766000
1763769600000,85129.42000000,85620.00000000,85101.09000000,85515.71000000,234.60598000
1763770500000,85515.71000000,85515.72000000,84854.88000000,84895.97000000,281.55510000
1763771400000,84895.98000000,85275.41000000,84895.97000000,85064.43000000,158.44506000
1763772300000,85064.43000000,85080.00000000,84571.13000000,84739.93000000,308.29372000
1763773200000,84739.92000000,84905.99000000,84588.75000000,84739.55000000,183.50604000
1763774100000,84739.55000000,84936.15000000,84660.97000000,84887.03000000,129.61774000
1763775000000,84887.02000000,85205.87000000,84874.30000000,84900.01000000,246.32635000
1763775900000,84900.01000000,85174.28000000,84900.00000000,85174.28000000,148.75057000
1763776800000,85174.28000000,85205.87000000,84668.14000000,84723.99000000,232.93357000
1763777700000,84723.99000000,84807.51000000,84586.61000000,84693.08000000,114.82182000
1763778600000,84693.08000000,84711.77000000,84294.19000000,84346.00000000,166.78790000
1763779500000,84345.99000000,84538.87000000,84285.71000000,84528.99000000,108.58106000
1763780400000,84529.00000000,84611.35000000,84313.78000000,84597.98000000,139.06577000
1763781300000,84597.99000000,84597.99000000,84267.25000000,84424.40000000,131.31007000
1763782200000,84424.40000000,84498.65000000,84226.00000000,84375.58000000,119.90716000
1763783100000,84375.59000000,84493.66000000,84212.39000000,84440.47000000,218.70766000
1763784000000,84440.48000000,84548.30000000,84062.11000000,84115.21000000,166.47237000
1763784900000,84115.21000000,84250.84000000,83903.99000000,84000.72000000,288.35259000
1763785800000,84000.72000000,84127.83000000,83832.91000000,83975.76000000,168.30064000
1763786700000,83975.77000000,84320.00000000,83886.00000000,84246.88000000,133.91002000
1763787600000,84246.89000000,84313.62000000,84134.00000000,84160.80000000,121.88532000
1763788500000,84160.80000000,84160.81000000,83915.17000000,84083.31000000,177.72525000
1763789400000,84083.32000000,84098.00000000,83868.53000000,83936.98000000,135.83214000
1763790300000,83936.98000000,84316.08000000,83936.98000000,84280.92000000,174.50708000
1763791200000,84280.92000000,84349.99000000,84080.00000000,84278.70000000,98.09605000
1763792100000,84279.02000000,84559.30000000,84227.57000000,84506.00000000,154.67751000
1763793000000,84505.99000000,84799.54000000,84505.99000000,84636.10000000,158.67720000
1763793900000,84636.09000000,84735.87000000,84517.93000000,84636.00000000,103.30570000
1763794800000,84636.00000000,84672.01000000,84426.00000000,84480.16000000,92.77122000
1763795700000,84480.17000000,84628.50000000,84400.00000000,84494.41000000,48.57865000
1763796600000,84494.41000000,84617.83000000,84410.00000000,84587.59000000,53.17478000
1763797500000,84587.58000000,84662.00000000,84510.00000000,84580.06000000,142.05192000
1763798400000,84580.06000000,84586.62000000,84446.09000000,84530.79000000,108.58148000
1763799300000,84530.79000000,84548.30000000,84210.10000000,84224.54000000,140.23323000
1763800200000,84224.55000000,84236.00000000,83935.95000000,84064.62000000,204.91243000
1763801100000,84064.61000000,84178.28000000,83944.15000000,84016.77000000,125.38289000
1763802000000,84016.77000000,84343.91000000,83958.48000000,84303.23000000,130.94605000
1763802900000,84303.23000000,84313.33000000,83964.46000000,84107.34000000,89.11152000
1763803800000,84107.35000000,84261.03000000,83666.00000000,83940.01000000,1030.67330000
1763804700000,83940.00000000,84127.56000000,83879.94000000,83929.52000000,151.61237000
1763805600000,83929.53000000,84211.50000000,83912.00000000,84166.73000000,154.59077000
1763806500000,84166.72000000,84189.00000000,83620.00000000,83686.17000000,267.89048000
1763807400000,83686.18000000,83791.88000000,83557.10000000,83670.00000000,137.76920000
1763808300000,83670.00000000,83786.00000000,83500.00000000,83693.25000000,194.99638000
1763809200000,83693.26000000,84080.00000000,83592.45000000,84017.60000000,174.11005000
1763810100000,84017.59000000,84294.77000000,83883.39000000,84227.26000000,162.59646000
1763811000000,84227.26000000,84343.91000000,84123.26000000,84292.74000000,145.02678000
1763811900000,84292.75000000,84292.75000000,84088.00000000,84098.94000000,124.02490000
1763812800000,84098.94000000,84160.80000000,83679.98000000,83694.22000000,239.37316000
1763813700000,83694.23000000,83883.95000000,83620.16000000,83666.32000000,189.18151000
1763814600000,83666.32000000,83841.44000000,83653.77000000,83726.81000000,82.03054000
1763815500000,83726.81000000,83929.23000000,83630.00000000,83884.00000000,122.16127000
1763816400000,83884.01000000,84132.09000000,83653.12000000,84102.19000000,149.36650000
1763817300000,84102.19000000,84124.07000000,83800.00000000,83889.15000000,118.49408000
1763818200000,83889.14000000,83928.57000000,83712.94000000,83904.48000000,101.41018000
1763819100000,83904.49000000,84027.50000000,83869.11000000,83947.89000000,81.11774000
1763820000000,83947.89000000,84454.06000000,83935.12000000,84454.06000000,250.93682000
1763820900000,84454.06000000,84755.83000000,84333.33000000,84581.70000000,452.99002000
1763821800000,84581.70000000,84648.00000000,84390.15000000,84390.15000000,214.40449000
1763822700000,84390.15000000,84558.72000000,84257.30000000,84494.40000000,136.53057000
1763823600000,84494.40000000,84577.99000000,84299.99000000,84382.81000000,160.84548000
1763824500000,84382.81000000,84510.98000000,84343.61000000,84433.61000000,87.98647000
1763825400000,84433.61000000,84442.39000000,84041.25000000,84119.53000000,141.98486000
1763826300000,84119.53000000,84316.40000000,84014.39000000,84284.01000000,139.63075000
1763827200000,84284.01000000,84592.93000000,84219.62000000,84592.93000000,148.76183000
1763828100000,84592.93000000,84668.69000000,84463.89000000,84600.08000000,153.63266000
1763829000000,84600.09000000,84828.00000000,84510.53000000,84828.00000000,105.68870000
1763829900000,84828.00000000,84899.00000000,84609.76000000,84694.66000000,117.37743000
1763830800000,84694.65000000,84717.55000000,84423.98000000,84543.38000000,150.51338000
1763831700000,84543.38000000,84720.00000000,84486.02000000,84703.31000000,75.68154000
1763832600000,84703.31000000,84724.58000000,84523.53000000,84547.55000000,62.01455000
1763833500000,84547.55000000,84630.00000000,84464.49000000,84554.20000000,69.72791000
1763834400000,84554.20000000,84678.00000000,84491.90000000,84614.41000000,74.80705000
1763835300000,84614.42000000,84626.00000000,84533.08000000,84598.00000000,57.34322000
1763836200000,84597.99000000,84600.89000000,84480.66000000,84563.10000000,51.00888000
1763837100000,84563.10000000,84678.38000000,84535.96000000,84659.79000000,60.82519000
1763838000000,84659.80000000,84790.79000000,84588.02000000,84708.42000000,71.62845000
1763838900000,84708.42000000,84789.21000000,84581.99000000,84617.88000000,42.72452000
1763839800000,84617.89000000,84638.92000000,84510.53000000,84579.88000000,56.12071000
1763840700000,84579.88000000,84733.63000000,84562.82000000,84609.76000000,53.22549000
1763841600000,84609.77000000,84808.22000000,84599.98000000,84765.07000000,70.29520000
1763842500000,84765.08000000,84796.48000000,84659.23000000,84759.02000000,45.38467000
1763843400000,84759.02000000,84759.03000000,84423.00000000,84423.01000000,71.32771000
1763844300000,84423.01000000,84500.00000000,84244.51000000,84474.41000000,87.86090000
1763845200000,84474.41000000,84510.54000000,84237.70000000,84297.94000000,116.51079000
1763846100000,84297.93000000,84438.59000000,84295.20000000,84308.01000000,45.95538000
1763847000000,84308.01000000,84437.67000000,84285.14000000,84403.26000000,48.67426000
1763847900000,84403.26000000,84438.64000000,84316.39000000,84411.30000000,57.89198000
1763848800000,84411.31000000,84600.01000000,84269.04000000,84595.61000000,182.91451000
1763849700000,84595.61000000,84685.64000000,84539.71000000,84616.51000000,119.23052000
1763850600000,84616.51000000,84760.59000000,84566.33000000,84760.58000000,67.11007000
1763851500000,84760.59000000,85260.00000000,84722.17000000,85072.88000000,279.03341000
1763852400000,85072.87000000,85178.00000000,84850.00000000,85050.00000000,175.49820000
1763853300000,85050.01000000,85055.87000000,84766.81000000,84859.32000000,92.42059000
1763854200000,84859.32000000,85039.80000000,84723.87000000,84806.86000000,150.34237000
1763855100000,84806.86000000,84825.75000000,84670.56000000,84739.74000000,79.96382000
1763856000000,84739.75000000,85187.05000000,84667.57000000,85187.01000000,184.18040000
1763856900000,85187.00000000,85325.94000000,85006.67000000,85067.87000000,313.44932000
1763857800000,85067.88000000,85160.31000000,84909.12000000,85000.92000000,195.82469000
1763858700000,85000.92000000,85129.38000000,84893.21000000,84971.74000000,95.97145000
1763859600000,84971.74000000,85344.29000000,84950.97000000,85334.88000000,153.89600000
1763860500000,85334.88000000,85609.75000000,85291.43000000,85530.39000000,316.87093000
1763861400000,85530.39000000,85923.07000000,85458.01000000,85890.72000000,367.46116000
1763862300000,85890.73000000,86184.60000000,85722.99000000,85879.83000000,408.90792000
1763863200000,85879.83000000,86105.76000000,85689.36000000,85822.87000000,341.26164000
1763864100000,85822.87000000,86218.00000000,85733.49000000,86042.62000000,306.95963000
1763865000000,86042.62000000,86349.84000000,86033.24000000,86168.32000000,352.76295000
1763865900000,86168.33000000,86296.65000000,85958.74000000,86000.34000000,315.77354000
1763866800000,86000.34000000,86098.18000000,85840.00000000,85886.58000000,184.99426000
1763867700000,85886.58000000,85960.00000000,85820.68000000,85945.04000000,127.69174000
1763868600000,85945.05000000,86161.21000000,85891.64000000,86084.02000000,143.25956000
1763869500000,86084.03000000,86308.55000000,86002.00000000,86308.54000000,194.88612000
1763870400000,86308.54000000,86507.87000000,86150.61000000,86461.94000000,315.70681000
1763871300000,86461.93000000,86860.00000000,86380.00000000,86502.00000000,389.58546000
1763872200000,86501.99000000,86620.18000000,86425.46000000,86584.50000000,147.28682000
1763873100000,86584.50000000,86693.56000000,86458.12000000,86548.20000000,192.53478000
1763874000000,86548.19000000,86593.68000000,86375.33000000,86449.79000000,173.43678000
1763874900000,86449.79000000,86449.79000000,86232.42000000,86235.61000000,109.63928000
1763875800000,86235.61000000,86268.02000000,86004.85000000,86042.08000000,178.27328000
1763876700000,86042.08000000,86358.28000000,86042.07000000,86358.28000000,131.58598000
1763877600000,86358.27000000,86500.00000000,86270.00000000,86287.36000000,142.68022000
1763878500000,86287.36000000,86306.61000000,86081.70000000,86164.95000000,97.08128000
1763879400000,86164.95000000,86185.63000000,86000.00000000,86025.45000000,156.26463000
1763880300000,86025.45000000,86111.86000000,85864.68000000,85864.68000000,150.53872000
1763881200000,85864.69000000,85911.72000000,85602.32000000,85866.88000000,188.52209000
1763882100000,85866.88000000,85895.05000000,85420.00000000,85522.67000000,305.23107000
1763883000000,85522.67000000,85723.45000000,85454.00000000,85703.52000000,144.08007000
1763883900000,85703.52000000,85805.44000000,85638.88000000,85782.19000000,90.56630000
1763884800000,85782.18000000,86075.19000000,85768.22000000,85988.32000000,176.46083000
1763885700000,85988.33000000,86115.43000000,85950.10000000,85988.88000000,105.95925000
1763886600000,85988.88000000,86022.00000000,85850.00000000,85857.78000000,98.85721000
1763887500000,85857.79000000,86196.94000000,85857.78000000,86137.19000000,173.21040000
1763888400000,86137.18000000,86238.86000000,86080.02000000,86225.00000000,77.25702000
1763889300000,86224.99000000,86256.48000000,86096.16000000,86161.43000000,118.21574000
1763890200000,86161.43000000,86465.24000000,86090.78000000,86449.99000000,123.12296000
1763891100000,86450.00000000,86463.58000000,86322.02000000,86393.02000000,108.64655000
1763892000000,86393.03000000,86452.00000000,86241.37000000,86285.71000000,84.04921000
1763892900000,86285.71000000,86383.48000000,86157.68000000,86164.30000000,107.51024000
1763893800000,86164.29000000,86317.30000000,86095.15000000,86233.40000000,70.70248000
1763894700000,86233.39000000,86278.14000000,86058.96000000,86066.23000000,167.36308000
1763895600000,86066.24000000,86066.24000000,85814.92000000,85945.94000000,275.76327000
1763896500000,85945.94000000,86138.99000000,85874.97000000,86046.47000000,196.12513000
1763897400000,86046.46000000,86277.60000000,86035.80000000,86256.38000000,76.47049000
1763898300000,86256.37000000,86421.00000000,86200.00000000,86331.28000000,127.68971000
1763899200000,86331.28000000,86630.78000000,86271.10000000,86597.45000000,183.85269000
1763900100000,86597.46000000,86855.14000000,86597.46000000,86777.01000000,311.94717000
1763901000000,86777.01000000,86892.00000000,86500.01000000,86596.76000000,281.62109000
1763901900000,86596.76000000,86682.44000000,86452.54000000,86530.04000000,140.06612000
1763902800000,86530.04000000,86752.76000000,86318.98000000,86351.43000000,192.52249000
1763903700000,86351.43000000,86639.98000000,86351.43000000,86478.51000000,108.88028000
1763904600000,86478.51000000,86735.10000000,86410.43000000,86709.83000000,129.55821000
1763905500000,86709.83000000,86934.00000000,86656.46000000,86928.31000000,215.37357000
1763906400000,86928.30000000,87200.00000000,86742.55000000,86811.57000000,515.54609000
1763907300000,86811.56000000,86849.48000000,86656.47000000,86789.86000000,140.38919000
1763908200000,86789.86000000,86944.69000000,86665.18000000,86770.33000000,180.88758000
1763909100000,86770.33000000,86845.14000000,86482.98000000,86547.40000000,311.47241000
1763910000000,86547.40000000,86767.87000000,86451.90000000,86709.02000000,186.60176000
1763910900000,86709.01000000,86813.24000000,86600.04000000,86692.61000000,132.44512000
1763911800000,86692.61000000,87060.00000000,86668.00000000,87016.81000000,189.82978000
1763912700000,87016.81000000,87244.51000000,86907.93000000,87087.44000000,250.37321000
1763913600000,87087.44000000,87500.00000000,87078.69000000,87193.96000000,426.06135000
1763914500000,87193.97000000,87208.91000000,86965.16000000,87065.55000000,236.90136000
1763915400000,87065.55000000,87420.00000000,86938.56000000,87344.01000000,385.36765000
1763916300000,87344.01000000,87349.01000000,86670.23000000,86685.60000000,400.82824000
1763917200000,86685.59000000,86827.95000000,86502.47000000,86710.70000000,305.14300000
1763918100000,86710.69000000,86918.90000000,86560.76000000,86889.24000000,174.92478000
1763919000000,86889.24000000,86957.45000000,86756.57000000,86877.00000000,123.68299000
1763919900000,86877.00000000,86883.92000000,86604.19000000,86746.51000000,148.79762000
1763920800000,86746.52000000,86930.55000000,86724.78000000,86798.69000000,116.45912000
1763921700000,86798.69000000,87178.18000000,86790.24000000,86888.47000000,187.69857000
1763922600000,86888.46000000,87259.58000000,86873.00000000,87198.94000000,122.16776000
1763923500000,87198.94000000,87198.95000000,86938.56000000,86995.02000000,157.77064000
1763924400000,86995.02000000,87251.82000000,86938.60000000,87239.60000000,113.23359000
1763925300000,87239.60000000,87541.18000000,87239.59000000,87332.64000000,199.29118000
1763926200000,87332.64000000,87689.47000000,87321.29000000,87631.34000000,370.27118000
1763927100000,87631.33000000,87656.85000000,87289.27000000,87325.01000000,243.35837000
1763928000000,87325.01000000,87515.33000000,87233.63000000,87451.62000000,178.94307000
1763928900000,87451.61000000,87694.68000000,87413.21000000,87623.91000000,183.91308000
1763929800000,87623.91000000,87650.46000000,87427.00000000,87529.87000000,189.99734000
1763930700000,87529.87000000,87594.44000000,87416.20000000,87483.36000000,173.86647000
1763931600000,87483.37000000,87537.08000000,87150.00000000,87288.92000000,183.06314000
1763932500000,87288.92000000,87596.74000000,87271.72000000,87596.74000000,100.49109000
1763933400000,87596.74000000,87816.78000000,87550.26000000,87656.84000000,144.31474000
1763934300000,87656.84000000,88000.00000000,87622.84000000,87992.02000000,220.10877000
1763935200000,87992.03000000,88127.64000000,87681.80000000,87748.33000000,301.12341000
1763936100000,87748.32000000,88000.00000000,87554.23000000,87904.34000000,225.54264000
1763937000000,87904.34000000,87904.34000000,87659.61000000,87760.72000000,152.44561000
1763937900000,87760.71000000,88050.00000000,87750.00000000,88004.00000000,127.29881000
1763938800000,88004.01000000,88086.96000000,87332.00000000,87332.00000000,351.89463000
1763939700000,87332.01000000,87429.44000000,86858.00000000,87064.04000000,448.60920000
1763940600000,87064.03000000,87064.03000000,86701.54000000,86854.24000000,330.47096000
1763941500000,86854.24000000,86938.57000000,86750.00000000,86830.00000000,234.48861000
1763942400000,86830.00000000,86830.00000000,86273.83000000,86334.53000000,378.88381000
1763943300000,86334.52000000,86468.79000000,85946.65000000,86445.49000000,461.88031000
1763944200000,86445.48000000,87000.00000000,86257.91000000,86879.16000000,296.49488000
1763945100000,86879.17000000,87211.33000000,86680.09000000,86740.64000000,255.03193000
1763946000000,86740.64000000,87000.00000000,86532.25000000,86773.74000000,214.55534000
1763946900000,86773.74000000,86924.83000000,86599.80000000,86827.47000000,181.86206000
1763947800000,86827.47000000,86849.55000000,86399.99000000,86531.40000000,284.38521000
1763948700000,86531.40000000,87091.31000000,86448.61000000,87068.51000000,277.50243000
1763949600000,87068.51000000,87959.01000000,87025.01000000,87912.90000000,568.37201000
1763950500000,87912.90000000,88059.44000000,87702.42000000,87713.86000000,344.86979000
1763951400000,87713.87000000,87800.00000000,87273.40000000,87389.18000000,254.70273000
1763952300000,87389.18000000,87518.23000000,87250.00000000,87518.22000000,122.46550000
1763953200000,87518.23000000,87583.21000000,87200.69000000,87325.49000000,157.14314000
1763954100000,87325.50000000,87788.00000000,87240.00000000,87616.78000000,156.03658000
1763955000000,87616.79000000,87693.40000000,87371.10000000,87453.69000000,132.25380000
1763955900000,87453.69000000,87518.70000000,87271.21000000,87460.02000000,231.72142000
1763956800000,87460.03000000,87600.00000000,87350.13000000,87350.13000000,115.51766000
1763957700000,87350.13000000,87350.13000000,86450.00000000,86602.88000000,409.68470000
1763958600000,86602.89000000,86849.99000000,86601.41000000,86718.00000000,216.67662000
1763959500000,86718.00000000,86833.83000000,86602.88000000,86738.37000000,137.07911000
1763960400000,86738.36000000,87697.15000000,86675.82000000,87575.93000000,242.30560000
1763961300000,87575.94000000,87837.57000000,87500.00000000,87630.50000000,234.50436000
1763962200000,87630.49000000,87651.07000000,87421.61000000,87557.03000000,131.45679000
1763963100000,87557.03000000,87573.24000000,87276.00000000,87468.29000000,144.98542000
1763964000000,87468.28000000,87518.06000000,86921.90000000,86936.78000000,209.04877000
1763964900000,86936.86000000,87175.12000000,86936.86000000,87161.43000000,153.43926000
1763965800000,87161.43000000,87161.43000000,86860.00000000,87041.17000000,224.52634000
1763966700000,87041.18000000,87100.00000000,86819.98000000,86910.78000000,214.37143000
1763967600000,86910.77000000,86950.00000000,86700.00000000,86863.05000000,175.15083000
1763968500000,86863.05000000,87041.18000000,86750.00000000,86880.36000000,153.92334000
1763969400000,86880.36000000,87339.86000000,86811.32000000,87307.78000000,275.64047000
1763970300000,87307.77000000,87350.00000000,86972.00000000,87050.39000000,238.02890000
1763971200000,87050.39000000,87050.39000000,86734.43000000,86923.66000000,244.39514000
1763972100000,86923.66000000,87026.75000000,86800.67000000,86832.99000000,105.46605000
1763973000000,86832.99000000,86910.58000000,86733.33000000,86835.94000000,98.79489000
1763973900000,86835.95000000,87030.00000000,86724.78000000,86961.51000000,114.42389000
1763974800000,86961.50000000,86961.50000000,86544.99000000,86613.63000000,234.45915000
1763975700000,86613.63000000,86622.29000000,85852.00000000,85943.63000000,501.60985000
1763976600000,85943.64000000,86185.97000000,85825.84000000,85992.01000000,304.26590000
1763977500000,85992.01000000,86117.67000000,85944.91000000,85944.91000000,183.83770000
1763978400000,85944.91000000,86190.00000000,85884.00000000,85906.54000000,309.15506000
1763979300000,85906.54000000,86035.10000000,85756.68000000,85825.31000000,360.72504000
1763980200000,85825.32000000,86050.00000000,85696.56000000,85932.99000000,316.08320000
1763981100000,85933.00000000,86116.02000000,85912.44000000,86049.74000000,120.40888000
1763982000000,86049.74000000,86205.78000000,85840.00000000,86093.44000000,152.30363000
1763982900000,86093.44000000,86195.22000000,85980.00000000,86079.57000000,162.74826000
1763983800000,86079.57000000,86400.00000000,86079.56000000,86399.97000000,169.88253000
1763984700000,86399.97000000,86433.93000000,86250.00000000,86264.72000000,105.95022000
1763985600000,86264.71000000,86264.71000000,85955.03000000,86025.94000000,239.63582000
1763986500000,86025.94000000,86200.00000000,85924.12000000,86199.98000000,140.04167000
1763987400000,86199.98000000,86318.00000000,85889.25000000,85945.63000000,230.97264000
1763988300000,85945.63000000,86139.20000000,85888.00000000,86003.00000000,165.85296000
1763989200000,86003.00000000,86502.47000000,85947.91000000,86341.99000000,241.44845000
1763990100000,86341.99000000,86546.18000000,86183.85000000,86513.50000000,224.80507000
1763991000000,86513.49000000,86573.99000000,86370.03000000,86539.36000000,139.95181000
1763991900000,86539.35000000,86539.36000000,86072.00000000,86160.00000000,168.53900000
1763992800000,86159.84000000,86159.84000000,85908.00000000,86064.27000000,168.13064000
1763993700000,86064.28000000,86100.00000000,85912.44000000,85935.63000000,145.29659000
1763994600000,85935.62000000,86660.01000000,85500.00000000,85573.93000000,759.07981000
1763995500000,85573.93000000,86171.14000000,85272.00000000,86171.14000000,557.09087000
1763996400000,86171.22000000,86741.50000000,86097.80000000,86534.78000000,598.78181000
1763997300000,86534.74000000,86573.64000000,85913.44000000,86086.82000000,294.81165000
1763998200000,86086.82000000,86639.61000000,85978.80000000,86523.36000000,325.08759000
1763999100000,86523.36000000,86734.07000000,86373.91000000,86616.44000000,235.98324000
1764000000000,86616.44000000,87215.70000000,86616.43000000,86887.59000000,459.70273000
1764000900000,86887.59000000,87333.33000000,86881.83000000,87229.98000000,382.34983000
1764001800000,87229.97000000,87531.93000000,87052.41000000,87500.95000000,319.66565000
1764002700000,87500.95000000,87700.00000000,87170.02000000,87174.50000000,436.26249000
1764003600000,87174.50000000,87330.74000000,86950.51000000,86996.35000000,281.98114000
1764004500000,86996.34000000,87739.00000000,86952.16000000,87717.41000000,344.59352000
1764005400000,87717.41000000,88013.15000000,87628.79000000,87936.97000000,491.88694000
1764006300000,87936.97000000,88550.68000000,87871.56000000,88369.91000000,595.71953000
1764007200000,88369.91000000,88595.23000000,88211.28000000,88486.69000000,595.88732000
1764008100000,88488.00000000,88527.59000000,88224.82000000,88359.19000000,325.38476000
1764009000000,88359.20000000,88489.05000000,88200.00000000,88407.14000000,286.04929000
1764009900000,88407.15000000,88732.25000000,88407.14000000,88715.31000000,267.88373000
1764010800000,88715.30000000,88834.62000000,88510.17000000,88683.47000000,402.18175000
1764011700000,88683.47000000,88770.53000000,88500.00000000,88635.70000000,157.59124000
1764012600000,88635.70000000,88803.37000000,88354.62000000,88436.67000000,338.15496000
1764013500000,88436.66000000,88470.69000000,88115.16000000,88327.29000000,318.61759000
1764014400000,88327.29000000,88779.90000000,88327.29000000,88649.20000000,356.64409000
1764015300000,88649.20000000,88886.79000000,88601.80000000,88884.61000000,253.76417000
1764016200000,88884.61000000,88970.64000000,88754.32000000,88939.66000000,266.91571000
1764017100000,88939.66000000,89228.00000000,88939.65000000,89089.06000000,472.14349000
1764018000000,89089.06000000,89132.00000000,88900.00000000,89047.14000000,217.50669000
1764018900000,89047.15000000,89060.00000000,88862.80000000,88917.31000000,105.45589000
1764019800000,88917.31000000,89094.00000000,88775.52000000,88775.53000000,139.62845000
1764020700000,88775.53000000,88880.55000000,88720.97000000,88766.15000000,139.13542000
1764021600000,88766.15000000,89091.96000000,88758.03000000,89035.49000000,130.38500000
1764022500000,89035.50000000,89039.51000000,88726.00000000,88784.35000000,158.51526000
1764023400000,88784.35000000,88935.75000000,88784.34000000,88844.39000000,95.85934000
1764024300000,88844.38000000,88844.39000000,88598.00000000,88636.54000000,138.22162000
1764025200000,88636.54000000,88690.00000000,88500.03000000,88522.00000000,135.22694000
1764026100000,88522.01000000,88617.56000000,88500.00000000,88617.55000000,111.39722000
1764027000000,88617.55000000,88617.55000000,88321.00000000,88428.56000000,115.68825000
1764027900000,88428.56000000,88428.57000000,88252.50000000,88300.01000000,108.20839000
1764028800000,88300.01000000,88300.01000000,88000.00000000,88032.92000000,233.30705000
1764029700000,88032.91000000,88081.63000000,87869.37000000,87887.28000000,188.53803000
1764030600000,87887.28000000,88279.50000000,87864.63000000,88187.03000000,214.72367000
1764031500000,88187.03000000,88253.52000000,87975.50000000,88100.00000000,148.07411000
1764032400000,88100.00000000,88193.94000000,87900.43000000,88134.92000000,143.94301000
