timestamp,open,high,low,close,volume
1761620400000,113936.93000000,114109.86000000,113717.00000000,113731.02000000,160.09435000
1761621300000,113732.45000000,113998.78000000,113732.45000000,113958.29000000,115.50045000
1761622200000,113958.30000000,113988.00000000,113771.75000000,113836.13000000,85.61778000
1761623100000,113836.14000000,113958.65000000,113772.63000000,113908.24000000,96.08514000
1761624000000,113908.25000000,113944.00000000,113761.71000000,113924.00000000,94.05563000
1761624900000,113923.99000000,113961.67000000,113834.24000000,113857.00000000,150.59218000
1761625800000,113857.00000000,113966.01000000,113804.98000000,113875.78000000,124.40204000
1761626700000,113875.78000000,114076.91000000,113875.77000000,113964.59000000,71.07522000
1761627600000,113964.60000000,113964.60000000,113824.03000000,113824.04000000,87.28509000
1761628500000,113824.04000000,113981.73000000,113800.00000000,113958.53000000,125.70606000
1761629400000,113958.53000000,113958.53000000,113708.63000000,113708.63000000,103.47098000
1761630300000,113708.63000000,113789.45000000,113483.30000000,113605.31000000,312.25426000
1761631200000,113605.32000000,113825.09000000,113605.32000000,113799.40000000,94.74761000
1761632100000,113799.40000000,113900.00000000,113741.72000000,113840.02000000,159.08671000
1761633000000,113840.01000000,114044.33000000,113789.99000000,114007.80000000,132.17359000
1761633900000,114007.79000000,114186.01000000,113998.03000000,114115.52000000,156.51125000
1761634800000,114115.52000000,114315.79000000,114091.51000000,114117.81000000,131.94130000
1761635700000,114117.82000000,114319.85000000,114099.74000000,114267.02000000,156.14298000
1761636600000,114267.01000000,114271.04000000,114112.30000000,114257.99000000,139.60026000
1761637500000,114257.99000000,114364.99000000,114177.38000000,114188.37000000,151.63354000
1761638400000,114188.38000000,114236.45000000,114113.30000000,114118.96000000,56.85924000
1761639300000,114118.96000000,114436.25000000,114118.95000000,114371.73000000,77.64321000
1761640200000,114371.74000000,114480.19000000,114348.56000000,114421.63000000,98.65959000
1761641100000,114421.63000000,114478.81000000,114370.03000000,114427.23000000,74.36624000
1761642000000,114427.23000000,114634.46000000,114325.00000000,114374.35000000,134.02619000
1761642900000,114374.35000000,114423.77000000,114205.28000000,114234.92000000,90.13569000
1761643800000,114234.91000000,114526.36000000,114234.91000000,114478.01000000,82.81374000
1761644700000,114478.00000000,114558.12000000,114439.61000000,114528.60000000,66.32982000
1761645600000,114528.61000000,114542.02000000,114444.78000000,114494.52000000,43.98083000
1761646500000,114494.51000000,114545.50000000,114455.55000000,114545.49000000,50.26225000
1761647400000,114545.50000000,114545.50000000,114429.78000000,114533.24000000,54.53398000
1761648300000,114533.24000000,114608.78000000,114514.63000000,114595.71000000,81.23554000
1761649200000,114595.70000000,114609.21000000,114470.96000000,114523.12000000,66.83502000
1761650100000,114523.11000000,114599.95000000,114486.42000000,114553.67000000,58.17543000
1761651000000,114553.68000000,114673.68000000,114460.00000000,114507.58000000,78.29520000
1761651900000,114507.59000000,114507.59000000,114297.06000000,114357.73000000,122.78171000
1761652800000,114357.72000000,114394.45000000,114266.66000000,114320.81000000,111.91973000
1761653700000,114320.82000000,114320.82000000,114138.06000000,114190.46000000,83.26577000
1761654600000,114190.47000000,114381.03000000,114179.10000000,114375.68000000,132.45716000
1761655500000,114375.69000000,114517.29000000,114368.75000000,114449.55000000,94.28830000
1761656400000,114449.55000000,114857.14000000,114449.55000000,114759.98000000,173.83960000
1761657300000,114759.97000000,115166.00000000,114759.97000000,115070.49000000,317.51560000
1761658200000,115070.49000000,115228.48000000,114870.95000000,115139.00000000,221.89954000
1761659100000,115138.99000000,115522.91000000,115115.31000000,115522.90000000,332.33801000
1761660000000,115522.91000000,115822.71000000,115333.87000000,115783.50000000,293.57833000
1761660900000,115783.50000000,116086.00000000,115694.80000000,115923.99000000,420.58302000
1761661800000,115924.00000000,115962.61000000,114566.67000000,114773.43000000,573.63989000
1761662700000,114773.42000000,115260.00000000,114223.63000000,115068.17000000,532.83715000
1761663600000,115068.18000000,115425.84000000,115068.18000000,115335.17000000,215.29548000
1761664500000,115335.17000000,115335.17000000,115025.42000000,115028.74000000,114.67189000
1761665400000,115028.74000000,115073.09000000,114516.00000000,114543.75000000,266.55310000
1761666300000,114543.75000000,114915.25000000,114543.74000000,114641.38000000,123.82999000
1761667200000,114641.38000000,114899.99000000,114530.00000000,114862.92000000,167.42163000
1761668100000,114862.92000000,115150.60000000,114661.42000000,115076.48000000,154.97684000
1761669000000,115076.49000000,115364.19000000,114944.77000000,115086.90000000,257.21684000
1761669900000,115086.90000000,115500.00000000,115086.90000000,115341.59000000,175.03328000
1761670800000,115341.59000000,115564.72000000,115268.88000000,115486.64000000,163.75975000
1761671700000,115486.64000000,115591.41000000,115406.06000000,115465.56000000,80.51070000
1761672600000,115465.57000000,115577.48000000,115229.45000000,115523.12000000,91.75214000
1761673500000,115523.12000000,115533.47000000,115283.53000000,115290.00000000,100.84231000
1761674400000,115289.99000000,115361.61000000,115126.30000000,115316.09000000,83.19838000
1761675300000,115316.09000000,115366.45000000,114844.37000000,114901.03000000,110.21207000
1761676200000,114901.04000000,115006.48000000,114642.94000000,114750.01000000,90.29013000
1761677100000,114750.01000000,115022.80000000,114653.00000000,115022.80000000,86.62263000
1761678000000,115022.80000000,115075.08000000,114823.52000000,114823.52000000,80.57387000
1761678900000,114823.52000000,114823.52000000,113717.00000000,113717.01000000,562.03551000
1761679800000,113717.00000000,114141.51000000,113589.46000000,114006.54000000,284.49300000
1761680700000,114006.54000000,114032.85000000,113566.44000000,113689.99000000,230.85628000
1761681600000,113689.00000000,113703.32000000,112755.00000000,112922.71000000,718.36376000
1761682500000,112922.70000000,112948.43000000,112443.46000000,112538.83000000,572.52652000
1761683400000,112538.84000000,113057.65000000,112324.82000000,112745.00000000,316.65732000
1761684300000,112745.00000000,112921.14000000,112622.61000000,112808.05000000,130.46029000
1761685200000,112808.05000000,112808.05000000,112211.00000000,112692.28000000,332.46706000
1761686100000,112692.28000000,112777.80000000,112579.98000000,112734.80000000,112.18417000
1761687000000,112734.80000000,113126.45000000,112654.99000000,113126.45000000,168.30691000
1761687900000,113126.45000000,113225.53000000,112978.88000000,112994.40000000,113.27724000
1761688800000,112994.41000000,113158.41000000,112839.71000000,112850.45000000,105.30506000
1761689700000,112850.46000000,113142.51000000,112838.81000000,113142.51000000,76.11845000
1761690600000,113142.51000000,113289.02000000,113121.86000000,113248.17000000,80.41133000
1761691500000,113248.17000000,113270.87000000,113177.25000000,113224.08000000,74.23505000
1761692400000,113224.08000000,113224.08000000,112979.19000000,113028.51000000,116.56266000
1761693300000,113028.51000000,113149.02000000,112779.57000000,112897.82000000,100.45076000
1761694200000,112897.81000000,113092.26000000,112872.48000000,112960.87000000,99.86700000
1761695100000,112960.87000000,113054.85000000,112883.72000000,112898.45000000,66.16590000
1761696000000,112898.44000000,112898.45000000,112686.00000000,112740.19000000,189.98060000
1761696900000,112740.20000000,112816.99000000,112636.73000000,112696.08000000,72.02309000
1761697800000,112696.08000000,112765.05000000,112614.99000000,112614.99000000,87.48137000
1761698700000,112615.00000000,112638.99000000,112442.87000000,112442.88000000,155.81365000
1761699600000,112442.87000000,112584.79000000,112261.51000000,112317.71000000,189.88652000
1761700500000,112317.72000000,112373.06000000,112100.00000000,112216.60000000,221.35022000
1761701400000,112216.59000000,112975.75000000,112216.59000000,112689.65000000,324.84176000
1761702300000,112689.65000000,112702.47000000,112263.09000000,112500.03000000,180.58566000
1761703200000,112500.03000000,112555.48000000,112435.02000000,112500.00000000,55.39313000
1761704100000,112500.00000000,112780.00000000,112414.47000000,112688.00000000,133.87627000
1761705000000,112688.01000000,112688.01000000,112540.81000000,112575.59000000,70.89870000
1761705900000,112575.59000000,112733.11000000,112541.20000000,112666.75000000,92.52914000
1761706800000,112666.75000000,112666.75000000,112339.77000000,112458.33000000,105.79698000
1761707700000,112458.33000000,112564.31000000,112375.95000000,112486.02000000,94.85436000
1761708600000,112486.02000000,112600.00000000,112486.02000000,112543.46000000,66.30652000
1761709500000,112543.46000000,112580.00000000,112500.00000000,112523.49000000,34.60344000
1761710400000,112523.49000000,112660.00000000,112505.58000000,112659.99000000,56.85042000
1761711300000,112660.00000000,112776.27000000,112659.99000000,112711.97000000,87.60810000
1761712200000,112711.98000000,112878.65000000,112687.31000000,112735.29000000,89.88984000
1761713100000,112735.29000000,112862.30000000,112735.28000000,112810.55000000,77.15620000
1761714000000,112810.56000000,112969.98000000,112807.34000000,112888.22000000,110.08302000
1761714900000,112888.22000000,113087.44000000,112888.22000000,112972.01000000,164.06693000
1761715800000,112972.00000000,113379.00000000,112931.97000000,113200.19000000,257.44477000
1761716700000,113200.19000000,113203.31000000,113027.15000000,113039.10000000,109.34293000
1761717600000,113039.09000000,113250.00000000,112979.09000000,113091.00000000,106.63818000
1761718500000,113091.00000000,113105.86000000,113003.06000000,113055.58000000,62.97465000
1761719400000,113055.59000000,113128.65000000,112976.93000000,113049.09000000,116.10800000
1761720300000,113049.10000000,113348.78000000,113049.09000000,113284.20000000,157.86003000
1761721200000,113284.21000000,113319.64000000,113240.01000000,113265.19000000,130.77036000
1761722100000,113265.19000000,113476.00000000,113253.22000000,113444.20000000,152.24781000
1761723000000,113444.21000000,113450.27000000,113243.70000000,113293.20000000,179.52986000
1761723900000,113293.20000000,113577.90000000,113260.76000000,113577.90000000,178.06216000
1761724800000,113577.90000000,113624.12000000,113332.85000000,113332.85000000,111.66391000
1761725700000,113332.86000000,113450.00000000,113283.81000000,113311.24000000,116.89171000
1761726600000,113311.24000000,113325.06000000,113008.85000000,113119.24000000,164.27974000
1761727500000,113119.25000000,113183.89000000,112956.00000000,113070.94000000,114.43145000
1761728400000,113070.94000000,113105.08000000,112880.00000000,112880.01000000,145.03448000
1761729300000,112880.00000000,113079.77000000,112880.00000000,112943.67000000,94.57031000
1761730200000,112943.68000000,112958.52000000,112768.63000000,112937.79000000,199.34022000
1761731100000,112937.80000000,113060.52000000,112865.67000000,112974.44000000,220.62787000
1761732000000,112974.44000000,113083.48000000,112888.85000000,112894.85000000,135.90387000
1761732900000,112894.85000000,113108.77000000,112870.76000000,113038.65000000,87.07664000
1761733800000,113038.65000000,113186.58000000,112997.64000000,113028.63000000,75.95007000
1761734700000,113028.63000000,113099.99000000,112732.91000000,112870.01000000,126.94072000
1761735600000,112870.00000000,113088.00000000,112741.26000000,113031.30000000,99.04689000
1761736500000,113031.31000000,113170.00000000,112993.36000000,113129.97000000,83.31099000
1761737400000,113129.97000000,113240.72000000,113023.86000000,113023.86000000,132.86215000
1761738300000,113023.86000000,113180.99000000,113023.86000000,113132.36000000,63.06224000
1761739200000,113132.35000000,113325.13000000,113132.35000000,113256.97000000,86.89706000
1761740100000,113256.97000000,113290.59000000,113074.00000000,113074.01000000,94.26806000
1761741000000,113074.01000000,113182.57000000,113050.01000000,113154.54000000,70.29301000
1761741900000,113154.54000000,113275.68000000,113084.33000000,113139.13000000,91.92655000
1761742800000,113139.13000000,113398.51000000,113097.24000000,113357.04000000,180.65289000
1761743700000,113357.04000000,113643.73000000,113336.81000000,113543.16000000,285.80022000
1761744600000,113543.17000000,113602.35000000,112926.00000000,113017.11000000,335.44095000
1761745500000,113017.11000000,113059.04000000,112705.00000000,112873.07000000,354.03035000
1761746400000,112873.08000000,112916.00000000,112484.95000000,112703.23000000,388.99269000
1761747300000,112703.23000000,112703.23000000,112234.74000000,112317.10000000,338.63472000
1761748200000,112317.10000000,112692.30000000,112246.41000000,112550.00000000,199.75737000
1761749100000,112550.01000000,112729.31000000,112317.10000000,112488.44000000,257.95748000
1761750000000,112488.45000000,112564.31000000,112220.01000000,112255.73000000,367.39006000
1761750900000,112255.74000000,112479.47000000,112000.00000000,112029.70000000,397.69044000
1761751800000,112029.70000000,112158.00000000,111672.99000000,111750.94000000,557.07036000
1761752700000,111750.94000000,111886.29000000,111401.50000000,111509.74000000,599.59390000
1761753600000,111509.74000000,111523.32000000,110960.00000000,111052.16000000,569.92524000
1761754500000,111052.15000000,111399.99000000,110983.80000000,111160.64000000,316.86574000
1761755400000,111160.63000000,111415.23000000,111100.00000000,111321.23000000,248.76111000
1761756300000,111321.22000000,111321.22000000,111089.98000000,111106.35000000,252.81095000
1761757200000,111106.35000000,111343.94000000,111070.43000000,111114.18000000,260.28767000
1761758100000,111114.18000000,111226.65000000,111002.23000000,111195.87000000,144.81707000
1761759000000,111195.86000000,111807.99000000,111153.76000000,111689.30000000,218.20390000
1761759900000,111689.30000000,111922.44000000,111626.60000000,111883.49000000,187.88101000
1761760800000,111883.50000000,112030.23000000,111112.36000000,111214.00000000,753.24679000
1761761700000,111214.00000000,111580.37000000,111174.61000000,111433.33000000,187.20915000
1761762600000,111433.34000000,111772.04000000,109200.00000000,109756.51000000,2633.85073000
1761763500000,109756.51000000,111277.33000000,109677.52000000,110806.38000000,797.88306000
1761764400000,110806.38000000,111438.65000000,110732.00000000,111300.32000000,455.88675000
1761765300000,111300.32000000,111400.00000000,110870.00000000,110947.53000000,269.88663000
1761766200000,110947.53000000,110966.26000000,110157.03000000,110385.26000000,280.43171000
1761767100000,110385.26000000,110853.14000000,110385.26000000,110640.00000000,163.89130000
1761768000000,110640.00000000,110858.31000000,110403.28000000,110587.73000000,297.71356000
1761768900000,110587.73000000,111348.11000000,110507.50000000,111329.97000000,191.38410000
1761769800000,111329.98000000,111381.77000000,111145.10000000,111261.29000000,105.43089000
1761770700000,111261.28000000,111538.16000000,111221.39000000,111433.46000000,133.98160000
1761771600000,111433.45000000,111541.98000000,111368.02000000,111389.11000000,93.92248000
1761772500000,111389.11000000,111566.34000000,111389.11000000,111545.71000000,64.47330000
1761773400000,111545.72000000,111800.00000000,111545.72000000,111612.12000000,135.89493000
1761774300000,111612.13000000,111687.51000000,111460.00000000,111617.26000000,110.78770000
1761775200000,111617.26000000,111618.46000000,111242.53000000,111442.04000000,217.71619000
1761776100000,111442.03000000,111511.30000000,111180.00000000,111220.18000000,78.63949000
1761777000000,111220.17000000,111252.44000000,111112.40000000,111132.86000000,56.92181000
1761777900000,111132.86000000,111250.00000000,110949.68000000,111028.20000000,93.97364000
1761778800000,111028.20000000,111077.76000000,110584.94000000,110584.95000000,316.45910000
1761779700000,110584.95000000,110733.21000000,110437.14000000,110463.59000000,149.21777000
1761780600000,110463.60000000,110463.60000000,109733.22000000,110003.25000000,436.02583000
1761781500000,110003.25000000,110153.84000000,109920.00000000,110021.29000000,165.08852000
1761782400000,110021.30000000,110154.82000000,109703.43000000,110150.92000000,214.68383000
1761783300000,110150.92000000,110402.52000000,110108.62000000,110386.98000000,166.94774000
1761784200000,110386.99000000,110519.81000000,110254.65000000,110440.23000000,175.45478000
1761785100000,110440.23000000,110583.86000000,110373.57000000,110559.48000000,92.50543000
1761786000000,110559.48000000,110611.74000000,110257.77000000,110505.02000000,145.66562000
1761786900000,110505.02000000,110595.70000000,110300.00000000,110382.70000000,106.50894000
1761787800000,110382.70000000,110611.05000000,110380.00000000,110607.09000000,120.83440000
1761788700000,110607.09000000,110725.64000000,110432.48000000,110460.76000000,202.63058000
1761789600000,110460.75000000,110595.51000000,110331.04000000,110595.51000000,120.23203000
1761790500000,110595.51000000,110985.84000000,110595.50000000,110918.62000000,150.58297000
1761791400000,110918.62000000,110999.95000000,110913.66000000,110973.46000000,98.90405000
1761792300000,110973.46000000,111011.99000000,110820.18000000,110985.92000000,118.49558000
1761793200000,110985.93000000,110985.93000000,110672.00000000,110778.00000000,168.91049000
1761794100000,110778.00000000,110874.00000000,110734.38000000,110783.89000000,127.74153000
1761795000000,110783.88000000,110914.23000000,110706.05000000,110726.64000000,150.89561000
1761795900000,110726.64000000,110816.85000000,110538.68000000,110751.47000000,181.19224000
1761796800000,110751.48000000,110761.43000000,109900.00000000,110011.49000000,489.05491000
1761797700000,110011.48000000,110152.37000000,108001.49000000,108390.02000000,1491.67402000
1761798600000,108390.02000000,109460.46000000,107925.06000000,108977.40000000,1185.61595000
1761799500000,108977.41000000,109246.48000000,108546.68000000,108575.27000000,370.62017000
1761800400000,108575.26000000,109020.00000000,108420.00000000,109006.89000000,300.60960000
1761801300000,109006.88000000,109200.00000000,108801.57000000,109163.95000000,227.63286000
1761802200000,109163.95000000,109923.07000000,109110.70000000,109917.23000000,356.36352000
1761803100000,109917.23000000,110434.58000000,109848.53000000,110248.29000000,327.56830000
1761804000000,110248.28000000,110295.96000000,110075.48000000,110180.00000000,246.25402000
1761804900000,110180.00000000,110244.50000000,109978.01000000,110176.27000000,191.33254000
1761805800000,110176.28000000,110921.60000000,110150.85000000,110896.13000000,367.91917000
1761806700000,110896.12000000,110964.09000000,110748.27000000,110768.01000000,195.32324000
1761807600000,110768.01000000,111325.50000000,110639.25000000,111220.02000000,282.08225000
1761808500000,111220.02000000,111592.00000000,111192.03000000,111274.25000000,283.39064000
1761809400000,111274.26000000,111376.99000000,111193.70000000,111376.98000000,155.72209000
1761810300000,111376.99000000,111440.52000000,111259.20000000,111366.72000000,110.60307000
1761811200000,111366.72000000,111467.01000000,110842.16000000,110851.05000000,726.44128000
1761812100000,110851.05000000,110979.64000000,110681.22000000,110681.23000000,219.21175000
1761813000000,110681.23000000,110921.65000000,110681.23000000,110879.61000000,96.19330000
1761813900000,110879.61000000,110889.31000000,110694.40000000,110714.31000000,145.36985000
1761814800000,110714.31000000,110814.00000000,110385.23000000,110417.57000000,286.73421000
1761815700000,110417.57000000,110469.00000000,110125.17000000,110415.40000000,153.71841000
1761816600000,110415.41000000,110530.91000000,110132.26000000,110193.38000000,121.69076000
1761817500000,110193.38000000,110370.52000000,110160.03000000,110171.69000000,96.96783000
1761818400000,110171.68000000,110231.92000000,109829.54000000,109878.01000000,226.79660000
1761819300000,109878.01000000,110164.86000000,109878.00000000,110065.80000000,163.17307000
1761820200000,110065.81000000,110186.00000000,109912.22000000,109912.22000000,102.77231000
1761821100000,109912.23000000,110194.83000000,109899.97000000,110105.75000000,80.41325000
1761822000000,110105.75000000,110144.25000000,109938.45000000,110010.88000000,69.01587000
1761822900000,110010.89000000,110063.74000000,109702.05000000,109922.74000000,220.73240000
1761823800000,109922.74000000,110063.21000000,109850.00000000,109945.89000000,115.08805000
1761824700000,109945.89000000,110075.03000000,109692.30000000,109717.29000000,146.22319000
1761825600000,109717.19000000,109777.93000000,109363.92000000,109426.96000000,203.49961000
1761826500000,109426.92000000,109500.00000000,108668.36000000,108784.30000000,472.59514000
1761827400000,108784.30000000,109104.99000000,108500.00000000,108500.27000000,426.34136000
1761828300000,108500.27000000,108668.20000000,108280.65000000,108387.86000000,347.05042000
1761829200000,108387.86000000,108728.54000000,108299.42000000,108539.96000000,774.91812000
1761830100000,108539.95000000,108557.55000000,108166.00000000,108461.22000000,416.35455000
1761831000000,108461.23000000,108538.46000000,107400.00000000,107473.00000000,1070.76903000
1761831900000,107473.01000000,108173.85000000,107419.47000000,107627.16000000,606.49534000
1761832800000,107627.15000000,108267.31000000,107610.44000000,108098.96000000,376.35208000
1761833700000,108098.96000000,108098.96000000,107777.77000000,107962.66000000,220.61741000
1761834600000,107962.67000000,108347.59000000,107843.51000000,108319.21000000,306.71533000
1761835500000,108319.22000000,108374.21000000,107919.24000000,108285.54000000,302.48863000
1761836400000,108285.54000000,108350.44000000,107900.00000000,107976.48000000,202.10365000
1761837300000,107976.48000000,107987.17000000,107758.39000000,107860.80000000,302.00891000
1761838200000,107860.80000000,107877.05000000,107480.00000000,107676.35000000,272.59990000
1761839100000,107676.34000000,107802.59000000,107328.00000000,107711.56000000,243.20140000
1761840000000,107711.56000000,108177.74000000,107559.98000000,108076.11000000,284.69958000
1761840900000,108076.11000000,108214.85000000,107900.00000000,108150.00000000,139.18143000
1761841800000,108150.00000000,108188.68000000,107946.61000000,108015.76000000,135.62874000
1761842700000,108015.76000000,108144.58000000,107946.61000000,108144.57000000,108.03876000
1761843600000,108144.58000000,108150.56000000,107470.64000000,107507.13000000,214.71593000
1761844500000,107507.13000000,107507.14000000,106801.00000000,107149.62000000,675.28935000
1761845400000,107149.62000000,107249.99000000,106850.00000000,107183.09000000,292.61007000
1761846300000,107183.09000000,107677.43000000,107183.08000000,107486.69000000,309.86447000
1761847200000,107486.69000000,107508.43000000,107231.55000000,107316.98000000,200.84745000
1761848100000,107316.98000000,107399.99000000,107210.56000000,107351.30000000,180.87193000
1761849000000,107351.30000000,107556.65000000,106929.11000000,106988.72000000,216.36512000
1761849900000,106988.71000000,107239.46000000,106791.78000000,106837.09000000,168.45703000
1761850800000,106837.09000000,107158.62000000,106716.71000000,106901.29000000,270.15421000
1761851700000,106901.29000000,107100.00000000,106659.90000000,107007.24000000,231.42060000
1761852600000,107007.24000000,107153.84000000,106304.34000000,106742.85000000,495.23821000
1761853500000,106742.86000000,107028.65000000,106346.00000000,106536.39000000,443.87920000
1761854400000,106536.39000000,107085.52000000,106316.17000000,106873.80000000,408.39327000
1761855300000,106873.80000000,107218.32000000,106852.23000000,107188.34000000,228.89451000
1761856200000,107188.33000000,107470.00000000,106830.86000000,107304.80000000,335.17912000
1761857100000,107304.81000000,107652.00000000,107237.52000000,107510.91000000,232.58535000
1761858000000,107510.91000000,107659.84000000,107401.84000000,107550.97000000,197.41592000
1761858900000,107550.97000000,107761.21000000,107400.00000000,107642.40000000,199.11741000
1761859800000,107642.40000000,107875.12000000,107438.36000000,107660.01000000,225.37071000
1761860700000,107660.00000000,107950.00000000,107607.65000000,107907.68000000,224.26515000
1761861600000,107907.67000000,107939.00000000,107638.63000000,107659.74000000,105.11956000
1761862500000,107659.73000000,107779.14000000,107596.89000000,107596.90000000,66.99740000
1761863400000,107596.89000000,107693.54000000,107472.00000000,107657.25000000,82.89883000
1761864300000,107657.25000000,107912.81000000,107585.07000000,107912.81000000,78.77272000
1761865200000,107912.81000000,107939.25000000,107600.01000000,107654.14000000,79.50798000
1761866100000,107654.14000000,107746.41000000,107607.62000000,107714.35000000,115.55577000
1761867000000,107714.35000000,108307.69000000,107703.31000000,107931.56000000,416.19720000
1761867900000,107931.57000000,108334.53000000,107911.92000000,108322.88000000,186.69022000
1761868800000,108322.87000000,108657.59000000,108275.28000000,108657.59000000,324.35111000
1761869700000,108657.59000000,108668.37000000,108422.32000000,108516.41000000,156.29304000
1761870600000,108516.40000000,108698.50000000,108482.72000000,108698.50000000,88.50242000
1761871500000,108698.49000000,109586.94000000,108698.49000000,109317.21000000,515.28284000
1761872400000,109317.21000000,110042.16000000,109180.00000000,109769.70000000,616.34341000
1761873300000,109769.70000000,109986.41000000,109699.43000000,109850.40000000,324.67968000
1761874200000,109850.39000000,109850.40000000,109449.00000000,109547.49000000,280.41490000
1761875100000,109547.49000000,109795.00000000,109511.45000000,109619.77000000,181.27718000
1761876000000,109619.77000000,109685.32000000,109014.58000000,109056.79000000,332.68262000
1761876900000,109056.78000000,109474.56000000,109056.78000000,109358.59000000,159.56017000
1761877800000,109358.59000000,109407.21000000,108745.56000000,108790.60000000,150.66134000
1761878700000,108790.59000000,108963.05000000,108565.26000000,108857.99000000,223.88759000
1761879600000,108858.00000000,109241.40000000,108613.11000000,109041.49000000,321.18344000
1761880500000,109041.49000000,109164.00000000,108971.52000000,109093.82000000,159.60545000
1761881400000,109093.82000000,109320.00000000,108832.06000000,108881.56000000,165.92429000
1761882300000,108881.56000000,109324.40000000,108881.55000000,109227.86000000,173.63182000
1761883200000,109227.87000000,109548.00000000,109114.88000000,109392.84000000,190.92402000
1761884100000,109392.85000000,109888.00000000,109248.29000000,109791.61000000,299.40407000
1761885000000,109791.62000000,110215.00000000,109667.67000000,110068.24000000,418.99966000
1761885900000,110068.25000000,110192.56000000,109921.71000000,110084.02000000,223.75153000
1761886800000,110084.02000000,110084.03000000,109780.99000000,109807.89000000,349.60827000
1761887700000,109807.90000000,109946.46000000,109691.92000000,109890.14000000,369.49621000
1761888600000,109890.14000000,110023.68000000,109846.04000000,109892.94000000,120.60645000
1761889500000,109892.94000000,109993.34000000,109842.47000000,109899.15000000,99.29731000
1761890400000,109899.15000000,109968.71000000,109598.52000000,109699.99000000,147.88558000
1761891300000,109699.99000000,109751.84000000,109561.23000000,109691.18000000,164.11278000
1761892200000,109691.18000000,109717.79000000,109517.49000000,109517.49000000,102.19523000
1761893100000,109517.50000000,109650.00000000,109517.49000000,109650.00000000,118.02234000
1761894000000,109650.00000000,109763.16000000,109440.74000000,109757.33000000,144.02654000
1761894900000,109757.33000000,109807.90000000,109607.35000000,109676.24000000,133.05909000
1761895800000,109676.24000000,109757.06000000,109511.71000000,109511.71000000,299.48315000
1761896700000,109511.72000000,109561.70000000,109266.58000000,109449.31000000,417.59699000
1761897600000,109449.32000000,109745.91000000,109214.13000000,109222.46000000,232.50043000
1761898500000,109222.45000000,109876.17000000,109222.45000000,109830.83000000,199.57635000
1761899400000,109830.82000000,109881.17000000,109672.00000000,109809.52000000,104.75611000
1761900300000,109809.53000000,110100.00000000,109765.73000000,110062.44000000,182.80068000
1761901200000,110062.45000000,110353.00000000,110012.26000000,110144.59000000,201.63395000
1761902100000,110144.59000000,110450.00000000,109988.00000000,109998.84000000,222.23324000
1761903000000,109998.84000000,110077.22000000,109910.00000000,109954.86000000,106.35373000
1761903900000,109954.86000000,110057.49000000,109807.89000000,109848.39000000,102.71770000
1761904800000,109848.39000000,109950.00000000,109764.00000000,109774.27000000,86.20816000
1761905700000,109774.28000000,109932.00000000,109768.66000000,109846.49000000,85.30008000
1761906600000,109846.50000000,110117.32000000,109710.08000000,110086.70000000,128.44267000
1761907500000,110086.69000000,110086.70000000,109807.89000000,109819.20000000,75.11671000
1761908400000,109819.21000000,109869.55000000,109573.51000000,109574.44000000,122.25149000
1761909300000,109574.44000000,109683.18000000,109479.26000000,109521.37000000,140.11485000
1761910200000,109521.38000000,109653.98000000,109461.53000000,109595.65000000,94.78150000
1761911100000,109595.65000000,110550.00000000,109595.65000000,110415.61000000,355.03529000
1761912000000,110415.62000000,110681.00000000,110136.90000000,110174.61000000,303.00739000
1761912900000,110174.62000000,110497.14000000,110148.86000000,110170.08000000,191.16553000
1761913800000,110170.08000000,110319.99000000,109644.65000000,109768.20000000,295.18986000
1761914700000,109768.20000000,109840.94000000,109619.94000000,109653.19000000,114.73861000
1761915600000,109653.20000000,110056.00000000,109649.03000000,110035.01000000,87.03513000
1761916500000,110035.00000000,110240.00000000,109886.53000000,109922.59000000,168.86095000
1761917400000,109922.59000000,109922.59000000,109366.91000000,109614.89000000,558.29940000
1761918300000,109614.90000000,110220.86000000,109598.52000000,110157.54000000,350.12480000
1761919200000,110157.54000000,110575.74000000,109942.26000000,109971.02000000,474.03738000
1761920100000,109971.02000000,110094.84000000,109701.00000000,109805.08000000,285.92944000
1761921000000,109805.08000000,110100.00000000,109590.46000000,110028.59000000,549.93475000
1761921900000,110028.59000000,111054.61000000,109972.13000000,110790.14000000,1177.34022000
1761922800000,110790.14000000,111190.00000000,110409.00000000,110783.77000000,744.37688000
1761923700000,110784.00000000,110859.98000000,110396.91000000,110487.84000000,279.28004000
1761924600000,110487.84000000,110632.07000000,110233.36000000,110485.85000000,233.22032000
1761925500000,110485.84000000,110614.58000000,110132.02000000,110202.90000000,300.77620000
1761926400000,110202.90000000,110300.00000000,110000.00000000,110097.84000000,243.61838000
1761927300000,110097.84000000,110159.52000000,109806.37000000,110112.72000000,201.36125000
1761928200000,110112.71000000,110145.73000000,109606.10000000,109716.08000000,159.97682000
1761929100000,109716.08000000,109716.09000000,108671.25000000,108845.40000000,617.95569000
1761930000000,108845.40000000,109226.63000000,108635.77000000,108931.68000000,474.27714000
1761930900000,108931.69000000,109218.93000000,108635.00000000,109042.51000000,254.05561000
1761931800000,109042.50000000,109330.59000000,109016.99000000,109284.47000000,180.14116000
1761932700000,109284.47000000,109417.91000000,109251.45000000,109299.98000000,99.56538000
1761933600000,109299.98000000,109542.16000000,109299.98000000,109422.77000000,96.38743000
1761934500000,109422.77000000,109435.27000000,109202.07000000,109232.00000000,102.18595000
1761935400000,109232.01000000,109817.51000000,108974.76000000,109750.49000000,482.56881000
1761936300000,109750.49000000,109750.50000000,109322.07000000,109452.35000000,127.84375000
1761937200000,109452.20000000,109452.20000000,109114.52000000,109358.09000000,102.17748000
1761938100000,109358.09000000,109939.72000000,109351.12000000,109780.01000000,216.32143000
1761939000000,109780.01000000,110184.24000000,109777.06000000,109938.23000000,245.22278000
1761939900000,109938.22000000,110237.66000000,109792.13000000,109828.78000000,260.75155000
1761940800000,109828.78000000,109828.79000000,109560.29000000,109791.03000000,273.48744000
1761941700000,109791.04000000,109822.17000000,109640.08000000,109687.91000000,72.57191000
1761942600000,109687.91000000,109708.49000000,109500.00000000,109534.48000000,70.74773000
1761943500000,109534.47000000,109782.86000000,109438.12000000,109493.85000000,114.95662000
1761944400000,109493.84000000,109592.16000000,109329.15000000,109338.96000000,89.14206000
1761945300000,109338.97000000,109685.28000000,109338.96000000,109548.60000000,66.69375000
1761946200000,109548.60000000,109750.00000000,109451.11000000,109562.21000000,103.56976000
1761947100000,109562.21000000,109687.18000000,109547.52000000,109558.48000000,72.38212000
1761948000000,109558.48000000,109746.78000000,109483.66000000,109706.12000000,88.00060000
1761948900000,109706.13000000,109801.89000000,109588.30000000,109656.57000000,65.56377000
1761949800000,109656.56000000,109733.34000000,109630.00000000,109630.00000000,88.81633000
1761950700000,109630.00000000,109630.01000000,109570.87000000,109580.09000000,44.55459000
1761951600000,109580.08000000,109608.00000000,109544.49000000,109544.50000000,70.60500000
1761952500000,109544.49000000,109629.16000000,109540.55000000,109613.24000000,27.10994000
1761953400000,109613.23000000,109655.39000000,109518.22000000,109651.35000000,48.38352000
1761954300000,109651.35000000,109683.31000000,109608.00000000,109608.01000000,31.31828000
1761955200000,109608.01000000,109639.64000000,109415.29000000,109471.44000000,144.92674000
1761956100000,109471.44000000,109564.32000000,109394.81000000,109537.24000000,65.96458000
1761957000000,109537.23000000,109615.51000000,109433.07000000,109615.50000000,34.88193000
1761957900000,109615.51000000,109751.99000000,109615.50000000,109730.78000000,68.83398000
1761958800000,109730.78000000,109877.00000000,109724.92000000,109772.81000000,47.64798000
1761959700000,109772.81000000,109928.05000000,109699.84000000,109928.04000000,48.67105000
1761960600000,109928.05000000,110048.00000000,109779.99000000,109818.93000000,78.75499000
1761961500000,109818.93000000,109849.99000000,109734.10000000,109734.11000000,30.87653000
1761962400000,109734.10000000,109756.47000000,109509.21000000,109639.31000000,123.01876000
1761963300000,109639.30000000,109788.90000000,109639.30000000,109651.53000000,51.60880000
1761964200000,109651.54000000,109668.84000000,109478.09000000,109619.01000000,74.79402000
1761965100000,109619.00000000,109872.29000000,109619.00000000,109790.27000000,72.88743000
1761966000000,109790.27000000,109948.96000000,109789.17000000,109900.48000000,56.61686000
1761966900000,109900.48000000,110217.89000000,109900.47000000,110034.09000000,194.89303000
1761967800000,110034.09000000,110288.39000000,110026.90000000,110167.40000000,143.22112000
1761968700000,110167.39000000,110315.54000000,110123.79000000,110226.37000000,91.93302000
1761969600000,110226.38000000,110564.49000000,110226.37000000,110265.62000000,198.69969000
1761970500000,110265.62000000,110355.96000000,110109.58000000,110291.54000000,99.52576000
1761971400000,110291.53000000,110371.90000000,110203.64000000,110280.65000000,118.30430000
1761972300000,110280.65000000,110339.22000000,110226.63000000,110291.67000000,69.75903000
1761973200000,110291.66000000,110328.00000000,110084.31000000,110098.66000000,61.54699000
1761974100000,110098.66000000,110187.42000000,110050.00000000,110145.33000000,39.99801000
1761975000000,110145.33000000,110382.87000000,110120.23000000,110281.22000000,80.79350000
1761975900000,110281.23000000,110281.23000000,110105.94000000,110140.79000000,49.13727000
1761976800000,110140.78000000,110156.74000000,110033.00000000,110057.98000000,106.41454000
1761977700000,110057.99000000,110060.75000000,109997.26000000,110017.27000000,50.72457000
1761978600000,110017.27000000,110175.38000000,109951.43000000,109967.09000000,56.94292000
1761979500000,109967.10000000,110007.99000000,109933.86000000,110004.82000000,58.05427000
1761980400000,110004.82000000,110126.89000000,109992.78000000,110044.08000000,51.03910000
1761981300000,110044.08000000,110196.85000000,110044.08000000,110175.03000000,63.15617000
1761982200000,110175.03000000,110251.67000000,110074.01000000,110094.39000000,110.23828000
1761983100000,110094.38000000,110097.57000000,110025.99000000,110071.40000000,59.57732000
1761984000000,110071.40000000,110194.58000000,110071.40000000,110160.00000000,71.37445000
1761984900000,110160.00000000,110268.86000000,110159.99000000,110188.89000000,95.25171000
1761985800000,110188.90000000,110233.82000000,110180.00000000,110180.01000000,55.05821000
1761986700000,110180.01000000,110270.90000000,110180.00000000,110248.88000000,88.84436000
1761987600000,110248.88000000,110248.88000000,110175.55000000,110233.45000000,79.08441000
1761988500000,110233.45000000,110254.55000000,110142.85000000,110182.45000000,68.11031000
1761989400000,110182.46000000,110182.46000000,109981.19000000,110005.53000000,95.77451000
1761990300000,110005.54000000,110121.95000000,109970.18000000,109991.29000000,108.02028000
1761991200000,109991.29000000,110099.98000000,109854.72000000,109893.99000000,97.70673000
1761992100000,109894.00000000,110017.27000000,109893.99000000,110007.92000000,56.39855000
1761993000000,110007.91000000,110080.00000000,109976.82000000,110080.00000000,63.96051000
1761993900000,110079.99000000,110169.23000000,110070.26000000,110147.83000000,54.96870000
1761994800000,110147.83000000,110238.78000000,110147.83000000,110193.61000000,50.12300000
1761995700000,110193.60000000,110197.50000000,110052.23000000,110052.24000000,32.39333000
1761996600000,110052.24000000,110093.18000000,110000.01000000,110093.18000000,43.67166000
1761997500000,110093.18000000,110187.03000000,110086.68000000,110137.59000000,67.24674000
1761998400000,110137.59000000,110200.00000000,110097.71000000,110097.72000000,80.40269000
1761999300000,110097.72000000,110120.01000000,110000.01000000,110078.89000000,88.02064000
1762000200000,110078.89000000,110156.11000000,110078.89000000,110152.53000000,44.47591000
1762001100000,110152.53000000,110152.54000000,110017.26000000,110017.27000000,77.04582000
1762002000000,110017.26000000,110029.83000000,109956.10000000,109961.22000000,41.59673000
1762002900000,109961.22000000,110017.25000000,109961.21000000,110008.01000000,42.19442000
1762003800000,110008.00000000,110054.96000000,109702.66000000,109777.61000000,120.84470000
1762004700000,109777.61000000,109992.14000000,109777.61000000,109946.27000000,69.16883000
1762005600000,109946.26000000,109993.98000000,109736.47000000,109747.81000000,95.43428000
1762006500000,109747.81000000,109890.00000000,109728.94000000,109888.83000000,158.44137000
1762007400000,109888.83000000,109960.00000000,109874.89000000,109938.55000000,50.17880000
1762008300000,109938.55000000,109938.55000000,109900.07000000,109933.85000000,39.63566000
1762009200000,109933.86000000,110348.00000000,109910.22000000,110200.01000000,219.92569000
1762010100000,110200.00000000,110259.98000000,109989.11000000,110060.00000000,185.16623000
1762011000000,110059.99000000,110152.42000000,110017.27000000,110076.83000000,78.95156000
1762011900000,110076.83000000,110310.68000000,110067.40000000,110310.65000000,135.52176000
1762012800000,110310.65000000,110470.54000000,110213.49000000,110213.49000000,232.87733000
1762013700000,110213.50000000,110300.00000000,110208.49000000,110208.50000000,89.22511000
1762014600000,110208.49000000,110460.21000000,110208.49000000,110460.19000000,207.23424000
1762015500000,110460.19000000,110529.99000000,110400.07000000,110464.33000000,141.08371000
1762016400000,110464.33000000,110495.04000000,110278.46000000,110349.88000000,115.76710000
1762017300000,110349.88000000,110369.55000000,110208.73000000,110208.74000000,72.22077000
1762018200000,110208.74000000,110346.95000000,110208.74000000,110292.01000000,53.47691000
1762019100000,110292.01000000,110338.96000000,110192.00000000,110208.97000000,56.05078000
1762020000000,110208.96000000,110300.00000000,110193.43000000,110280.01000000,46.03822000
1762020900000,110280.00000000,110349.20000000,110255.41000000,110260.09000000,54.19540000
1762021800000,110260.09000000,110267.71000000,110227.82000000,110241.31000000,31.81825000
1762022700000,110241.31000000,110361.03000000,110241.30000000,110341.27000000,37.36229000
1762023600000,110341.28000000,110341.28000000,110220.77000000,110231.46000000,24.66253000
1762024500000,110231.46000000,110300.00000000,110231.45000000,110274.34000000,26.18454000
1762025400000,110274.35000000,110280.74000000,110229.41000000,110280.74000000,34.53624000
1762026300000,110280.74000000,110313.40000000,110269.70000000,110299.99000000,24.60220000
1762027200000,110300.00000000,110398.51000000,110298.17000000,110340.69000000,64.26882000
1762028100000,110340.69000000,110482.57000000,110328.68000000,110445.73000000,39.74929000
1762029000000,110445.73000000,110516.17000000,110393.76000000,110441.21000000,71.28346000
1762029900000,110441.21000000,110456.58000000,110362.00000000,110406.20000000,35.91116000
1762030800000,110406.21000000,110426.00000000,110202.25000000,110214.42000000,67.65221000
1762031700000,110214.43000000,110379.10000000,110214.43000000,110351.91000000,62.83982000
1762032600000,110351.92000000,110351.92000000,110164.47000000,110203.99000000,52.24470000
1762033500000,110204.00000000,110204.00000000,109858.44000000,109862.85000000,90.30884000
1762034400000,109862.85000000,110047.66000000,109862.84000000,109961.01000000,103.80339000
1762035300000,109961.02000000,110038.00000000,109954.91000000,109998.04000000,58.56487000
1762036200000,109998.04000000,110064.76000000,109998.03000000,110049.99000000,50.09649000
1762037100000,110050.00000000,110098.59000000,110001.23000000,110092.78000000,46.99464000
1762038000000,110092.79000000,110092.79000000,110001.52000000,110036.13000000,29.04067000
1762038900000,110036.13000000,110094.33000000,109996.05000000,110086.01000000,27.04663000
1762039800000,110086.02000000,110086.02000000,109974.00000000,110046.49000000,37.81535000
1762040700000,110046.48000000,110144.49000000,110013.67000000,110098.10000000,35.11326000
1762041600000,110098.10000000,110115.94000000,110030.54000000,110037.00000000,43.08063000
1762042500000,110036.99000000,110127.26000000,109895.27000000,110030.64000000,92.40939000
1762043400000,110030.65000000,110079.13000000,109954.01000000,109998.62000000,148.94518000
1762044300000,109998.62000000,110031.62000000,109948.99000000,109974.09000000,33.75598000
1762045200000,109974.09000000,110029.15000000,109921.05000000,109986.45000000,42.11418000
1762046100000,109986.46000000,110091.36000000,109978.00000000,110091.36000000,44.26767000
1762047000000,110091.36000000,110091.36000000,110028.25000000,110041.62000000,29.63342000
1762047900000,110041.62000000,110041.63000000,109948.30000000,109978.01000000,43.64626000
1762048800000,109978.01000000,110012.17000000,109879.39000000,110012.16000000,57.86741000
1762049700000,110012.17000000,110012.17000000,109893.94000000,109995.91000000,33.31781000
1762050600000,109995.92000000,110263.91000000,109995.91000000,110009.36000000,93.93452000
1762051500000,110009.35000000,110050.00000000,109979.87000000,110015.77000000,47.99860000
1762052400000,110015.76000000,110040.01000000,109968.01000000,110026.70000000,25.08008000
1762053300000,110026.70000000,110028.39000000,109976.37000000,109985.44000000,26.00687000
1762054200000,109985.45000000,110086.82000000,109976.60000000,110023.22000000,55.56502000
1762055100000,110023.22000000,110055.45000000,109962.06000000,110053.23000000,38.65021000
1762056000000,110053.22000000,110146.75000000,110030.06000000,110116.00000000,242.74623000
1762056900000,110116.00000000,110190.00000000,110038.67000000,110131.00000000,397.13785000
1762057800000,110131.00000000,110475.11000000,110079.48000000,110435.01000000,451.12074000
1762058700000,110435.01000000,110784.13000000,110426.58000000,110670.27000000,289.23805000
1762059600000,110670.27000000,110714.04000000,110453.45000000,110512.00000000,396.05211000
1762060500000,110511.99000000,110596.74000000,110335.98000000,110456.80000000,185.80956000
1762061400000,110456.81000000,110515.29000000,110274.65000000,110485.13000000,296.98265000
1762062300000,110485.14000000,110568.04000000,110329.91000000,110497.98000000,382.72940000
1762063200000,110497.98000000,110526.74000000,110375.78000000,110375.78000000,110.56641000
1762064100000,110375.79000000,110426.15000000,110326.21000000,110413.17000000,135.20021000
1762065000000,110413.17000000,110525.12000000,110274.90000000,110525.11000000,329.21054000
1762065900000,110525.11000000,110725.90000000,110519.18000000,110663.89000000,292.87324000
1762066800000,110663.90000000,110689.34000000,110523.72000000,110549.95000000,82.01288000
1762067700000,110549.95000000,110551.47000000,110429.70000000,110503.06000000,117.78244000
1762068600000,110503.05000000,110718.00000000,110473.91000000,110690.76000000,185.51587000
1762069500000,110690.75000000,111045.09000000,110647.10000000,110895.53000000,534.22484000
1762070400000,110895.53000000,111013.43000000,110790.06000000,110798.90000000,178.68019000
1762071300000,110798.90000000,110860.43000000,110716.52000000,110797.68000000,72.12255000
1762072200000,110797.69000000,110845.50000000,110736.11000000,110827.26000000,142.23658000
1762073100000,110827.26000000,110850.17000000,110767.84000000,110850.17000000,125.60558000
1762074000000,110850.17000000,110989.91000000,110850.16000000,110978.65000000,180.93893000
1762074900000,110978.66000000,111037.94000000,110911.85000000,110968.29000000,75.44685000
1762075800000,110968.28000000,110968.29000000,110587.42000000,110625.21000000,148.16592000
1762076700000,110625.22000000,110714.41000000,110525.89000000,110714.00000000,161.87825000
1762077600000,110714.00000000,110876.53000000,110592.00000000,110868.76000000,326.07702000
1762078500000,110868.75000000,110868.76000000,110572.80000000,110578.50000000,179.82608000
1762079400000,110578.50000000,110578.51000000,110346.15000000,110390.47000000,162.22244000
1762080300000,110390.97000000,110492.00000000,110386.96000000,110492.00000000,47.83379000
1762081200000,110491.99000000,110672.13000000,110482.60000000,110645.38000000,70.86072000
1762082100000,110645.38000000,110876.12000000,110645.37000000,110844.05000000,71.51676000
1762083000000,110844.05000000,110963.49000000,110730.00000000,110901.30000000,135.08796000
1762083900000,110901.30000000,111229.78000000,110901.30000000,111196.99000000,349.79877000
1762084800000,111196.99000000,111250.01000000,111060.00000000,111095.11000000,174.84647000
1762085700000,111095.11000000,111172.00000000,110889.86000000,110935.85000000,114.66934000
1762086600000,110935.84000000,111013.11000000,110794.00000000,110819.99000000,91.47447000
1762087500000,110820.00000000,110823.91000000,110678.25000000,110736.24000000,79.54264000
1762088400000,110736.24000000,110766.79000000,110572.35000000,110603.35000000,89.01875000
1762089300000,110603.34000000,110603.35000000,110173.84000000,110407.23000000,183.75122000
1762090200000,110407.24000000,110480.61000000,110283.80000000,110370.28000000,70.25476000
1762091100000,110370.28000000,110592.98000000,110314.94000000,110568.65000000,77.26400000
1762092000000,110568.65000000,110667.62000000,110438.58000000,110479.85000000,81.35926000
1762092900000,110479.85000000,110535.21000000,110205.00000000,110307.99000000,144.80039000
1762093800000,110308.00000000,110543.99000000,110298.97000000,110356.74000000,100.61613000
1762094700000,110356.73000000,110521.35000000,110202.16000000,110422.24000000,93.95127000
1762095600000,110422.24000000,110432.01000000,110270.62000000,110392.05000000,83.25218000
1762096500000,110392.04000000,110566.86000000,110383.16000000,110523.90000000,69.79768000
1762097400000,110523.90000000,110566.08000000,110236.76000000,110274.85000000,113.83391000
1762098300000,110274.86000000,110354.60000000,110096.32000000,110117.48000000,120.94700000
1762099200000,110117.49000000,110143.53000000,109814.91000000,109834.98000000,354.46971000
1762100100000,109834.98000000,110081.52000000,109735.59000000,110081.51000000,123.52577000
1762101000000,110081.51000000,110121.95000000,109947.98000000,110077.99000000,84.15180000
1762101900000,110077.99000000,110133.76000000,109961.41000000,110115.34000000,52.10857000
1762102800000,110115.34000000,110235.32000000,110101.60000000,110226.63000000,53.16282000
1762103700000,110226.63000000,110263.91000000,110142.65000000,110163.16000000,41.93206000
1762104600000,110163.15000000,110163.15000000,110027.93000000,110050.04000000,85.69118000
1762105500000,110050.05000000,110190.41000000,110027.93000000,110190.40000000,35.11173000
1762106400000,110190.41000000,110272.91000000,110181.02000000,110191.07000000,40.24162000
1762107300000,110191.07000000,110277.84000000,110174.33000000,110251.04000000,25.18215000
1762108200000,110251.03000000,110296.67000000,110187.09000000,110282.48000000,42.71952000
1762109100000,110282.48000000,110331.00000000,110276.72000000,110331.00000000,29.53074000
1762110000000,110331.00000000,110331.00000000,110205.68000000,110220.00000000,30.82333000
1762110900000,110220.01000000,110220.01000000,109960.95000000,109960.95000000,52.06733000
1762111800000,109960.96000000,110144.00000000,109960.95000000,110045.77000000,82.24685000
1762112700000,110045.78000000,110180.85000000,110040.28000000,110180.84000000,52.51085000
1762113600000,110180.85000000,110213.20000000,109970.07000000,109970.07000000,54.01675000
1762114500000,109970.08000000,110050.63000000,109890.34000000,109921.91000000,60.78513000
1762115400000,109921.91000000,110080.43000000,109921.89000000,110051.93000000,60.19147000
1762116300000,110051.93000000,110086.70000000,110031.54000000,110086.70000000,33.24479000
1762117200000,110086.70000000,110126.94000000,109972.00000000,110003.48000000,67.63743000
1762118100000,110003.49000000,110063.47000000,109978.88000000,110020.29000000,41.28633000
1762119000000,110020.29000000,110072.88000000,110003.27000000,110036.07000000,45.18034000
1762119900000,110036.07000000,110101.22000000,109990.90000000,109990.90000000,42.50848000
1762120800000,109990.91000000,110011.99000000,109957.56000000,109960.58000000,42.75869000
1762121700000,109960.58000000,110012.00000000,109950.96000000,109992.30000000,42.45115000
1762122600000,109992.30000000,109992.30000000,109471.34000000,109632.89000000,295.76432000
1762123500000,109632.89000000,109900.00000000,109549.36000000,109899.99000000,78.01641000
1762124400000,109900.00000000,110500.00000000,109900.00000000,110464.21000000,266.91818000
1762125300000,110464.21000000,110500.00000000,110142.15000000,110187.75000000,93.00222000
1762126200000,110187.76000000,110536.88000000,110165.73000000,110413.80000000,179.94873000
1762127100000,110413.80000000,110742.26000000,110356.64000000,110540.68000000,114.66031000
1762128000000,110540.69000000,110750.00000000,110500.00000000,110686.31000000,103.02808000
1762128900000,110686.31000000,110689.02000000,110332.54000000,110332.57000000,106.52940000
1762129800000,110332.57000000,110371.30000000,110242.74000000,110278.68000000,55.47207000
1762130700000,110278.68000000,110305.46000000,109757.10000000,109757.11000000,184.06029000
1762131600000,109757.10000000,109842.07000000,109484.00000000,109714.24000000,228.61545000
1762132500000,109714.24000000,109807.90000000,109528.39000000,109643.86000000,153.50982000
1762133400000,109643.85000000,109790.26000000,109366.75000000,109735.03000000,395.75673000
1762134300000,109735.04000000,109910.33000000,109582.11000000,109665.50000000,127.35475000
1762135200000,109665.50000000,109754.14000000,109405.49000000,109679.25000000,156.75846000
1762136100000,109679.24000000,109679.24000000,109232.95000000,109249.74000000,208.42762000
1762137000000,109249.74000000,109249.75000000,108816.51000000,108860.01000000,390.03203000
1762137900000,108860.01000000,109088.81000000,108666.66000000,109033.83000000,332.79985000
1762138800000,109033.84000000,109155.74000000,108204.22000000,108233.74000000,510.31451000
1762139700000,108233.74000000,108461.62000000,107963.43000000,108127.33000000,441.02511000
1762140600000,108127.33000000,108385.80000000,107967.19000000,108252.56000000,271.07774000
1762141500000,108252.56000000,108252.56000000,107907.44000000,107937.45000000,301.76759000
1762142400000,107937.45000000,107993.79000000,107513.60000000,107734.03000000,495.39873000
1762143300000,107734.02000000,107900.00000000,107480.13000000,107836.31000000,235.33666000
1762144200000,107836.32000000,107933.88000000,107688.61000000,107718.50000000,167.48728000
1762145100000,107718.49000000,107999.53000000,107714.60000000,107900.37000000,160.32323000
1762146000000,107900.37000000,108035.81000000,107800.00000000,107972.59000000,148.04037000
1762146900000,107972.59000000,108075.00000000,107754.00000000,107968.39000000,216.30929000
1762147800000,107968.39000000,108007.46000000,107522.89000000,107599.99000000,174.23568000
1762148700000,107600.00000000,107683.23000000,107400.00000000,107606.75000000,276.53929000
1762149600000,107606.75000000,107714.05000000,107295.58000000,107347.08000000,301.06482000
1762150500000,107347.07000000,107580.00000000,107319.12000000,107454.99000000,218.93550000
1762151400000,107455.00000000,107667.99000000,107307.13000000,107364.24000000,235.74507000
1762152300000,107364.24000000,107640.00000000,107006.05000000,107494.23000000,359.54396000
1762153200000,107494.24000000,107494.24000000,107272.93000000,107443.44000000,149.85449000
1762154100000,107443.44000000,107832.45000000,107314.02000000,107650.01000000,226.88080000
1762155000000,107650.01000000,107715.86000000,107458.71000000,107476.04000000,283.72908000
1762155900000,107476.05000000,107689.15000000,107444.21000000,107468.23000000,214.09871000
1762156800000,107468.23000000,107705.15000000,107409.31000000,107577.25000000,137.23595000
1762157700000,107577.25000000,107577.25000000,107204.50000000,107228.36000000,128.86953000
1762158600000,107228.36000000,107297.95000000,107117.06000000,107233.74000000,179.65856000
1762159500000,107233.74000000,107594.81000000,106888.00000000,107586.97000000,587.68317000
1762160400000,107586.98000000,107912.86000000,107538.00000000,107788.99000000,202.74666000
1762161300000,107788.98000000,107788.98000000,107291.50000000,107370.07000000,224.33478000
1762162200000,107370.08000000,107456.09000000,107201.44000000,107341.17000000,131.86797000
1762163100000,107341.18000000,107341.18000000,107083.33000000,107197.94000000,116.75620000
1762164000000,107197.95000000,107555.01000000,107197.95000000,107512.83000000,138.81008000
1762164900000,107512.83000000,107621.06000000,107491.89000000,107592.09000000,93.45642000
1762165800000,107592.09000000,107592.09000000,107172.91000000,107246.09000000,266.33395000
1762166700000,107246.08000000,107324.07000000,106726.63000000,106974.99000000,488.79745000
1762167600000,106974.99000000,107587.02000000,106963.00000000,107527.29000000,376.76157000
1762168500000,107527.28000000,107800.00000000,107460.00000000,107637.16000000,170.98641000
1762169400000,107637.16000000,107760.00000000,107513.84000000,107734.75000000,99.89089000
1762170300000,107734.75000000,107920.92000000,107660.21000000,107787.42000000,126.37382000
1762171200000,107787.42000000,108241.66000000,107713.10000000,108065.85000000,292.34890000
1762172100000,108066.39000000,108265.44000000,108048.56000000,108254.88000000,191.31227000
1762173000000,108254.89000000,108263.80000000,107841.98000000,107841.98000000,122.78215000
1762173900000,107841.99000000,107967.67000000,107716.26000000,107768.90000000,136.18276000
1762174800000,107768.91000000,107776.00000000,107600.14000000,107692.93000000,159.21343000
1762175700000,107692.93000000,107751.03000000,107574.77000000,107688.00000000,184.10838000
1762176600000,107688.00000000,108039.21000000,107688.00000000,107856.50000000,180.06473000
1762177500000,107856.51000000,108068.59000000,107768.90000000,107908.68000000,124.27409000
1762178400000,107908.68000000,108333.00000000,107870.00000000,107875.27000000,210.78470000
1762179300000,107875.26000000,107918.71000000,107533.80000000,107546.21000000,168.92120000
1762180200000,107546.22000000,107832.00000000,107369.01000000,107621.61000000,288.91375000
1762181100000,107621.60000000,108067.54000000,107522.38000000,108059.99000000,251.29321000
1762182000000,108060.00000000,108148.81000000,107536.50000000,107648.43000000,301.88782000
1762182900000,107648.43000000,107648.43000000,105732.51000000,105992.64000000,1414.56071000
1762183800000,105992.64000000,106567.65000000,105511.00000000,106084.82000000,1460.04224000
1762184700000,106084.82000000,106299.76000000,105658.26000000,105745.71000000,677.46742000
1762185600000,105745.71000000,106176.33000000,105306.56000000,106073.24000000,1218.26908000
1762186500000,106073.24000000,106582.24000000,105809.11000000,106380.00000000,977.00624000
1762187400000,106380.00000000,106647.52000000,106234.03000000,106498.83000000,1035.89101000
1762188300000,106498.83000000,106798.01000000,106440.00000000,106678.44000000,391.07474000
1762189200000,106678.43000000,106937.53000000,106536.11000000,106850.01000000,356.71259000
1762190100000,106850.01000000,107783.20000000,106778.28000000,107080.00000000,608.22910000
1762191000000,107080.01000000,107592.50000000,107067.33000000,107469.99000000,318.58668000
1762191900000,107470.00000000,107679.39000000,107328.50000000,107481.19000000,280.22827000
1762192800000,107481.20000000,107599.85000000,107179.92000000,107190.00000000,727.74692000
1762193700000,107190.00000000,107528.72000000,107099.51000000,107262.24000000,261.49104000
1762194600000,107262.24000000,107402.90000000,106870.00000000,106898.73000000,395.27413000
1762195500000,106898.73000000,107198.14000000,106813.00000000,106961.62000000,267.03776000
1762196400000,106961.61000000,107068.86000000,106455.23000000,106791.64000000,314.10491000
1762197300000,106791.64000000,107148.71000000,106780.00000000,106945.99000000,249.99800000
1762198200000,106946.00000000,107395.25000000,106927.06000000,107269.75000000,232.11296000
1762199100000,107269.75000000,107373.06000000,107040.00000000,107090.00000000,154.65141000
1762200000000,107090.00000000,107169.68000000,106720.49000000,106723.74000000,236.93353000
1762200900000,106723.73000000,106839.00000000,106512.00000000,106745.92000000,216.33080000
1762201800000,106745.42000000,107032.77000000,106617.34000000,106660.00000000,137.07086000
1762202700000,106660.00000000,106716.28000000,106310.43000000,106657.55000000,259.87331000
1762203600000,106657.55000000,107094.27000000,106544.88000000,106568.20000000,270.22284000
1762204500000,106568.21000000,106793.04000000,106088.73000000,106625.06000000,240.56250000
1762205400000,106625.06000000,107032.00000000,106553.17000000,107020.48000000,166.84548000
1762206300000,107020.49000000,107038.84000000,106813.93000000,106888.71000000,112.62833000
1762207200000,106888.71000000,106888.71000000,106363.04000000,106524.31000000,344.54985000
1762208100000,106524.32000000,106610.00000000,106136.84000000,106176.34000000,235.40090000
