timestamp,open,high,low,close,volume
1774185000000,68791.20,68838.00,68737.00,68770.20,355.514
1774185300000,68770.10,68781.90,68717.00,68751.90,290.602
1774185600000,68752.00,68827.70,68711.20,68749.20,351.892
1774185900000,68749.20,68791.90,68716.20,68764.20,273.989
1774186200000,68764.30,68814.60,68638.60,68647.70,390.015
1774186500000,68647.60,68670.10,68560.00,68616.90,438.205
1774186800000,68616.80,68641.30,68500.90,68593.00,581.106
1774187100000,68593.00,68649.00,68550.00,68625.40,271.682
1774187400000,68625.40,68721.70,68587.80,68713.10,311.528
1774187700000,68713.10,68720.00,68653.00,68660.30,275.611
1774188000000,68660.40,68729.80,68501.00,68582.70,510.793
1774188300000,68582.60,68653.00,68557.40,68652.90,190.911
1774188600000,68652.90,68786.20,68652.90,68744.10,299.778
1774188900000,68744.10,68747.00,68700.00,68716.10,215.835
1774189200000,68716.10,68878.20,68677.80,68814.80,639.194
1774189500000,68814.70,68818.40,68730.10,68805.50,247.773
1774189800000,68805.50,68820.00,68737.30,68769.20,210.740
1774190100000,68769.20,68888.00,68765.30,68822.80,274.959
1774190400000,68822.80,68842.00,68780.50,68800.70,317.866
1774190700000,68800.60,68800.60,68654.30,68684.80,252.386
1774191000000,68684.80,68709.90,68630.60,68661.10,199.891
1774191300000,68661.10,68687.90,68600.70,68675.50,248.889
1774191600000,68675.50,68785.40,68675.40,68750.30,240.915
1774191900000,68750.10,68888.00,68750.00,68818.00,640.018
1774192200000,68818.10,68907.90,68809.40,68863.50,328.220
1774192500000,68863.60,69000.00,68792.70,68847.20,918.430
1774192800000,68847.10,68922.00,68766.00,68825.30,311.189
1774193100000,68825.30,68864.60,68799.50,68861.00,164.891
1774193400000,68861.10,68873.20,68801.10,68807.80,197.932
1774193700000,68807.90,68807.90,68670.00,68708.00,398.432
1774194000000,68708.00,68777.10,68673.40,68771.10,257.119
1774194300000,68771.10,68784.80,68713.00,68760.80,123.127
1774194600000,68760.80,68826.80,68731.30,68776.10,166.611
1774194900000,68776.10,68821.20,68776.00,68814.90,184.351
1774195200000,68814.90,68852.30,68755.80,68796.70,224.088
1774195500000,68796.70,68812.90,68735.00,68736.20,197.098
1774195800000,68736.10,68796.80,68724.40,68754.60,102.297
1774196100000,68754.60,68779.90,68693.90,68729.60,172.934
1774196400000,68729.60,68739.20,68684.60,68700.10,135.673
1774196700000,68700.10,68700.20,68633.90,68673.70,285.660
1774197000000,68673.80,68725.90,68627.90,68682.40,153.821
1774197300000,68682.40,68743.60,68676.90,68702.80,106.361
1774197600000,68702.90,68702.90,68642.70,68695.50,94.330
1774197900000,68695.50,68779.70,68695.50,68776.60,100.786
1774198200000,68776.50,68798.80,68768.70,68789.00,302.461
1774198500000,68789.00,68818.50,68761.80,68761.90,92.604
1774198800000,68761.80,68779.10,68694.40,68773.00,186.427
1774199100000,68772.90,68797.30,68750.00,68793.70,87.926
1774199400000,68793.60,68800.00,68770.30,68787.30,90.464
1774199700000,68787.40,68799.40,68744.20,68767.20,102.984
1774200000000,68767.20,68820.00,68738.00,68741.60,192.567
1774200300000,68741.60,68807.60,68718.50,68779.10,112.545
1774200600000,68779.20,68797.10,68725.00,68764.00,96.352
1774200900000,68764.10,68764.10,68642.30,68658.90,220.371
1774201200000,68658.90,68677.70,68635.00,68640.10,145.605
1774201500000,68640.00,68708.40,68639.90,68645.60,189.530
1774201800000,68645.60,68698.60,68645.50,68674.10,97.504
1774202100000,68674.10,68706.50,68635.00,68635.00,169.832
1774202400000,68635.00,68635.80,68550.30,68600.00,384.626
1774202700000,68599.90,68667.50,68599.90,68661.10,108.106
1774203000000,68661.00,68690.40,68654.30,68690.40,82.283
1774203300000,68690.40,68698.00,68656.00,68681.10,74.051
1774203600000,68681.10,68689.10,68630.30,68641.60,80.382
1774203900000,68641.60,68661.30,68625.00,68661.00,75.115
1774204200000,68660.90,68712.00,68430.30,68478.30,625.961
1774204500000,68478.20,68532.70,68300.10,68426.20,1144.924
1774204800000,68426.10,68496.00,68407.00,68431.40,310.736
1774205100000,68431.40,68518.40,68402.60,68509.20,186.549
1774205400000,68509.10,68557.30,68489.30,68492.00,161.275
1774205700000,68492.00,68588.00,68492.00,68580.30,240.243
1774206000000,68580.20,68595.90,68380.20,68431.70,246.066
1774206300000,68431.70,68487.60,68424.10,68470.00,184.292
1774206600000,68470.00,68486.50,68241.50,68297.90,772.662
1774206900000,68297.90,68349.00,68266.60,68339.90,306.143
1774207200000,68339.90,68361.90,68287.50,68334.70,259.431
1774207500000,68334.70,68342.50,68242.80,68246.50,183.177
1774207800000,68246.40,68293.60,68181.00,68291.20,622.143
1774208100000,68291.10,68357.70,68291.10,68344.90,252.730
1774208400000,68344.90,68389.10,68330.00,68355.80,121.882
1774208700000,68355.80,68373.80,68108.00,68126.20,739.000
1774209000000,68126.30,68217.60,68126.30,68180.90,313.952
1774209300000,68180.90,68200.00,68147.00,68170.60,200.036
1774209600000,68170.60,68304.70,68170.60,68269.40,329.983
1774209900000,68269.30,68305.00,68247.40,68293.00,160.442
1774210200000,68293.10,68336.30,68251.80,68299.60,466.374
1774210500000,68299.70,68375.50,68299.60,68375.50,259.452
1774210800000,68375.50,68470.60,68352.80,68364.80,301.029
1774211100000,68364.70,68364.70,68242.00,68288.20,297.603
1774211400000,68288.30,68310.20,68270.00,68270.00,103.418
1774211700000,68270.10,68270.10,68150.60,68199.20,275.181
1774212000000,68199.20,68338.50,68199.20,68330.60,142.780
1774212300000,68330.50,68330.50,68267.20,68285.00,209.695
1774212600000,68285.00,68291.60,68044.40,68168.20,801.179
1774212900000,68168.20,68180.00,68108.60,68134.90,220.456
1774213200000,68135.00,68196.90,68048.30,68057.50,270.803
1774213500000,68057.50,68057.60,67523.00,67817.00,5901.583
1774213800000,67816.90,67833.80,67656.90,67751.60,805.770
1774214100000,67751.50,67763.40,67320.00,67376.80,3082.285
1774214400000,67376.80,67643.40,67300.00,67630.80,1477.241
1774214700000,67630.80,67830.60,67563.30,67761.60,836.786
1774215000000,67761.60,67792.40,67657.80,67691.80,522.808
1774215300000,67691.80,67908.40,67634.20,67900.10,647.996
1774215600000,67900.10,67950.00,67802.10,67839.20,397.779
1774215900000,67839.20,67872.40,67717.40,67824.90,438.536
1774216200000,67824.90,67854.90,67770.10,67813.00,204.434
1774216500000,67813.10,67864.50,67724.30,67864.40,215.549
1774216800000,67864.50,67915.00,67528.30,67885.80,1490.902
1774217100000,67885.80,68088.70,67784.70,68088.10,1054.668
1774217400000,68088.40,68099.80,67829.00,67870.20,810.565
1774217700000,67870.10,68037.20,67820.00,67942.00,518.160
1774218000000,67942.00,68218.00,67900.00,68186.10,992.327
1774218300000,68186.10,68336.40,68113.40,68218.00,725.326
1774218600000,68218.00,68300.00,68164.00,68173.70,525.764
1774218900000,68173.80,68280.00,68101.40,68212.00,551.267
1774219200000,68211.90,68221.00,68065.00,68096.80,459.520
1774219500000,68096.70,68245.00,68096.70,68238.00,304.349
1774219800000,68238.10,68376.90,68210.20,68238.30,429.293
1774220100000,68238.20,68321.50,68238.20,68301.50,251.603
1774220400000,68301.50,68384.90,68222.60,68329.90,540.669
1774220700000,68329.90,68363.90,68160.80,68244.70,394.184
1774221000000,68244.80,68434.30,68238.20,68293.50,610.432
1774221300000,68293.40,68313.50,68168.00,68196.80,485.351
1774221600000,68196.80,68196.80,68094.10,68141.00,287.546
1774221900000,68141.10,68162.50,68064.50,68071.20,309.423
1774222200000,68071.20,68137.20,67949.30,67983.30,444.548
1774222500000,67983.20,68065.90,67983.20,68033.70,319.795
1774222800000,68033.70,68125.50,67996.70,68093.20,232.151
1774223100000,68093.20,68113.90,67903.90,67909.80,634.134
1774223400000,67909.70,67929.40,67804.10,67838.00,650.456
1774223700000,67837.90,67864.70,67812.50,67830.60,357.050
1774224000000,67830.70,68000.00,67830.70,67927.30,882.485
1774224300000,67927.20,68017.90,67736.00,67931.80,531.881
1774224600000,67931.90,68093.90,67898.40,67924.30,636.097
1774224900000,67924.40,67953.80,67765.00,67862.00,552.836
1774225200000,67861.90,68013.40,67821.20,68008.60,384.638
1774225500000,68008.60,68130.60,67941.70,67965.50,668.614
1774225800000,67965.50,67972.80,67764.10,67795.20,516.356
1774226100000,67795.20,67807.80,67564.80,67570.00,1193.040
1774226400000,67570.10,67708.50,67400.10,67650.90,1866.862
1774226700000,67651.00,67737.40,67627.00,67737.40,492.569
1774227000000,67737.40,67861.70,67655.10,67682.80,597.215
1774227300000,67682.80,67730.80,67586.60,67642.50,385.914
1774227600000,67642.50,67732.90,67500.00,67660.10,732.421
1774227900000,67660.00,67916.00,67608.70,67844.60,677.796
1774228200000,67844.60,67855.00,67763.40,67813.50,237.906
1774228500000,67813.60,68016.60,67813.60,67972.80,673.267
1774228800000,67972.80,68093.90,67856.00,68085.10,685.539
1774229100000,68085.10,68093.90,68043.20,68054.50,379.976
1774229400000,68054.40,68127.00,67981.30,68007.10,486.560
1774229700000,68007.20,68123.20,67989.70,68072.30,331.729
1774230000000,68072.30,68081.40,67939.90,68015.60,247.411
1774230300000,68015.70,68095.40,67900.90,67910.10,267.017
1774230600000,67910.10,68007.50,67866.40,67869.70,733.835
1774230900000,67869.60,67946.60,67869.60,67875.60,296.907
1774231200000,67875.60,67943.30,67859.90,67892.90,285.840
1774231500000,67893.00,68035.20,67884.80,68016.50,353.673
1774231800000,68016.60,68050.00,67805.20,67818.70,601.472
1774232100000,67818.70,67916.50,67764.20,67900.90,261.597
1774232400000,67901.20,68016.90,67882.40,67988.40,242.724
1774232700000,67988.40,68294.30,67978.80,68235.90,1402.435
1774233000000,68235.80,68253.60,68160.90,68239.70,564.864
1774233300000,68239.70,68265.60,68168.30,68177.60,310.578
1774233600000,68177.60,68375.80,68176.20,68202.70,831.421
1774233900000,68202.70,68252.10,68171.60,68187.00,328.035
1774234200000,68187.10,68221.00,68151.00,68184.90,497.365
1774234500000,68185.00,68299.70,68129.70,68282.40,521.777
1774234800000,68282.30,68555.50,68282.30,68492.00,1316.955
1774235100000,68491.90,68491.90,68373.00,68375.10,521.370
1774235400000,68375.00,68408.40,68193.20,68200.00,484.565
1774235700000,68200.10,68248.40,68146.30,68146.30,398.575
1774236000000,68146.40,68217.20,68140.90,68175.30,300.024
1774236300000,68175.30,68206.40,68130.00,68170.00,294.492
1774236600000,68170.10,68195.00,68112.00,68194.90,310.570
1774236900000,68194.90,68194.90,68100.00,68139.90,210.854
1774237200000,68140.00,68173.70,68059.10,68173.40,227.182
1774237500000,68173.40,68199.00,68108.20,68161.10,187.661
1774237800000,68161.00,68186.90,68030.30,68036.50,302.197
1774238100000,68036.40,68068.30,68022.60,68045.10,283.635
1774238400000,68045.20,68091.20,68011.20,68091.10,359.901
1774238700000,68091.20,68183.50,68080.10,68130.20,436.887
1774239000000,68130.30,68172.40,68115.00,68140.20,142.101
1774239300000,68140.20,68182.10,68083.00,68146.20,127.916
1774239600000,68146.20,68188.00,68118.10,68130.40,138.482
1774239900000,68130.50,68199.90,68107.20,68199.80,131.807
1774240200000,68199.80,68243.00,68182.60,68243.00,292.563
1774240500000,68243.00,68343.10,68242.90,68326.20,392.986
1774240800000,68326.20,68343.70,68222.90,68226.20,170.251
1774241100000,68226.30,68340.10,68226.30,68322.20,335.166
1774241400000,68322.10,68474.50,68285.70,68443.80,857.862
1774241700000,68443.80,68517.00,68404.10,68504.50,869.458
1774242000000,68504.40,68777.00,68504.40,68662.00,1983.875
1774242300000,68662.10,68725.00,68612.50,68671.10,824.240
1774242600000,68671.00,68748.00,68636.90,68731.20,351.856
1774242900000,68731.10,68846.60,68671.50,68787.60,794.183
1774243200000,68787.50,68787.60,68660.30,68665.70,433.543
1774243500000,68665.80,68709.60,68635.10,68659.90,285.106
1774243800000,68659.90,68660.00,68550.80,68641.10,547.085
1774244100000,68641.00,68807.10,68641.00,68664.10,762.355
1774244400000,68664.00,68664.10,68581.00,68581.10,482.001
1774244700000,68581.10,68653.20,68571.20,68581.50,629.312
1774245000000,68581.50,68741.80,68540.00,68718.00,879.089
1774245300000,68717.90,68872.40,68710.60,68864.20,893.359
1774245600000,68864.10,68865.20,68689.00,68704.30,601.582
1774245900000,68704.30,68716.50,68617.40,68654.90,405.438
1774246200000,68655.00,68696.90,68530.10,68572.70,591.012
1774246500000,68572.70,68654.70,68543.10,68593.10,345.241
1774246800000,68593.00,68616.30,68468.00,68531.50,570.722
1774247100000,68531.60,68610.40,68500.00,68537.20,498.004
1774247400000,68537.20,68537.20,68400.60,68407.10,533.144
1774247700000,68407.10,68411.40,68035.00,68076.80,2105.484
1774248000000,68076.80,68179.10,67661.00,67786.90,3160.064
1774248300000,67786.90,67920.00,67653.10,67770.50,1725.990
1774248600000,67770.60,67872.50,67680.00,67830.00,905.709
1774248900000,67830.00,67862.40,67729.60,67845.30,486.290
1774249200000,67845.20,67855.50,67620.00,67625.10,1066.068
1774249500000,67625.10,67839.80,67456.70,67726.90,1878.776
1774249800000,67726.80,67961.40,67726.80,67905.60,1109.826
1774250100000,67905.60,67958.80,67843.00,67957.90,563.715
1774250400000,67957.90,67965.10,67608.50,67722.10,1089.626
1774250700000,67722.10,67801.90,67644.80,67769.80,707.457
1774251000000,67769.70,68027.20,67739.30,67948.10,1082.269
1774251300000,67948.00,68246.40,67944.90,68175.10,1389.586
1774251600000,68175.10,68307.70,68135.60,68290.90,1081.193
1774251900000,68290.90,68398.80,68285.10,68319.20,1275.790
1774252200000,68319.20,68388.00,68286.70,68385.90,677.882
1774252500000,68385.90,68426.40,68250.80,68306.00,1045.556
1774252800000,68305.90,68440.00,68305.90,68408.40,539.743
1774253100000,68408.40,68547.00,68371.20,68518.50,877.927
1774253400000,68518.50,68649.90,68437.80,68622.50,1165.630
1774253700000,68622.50,68670.00,68432.90,68458.60,822.405
1774254000000,68458.70,68550.00,68414.00,68467.80,397.604
1774254300000,68467.80,68478.20,68431.90,68434.50,239.512
1774254600000,68434.40,68579.20,68370.80,68572.80,490.486
1774254900000,68572.90,68588.40,68453.30,68489.40,304.951
1774255200000,68489.40,68621.00,68476.80,68510.20,416.857
1774255500000,68510.30,68534.00,68405.30,68416.00,482.726
1774255800000,68416.10,68499.90,68365.10,68412.60,369.520
1774256100000,68412.50,68448.70,68281.60,68400.10,440.712
1774256400000,68400.20,68439.60,68268.60,68268.70,428.812
1774256700000,68268.70,68286.20,68172.30,68260.50,828.378
1774257000000,68260.60,68268.60,68210.60,68254.10,298.728
1774257300000,68254.10,68317.60,68212.20,68235.60,237.716
1774257600000,68235.70,68332.30,68160.70,68171.60,275.893
1774257900000,68171.60,68227.30,68100.80,68217.50,401.315
1774258200000,68217.50,68217.60,67980.90,67995.70,849.635
1774258500000,67995.70,68107.90,67880.00,68080.00,1121.510
1774258800000,68079.90,68177.50,68027.50,68109.90,608.773
1774259100000,68109.90,68227.90,68103.70,68163.60,406.875
1774259400000,68163.70,68194.90,68132.30,68147.60,144.934
1774259700000,68147.60,68305.00,68147.60,68305.00,347.693
1774260000000,68304.90,68418.10,68267.30,68407.30,676.472
1774260300000,68407.30,68649.40,68407.20,68587.50,860.243
1774260600000,68587.40,68688.00,68550.80,68567.90,1037.393
1774260900000,68567.90,68593.20,68487.90,68492.10,489.805
1774261200000,68492.10,68499.90,68376.40,68412.80,486.507
1774261500000,68412.80,68466.00,68380.00,68429.60,279.989
1774261800000,68429.60,68442.30,68375.20,68388.70,237.212
1774262100000,68388.70,68456.00,68281.50,68294.10,399.771
1774262400000,68294.20,68392.90,68261.00,68382.70,305.863
1774262700000,68382.70,68412.70,68331.80,68360.70,242.925
1774263000000,68360.70,68540.80,68360.60,68475.00,557.380
1774263300000,68475.00,68547.00,68468.40,68512.20,214.654
1774263600000,68512.20,68663.80,68505.70,68535.70,1394.100
1774263900000,68535.60,71203.00,68535.60,71193.90,28894.272
1774264200000,71194.00,71468.00,70799.10,70931.80,11945.031
1774264500000,70932.60,71238.00,70650.20,70693.90,5666.583
1774264800000,70694.00,70899.90,70268.00,70526.40,6432.117
1774265100000,70526.30,70789.60,70502.90,70673.90,3016.248
1774265400000,70674.00,71180.00,70674.00,70974.80,3606.217
1774265700000,70974.90,70975.50,70359.80,70648.00,4958.910
1774266000000,70647.90,70769.90,70540.90,70637.20,2565.855
1774266300000,70637.20,70668.50,70040.00,70400.60,5730.156
1774266600000,70400.60,70560.20,70237.80,70466.90,2446.718
1774266900000,70466.80,70466.90,70006.70,70097.30,3877.673
1774267200000,70097.20,70267.50,69644.00,69899.40,5833.389
1774267500000,69899.50,70087.90,69750.50,70036.70,2240.092
1774267800000,70036.70,70130.80,69951.60,69951.60,1611.523
1774268100000,69951.60,70245.10,69930.10,70231.60,1713.637
1774268400000,70231.60,70474.80,70189.10,70294.40,2262.542
1774268700000,70294.40,70374.70,70183.50,70311.80,868.543
1774269000000,70311.70,70350.00,70136.60,70277.80,1073.957
1774269300000,70277.80,70519.70,70230.20,70309.40,1454.497
1774269600000,70309.40,70770.00,70235.00,70680.60,2128.582
1774269900000,70680.50,70850.00,70618.40,70687.70,1603.120
1774270200000,70687.70,70827.60,70550.30,70620.80,943.266
1774270500000,70620.90,70716.60,70550.00,70710.00,849.931
1774270800000,70710.00,70888.00,70611.10,70668.30,1558.256
1774271100000,70668.30,70700.00,70551.30,70613.60,690.525
1774271400000,70613.50,70780.00,70607.30,70712.90,455.771
1774271700000,70712.90,70810.60,70712.70,70739.70,551.337
1774272000000,70739.70,70887.70,70739.60,70845.20,749.154
1774272300000,70845.10,70853.60,70744.70,70780.00,425.156
1774272600000,70779.90,70826.00,70620.00,70729.50,1463.117
1774272900000,70729.50,71149.60,70701.20,71102.70,3182.784
1774273200000,71102.70,71388.00,70980.00,71182.20,3989.634
1774273500000,71182.20,71289.60,70983.40,71127.80,1830.293
1774273800000,71127.90,71564.90,71091.70,71284.40,3720.027
1774274100000,71284.50,71450.00,71176.90,71450.00,1387.712
1774274400000,71449.90,71699.90,71421.50,71508.00,3028.011
1774274700000,71508.00,71741.10,71350.00,71658.10,2411.074
1774275000000,71658.20,71789.80,71452.30,71484.70,2068.812
1774275300000,71484.80,71697.70,71477.50,71505.50,1257.003
1774275600000,71505.50,71572.80,71352.00,71465.60,1248.860
1774275900000,71465.60,71554.30,71256.40,71312.30,1663.510
1774276200000,71312.40,71370.20,71172.80,71212.10,1178.976
1774276500000,71212.10,71500.00,71202.20,71473.90,908.366
1774276800000,71474.00,71475.80,71324.20,71344.00,539.535
1774277100000,71343.90,71366.60,71131.20,71170.80,1310.862
1774277400000,71170.70,71274.50,71080.90,71205.50,1663.766
1774277700000,71205.50,71474.30,71198.70,71409.80,901.956
1774278000000,71409.80,71635.50,71402.10,71516.30,1293.514
1774278300000,71516.30,71567.70,71376.80,71408.30,595.244
1774278600000,71408.30,71413.60,71322.20,71335.10,566.824
1774278900000,71335.00,71362.20,71073.60,71085.10,1174.276
1774279200000,71085.20,71100.00,70839.90,70983.30,2704.499
1774279500000,70983.30,70985.20,70839.30,70864.10,1484.631
1774279800000,70864.10,70917.20,70739.90,70762.40,1062.114
1774280100000,70762.50,70911.20,70700.00,70755.10,1632.628
1774280400000,70755.00,70786.60,70542.60,70636.60,1485.604
1774280700000,70636.60,70829.80,70473.40,70780.20,1904.779
1774281000000,70780.30,70824.90,70256.00,70317.00,4307.221
1774281300000,70317.10,70317.10,70074.70,70112.20,3251.798
1774281600000,70112.20,70317.20,70106.70,70217.50,2423.082
1774281900000,70217.60,70439.50,70135.00,70367.60,1626.803
1774282200000,70367.60,70523.50,70310.40,70495.70,1188.343
1774282500000,70495.70,70532.80,70276.00,70296.20,892.084
1774282800000,70296.20,70410.80,70194.00,70396.40,1053.541
1774283100000,70396.50,70396.50,70180.00,70188.00,964.844
1774283400000,70187.90,70398.30,70100.50,70398.30,1001.242
1774283700000,70398.20,70490.10,70350.00,70368.10,921.698
1774284000000,70368.10,70450.00,70343.80,70440.00,556.899
1774284300000,70439.90,70736.40,70403.00,70612.80,1555.743
1774284600000,70612.80,70632.50,70500.00,70566.30,655.273
1774284900000,70566.40,70598.10,70465.10,70539.60,651.377
1774285200000,70539.60,70610.80,70440.30,70594.50,508.553
1774285500000,70594.60,70679.40,70500.00,70604.60,476.718
1774285800000,70604.60,70719.80,70581.50,70600.00,579.119
1774286100000,70600.10,70633.90,70450.00,70510.40,580.665
1774286400000,70510.40,70510.40,70325.60,70437.60,574.828
1774286700000,70437.50,70597.40,70410.40,70503.60,222.258
1774287000000,70503.40,70875.00,70488.60,70867.30,1065.750
1774287300000,70867.30,71053.00,70846.50,70991.20,1699.417
1774287600000,70991.30,71014.50,70821.50,70853.10,777.993
1774287900000,70853.10,70994.00,70840.10,70983.60,538.511
1774288200000,70983.60,71089.10,70928.00,71067.20,577.471
1774288500000,71067.10,71094.20,71018.90,71052.70,394.816
1774288800000,71052.60,71138.00,71013.00,71128.20,776.586
1774289100000,71128.20,71139.60,70874.00,70976.20,913.184
1774289400000,70976.20,71070.90,70939.00,70939.10,374.566
1774289700000,70939.00,71021.10,70913.00,70956.60,398.013
1774290000000,70956.60,70982.70,70845.50,70946.30,692.325
1774290300000,70946.30,71009.40,70836.40,70855.10,340.933
1774290600000,70855.10,71066.70,70855.10,71044.90,369.717
1774290900000,71045.00,71138.00,70927.50,71005.30,665.650
1774291200000,71005.40,71050.00,70943.20,71018.50,320.175
1774291500000,71018.60,71166.00,70993.40,71096.90,864.068
1774291800000,71096.80,71110.30,70944.00,71029.50,410.236
1774292100000,71029.60,71078.90,70957.80,71040.50,246.099
1774292400000,71040.50,71096.10,70955.00,71091.20,352.870
1774292700000,71091.20,71232.00,70823.30,70960.90,1436.092
1774293000000,70960.90,71006.90,70884.50,70903.20,272.690
1774293300000,70903.20,70956.70,70786.10,70929.20,456.724
1774293600000,70929.30,71053.90,70861.20,71029.00,278.055
1774293900000,71028.90,71057.80,70973.00,71003.20,205.416
1774294200000,71003.20,71037.90,70937.70,70946.30,174.025
1774294500000,70946.30,70963.70,70892.70,70914.20,165.953
1774294800000,70914.20,70923.50,70825.00,70875.20,265.319
1774295100000,70875.30,70965.20,70802.90,70802.90,408.180
1774295400000,70802.90,70834.30,70692.50,70740.00,630.296
1774295700000,70739.90,70739.90,70612.50,70647.10,1063.800
1774296000000,70647.10,70707.40,70509.30,70612.40,949.744
1774296300000,70612.40,70645.00,70576.00,70645.00,222.537
1774296600000,70645.00,70771.70,70645.00,70769.10,516.778
1774296900000,70769.10,70797.30,70713.90,70713.90,176.701
1774297200000,70713.90,70799.50,70713.10,70742.80,206.077
1774297500000,70742.80,70769.00,70719.00,70768.90,125.127
1774297800000,70769.00,70860.00,70754.40,70837.90,294.627
1774298100000,70837.90,70953.50,70837.80,70874.40,509.795
1774298400000,70874.40,70920.30,70851.90,70904.30,159.832
1774298700000,70904.40,70921.90,70854.00,70854.00,160.715
1774299000000,70854.00,70898.10,70829.60,70889.80,232.277
1774299300000,70889.80,70889.90,70857.50,70876.60,167.059
1774299600000,70876.60,70958.80,70821.30,70821.30,226.581
1774299900000,70821.30,70888.00,70821.30,70839.10,148.204
1774300200000,70839.10,70856.20,70786.10,70791.00,141.368
1774300500000,70790.90,70870.80,70790.90,70829.90,129.364
1774300800000,70829.90,70889.00,70793.10,70883.40,122.499
1774301100000,70883.50,70890.60,70850.00,70858.10,87.502
1774301400000,70858.00,70960.00,70838.30,70945.10,214.736
1774301700000,70945.10,70973.00,70912.50,70963.10,124.147
1774302000000,70963.00,70976.30,70900.00,70905.40,179.450
1774302300000,70905.30,70905.40,70847.10,70876.10,71.154
1774302600000,70876.10,70949.90,70850.00,70850.00,106.031
1774302900000,70850.00,70902.00,70789.90,70813.70,194.904
1774303200000,70813.90,70859.00,70528.00,70577.50,659.379
1774303500000,70577.50,70710.10,70554.20,70665.00,450.923
1774303800000,70665.00,70725.00,70617.90,70685.40,144.179
1774304100000,70685.30,70685.40,70564.90,70678.00,210.102
1774304400000,70678.00,70692.30,70600.00,70650.00,137.240
1774304700000,70650.00,70654.90,70600.00,70600.00,128.320
1774305000000,70600.00,70614.50,70477.10,70573.10,478.197
1774305300000,70573.10,70669.30,70573.10,70639.80,210.553
1774305600000,70639.80,70689.40,70576.60,70689.30,219.718
1774305900000,70689.30,70767.00,70645.90,70660.50,258.715
1774306200000,70660.50,70767.30,70640.00,70738.10,222.042
1774306500000,70738.10,70772.20,70675.30,70745.10,163.926
1774306800000,70745.10,70778.50,70657.90,70698.00,200.618
1774307100000,70698.00,70740.60,70564.30,70578.10,263.621
1774307400000,70578.10,70605.00,70519.40,70521.10,289.396
1774307700000,70521.10,70540.00,70411.20,70423.20,444.704
1774308000000,70423.30,70523.00,70370.00,70515.40,566.663
1774308300000,70515.40,70678.90,70482.50,70678.70,421.506
1774308600000,70678.70,70680.00,70575.90,70600.40,215.816
1774308900000,70600.40,70670.00,70592.30,70669.80,108.922
1774309200000,70669.70,70774.90,70668.10,70732.10,327.886
1774309500000,70732.10,70799.80,70688.00,70755.50,419.116
1774309800000,70755.40,70840.10,70726.70,70820.00,371.664
1774310100000,70820.10,70973.80,70820.00,70865.90,583.586
1774310400000,70866.00,71080.00,70858.50,70885.00,1648.956
1774310700000,70885.00,70932.00,70754.90,70773.70,412.777
1774311000000,70773.70,70845.10,70744.00,70747.10,383.143
1774311300000,70747.00,70795.30,70617.90,70777.10,509.268
1774311600000,70777.00,70784.10,70659.60,70730.80,296.871
1774311900000,70730.80,70795.30,70650.00,70689.90,212.693
1774312200000,70690.00,70704.30,70524.00,70623.90,897.894
1774312500000,70623.90,70677.60,70377.90,70534.20,712.671
1774312800000,70534.30,70656.00,70481.60,70559.20,352.142
1774313100000,70559.10,70688.50,70550.00,70656.00,273.899
1774313400000,70656.00,70790.00,70640.20,70736.30,302.939
1774313700000,70736.30,70743.00,70641.70,70650.00,196.175
1774314000000,70650.10,70683.00,70564.40,70569.90,184.611
1774314300000,70569.90,70636.70,70546.00,70584.50,312.417
1774314600000,70584.50,70681.00,70480.00,70534.10,385.968
1774314900000,70534.00,70596.20,70470.30,70582.70,241.991
1774315200000,70582.60,70771.60,70580.90,70703.30,315.167
1774315500000,70703.40,70845.70,70683.50,70796.90,285.448
1774315800000,70797.00,70839.70,70678.30,70765.40,640.240
1774316100000,70765.40,70778.70,70400.90,70421.80,527.461
1774316400000,70421.80,70451.80,70232.00,70358.30,1202.627
1774316700000,70358.30,70480.00,70358.30,70416.60,367.951
1774317000000,70416.50,70545.50,70410.10,70509.60,335.094
1774317300000,70509.90,70515.20,70465.20,70479.90,159.588
1774317600000,70479.90,70668.70,70403.10,70577.30,465.780
1774317900000,70577.20,70577.30,70480.00,70547.40,191.674
1774318200000,70547.30,70547.30,70396.40,70425.20,341.910
1774318500000,70425.20,70470.70,70380.00,70453.60,230.361
1774318800000,70453.70,70600.00,70442.40,70522.80,190.780
1774319100000,70522.70,70554.90,70410.00,70530.50,138.886
1774319400000,70530.50,70570.00,70477.40,70533.20,283.923
1774319700000,70533.20,70606.00,70424.60,70424.70,320.307
1774320000000,70424.70,70508.60,70329.90,70495.00,551.824
1774320300000,70495.00,70560.00,70451.10,70514.50,165.524
1774320600000,70514.40,70514.40,70428.60,70457.70,156.536
1774320900000,70457.80,70468.80,70391.80,70416.00,248.733
1774321200000,70416.00,70429.40,70367.40,70411.10,181.565
1774321500000,70410.80,70496.50,70362.60,70403.80,311.900
1774321800000,70403.80,70521.00,70385.90,70471.70,164.352
1774322100000,70471.80,70520.00,70445.30,70468.60,337.176
1774322400000,70468.50,70558.90,70449.50,70497.30,186.269
1774322700000,70497.30,70542.10,70470.00,70506.10,179.049
1774323000000,70506.20,70524.60,70414.00,70420.00,313.434
1774323300000,70420.10,70464.10,70400.00,70438.20,168.256
1774323600000,70438.30,70497.90,70431.20,70459.80,117.027
1774323900000,70459.70,70489.20,70423.70,70483.20,111.446
1774324200000,70483.30,70524.40,70416.50,70524.40,187.868
1774324500000,70524.40,70534.00,70485.70,70512.10,202.033
1774324800000,70512.10,70550.00,70483.60,70545.50,217.700
1774325100000,70545.50,70726.40,70531.00,70606.20,742.128
1774325400000,70606.20,70637.50,70571.70,70604.40,317.209
1774325700000,70604.50,70626.70,70553.90,70579.50,162.792
1774326000000,70579.50,70600.50,70560.30,70570.20,114.093
1774326300000,70570.10,70577.60,70490.10,70494.60,226.002
1774326600000,70494.60,70494.60,70257.80,70352.80,766.089
1774326900000,70352.70,70352.70,70276.00,70327.70,206.020
1774327200000,70327.60,70348.90,70265.00,70304.80,255.283
1774327500000,70304.80,70347.30,70261.90,70266.30,304.184
1774327800000,70266.30,70412.20,70214.30,70405.30,586.054
1774328100000,70405.40,70405.40,70331.10,70339.90,148.573
1774328400000,70340.00,70345.10,70157.90,70170.50,862.199
1774328700000,70170.50,70203.70,70121.00,70140.90,697.606
1774329000000,70140.90,70215.30,70125.80,70138.00,557.593
1774329300000,70138.00,70325.30,70118.50,70190.10,620.360
1774329600000,70190.10,70207.90,70075.50,70145.00,497.659
1774329900000,70144.90,70237.80,70129.90,70149.10,326.075
1774330200000,70149.20,70245.10,70115.40,70161.00,261.404
1774330500000,70161.00,70255.80,70159.70,70235.90,393.890
1774330800000,70235.90,70349.80,70235.90,70291.90,356.436
1774331100000,70291.90,70352.90,70264.10,70272.70,283.978
1774331400000,70272.60,70318.50,70240.00,70275.10,181.502
1774331700000,70275.10,70275.10,70221.50,70249.60,129.391
1774332000000,70249.60,70348.70,70220.00,70327.50,294.358
1774332300000,70327.20,70380.10,70302.80,70331.80,254.829
1774332600000,70331.90,70331.90,70258.00,70327.60,161.154
1774332900000,70327.60,70396.20,70308.00,70308.10,217.579
1774333200000,70308.10,70425.10,70287.60,70328.40,383.314
1774333500000,70328.30,70360.00,70292.10,70348.60,391.575
1774333800000,70348.70,70478.60,70348.60,70425.00,520.756
1774334100000,70424.90,70457.00,70401.70,70429.90,243.923
1774334400000,70429.90,70478.90,70415.30,70436.00,189.850
1774334700000,70436.10,70472.40,70415.20,70454.60,153.060
1774335000000,70455.00,70473.40,70400.00,70464.10,243.227
1774335300000,70464.10,70544.90,70455.00,70507.80,363.335
1774335600000,70507.90,70547.60,70439.80,70546.60,433.735
1774335900000,70546.60,70779.70,70541.00,70759.10,1265.362
1774336200000,70759.20,70885.10,70734.00,70794.90,1457.099
1774336500000,70794.80,70941.60,70745.00,70875.70,1030.173
1774336800000,70875.60,71000.00,70867.30,70894.80,1073.681
1774337100000,70894.80,70925.60,70850.00,70889.80,433.909
1774337400000,70889.80,70930.80,70790.90,70896.10,1281.168
1774337700000,70896.00,70900.00,70781.50,70837.20,1019.820
1774338000000,70837.10,70897.90,70832.30,70875.80,309.248
1774338300000,70875.80,70957.80,70800.00,70931.70,486.895
1774338600000,70931.70,71052.00,70894.50,70992.70,776.710
1774338900000,70992.80,71377.50,70992.70,71255.20,3065.539
1774339200000,71255.20,71314.30,71114.80,71138.80,1138.804
1774339500000,71138.80,71221.40,71065.10,71102.30,597.045
1774339800000,71102.30,71144.00,71049.90,71096.90,619.529
1774340100000,71097.00,71099.20,70906.90,70906.90,809.707
1774340400000,70906.90,70949.00,70823.90,70891.30,855.259
1774340700000,70891.40,70912.20,70840.00,70890.10,291.303
1774341000000,70890.10,70932.30,70832.20,70918.60,451.030
1774341300000,70918.60,71050.00,70900.00,71043.70,631.359
1774341600000,71043.60,71046.50,70971.80,71037.20,234.963
1774341900000,71037.10,71066.60,70936.90,70936.90,333.308
1774342200000,70936.90,71017.50,70890.50,70936.40,366.077
1774342500000,70936.40,70970.50,70851.00,70933.80,287.091
1774342800000,70933.80,71005.50,70924.00,71005.30,326.903
1774343100000,71005.40,71009.80,70920.00,70932.80,273.089
1774343400000,70932.70,70969.50,70840.60,70840.70,366.308
1774343700000,70840.60,71004.00,70812.70,71003.90,613.519
1774344000000,71004.00,71014.20,70902.50,70929.00,250.047
1774344300000,70929.00,71006.00,70928.90,70980.10,167.114
1774344600000,70980.00,71070.00,70946.50,70983.90,272.069
1774344900000,70983.90,71062.30,70983.90,71056.60,257.127
1774345200000,71056.50,71220.00,71056.50,71211.70,762.310
1774345500000,71211.60,71215.90,71150.20,71185.40,222.180
1774345800000,71185.40,71324.80,71121.00,71293.80,827.894
1774346100000,71293.80,71339.80,71270.30,71288.50,478.853
1774346400000,71288.50,71296.80,71184.70,71228.80,585.886
1774346700000,71228.80,71295.90,71208.40,71287.50,289.283
1774347000000,71287.50,71299.80,71200.50,71227.20,279.466
1774347300000,71227.20,71227.20,71103.20,71162.90,580.517
1774347600000,71162.90,71215.90,71107.60,71155.10,280.691
1774347900000,71155.10,71155.20,71065.00,71077.90,241.978
1774348200000,71078.00,71120.90,71050.10,71070.10,304.953
1774348500000,71070.00,71219.30,71063.40,71205.30,365.449
1774348800000,71205.20,71249.80,71165.90,71213.50,549.797
1774349100000,71213.50,71213.50,71114.90,71144.90,167.565
1774349400000,71145.00,71189.80,71130.90,71172.50,239.344
1774349700000,71172.40,71259.20,71170.00,71237.40,187.291
1774350000000,71237.40,71237.40,70937.70,70977.80,909.967
1774350300000,70977.80,71150.10,70977.70,71147.00,443.191
1774350600000,71147.10,71179.20,71038.70,71082.60,349.258
1774350900000,71082.60,71094.40,70916.90,70990.50,488.857
1774351200000,70990.50,71010.00,70946.50,71009.90,202.875
1774351500000,71010.00,71049.90,70952.60,71035.30,209.340
1774351800000,71035.30,71154.80,71002.10,71154.70,359.927
1774352100000,71154.80,71236.00,71101.40,71192.60,480.494
1774352400000,71192.70,71301.90,71176.40,71205.50,693.327
1774352700000,71205.50,71284.50,71190.90,71244.50,411.721
1774353000000,71244.50,71249.20,70980.90,71058.30,594.874
1774353300000,71058.30,71116.40,71057.60,71116.40,251.727
1774353600000,71116.40,71144.00,70975.00,70975.00,528.643
1774353900000,70975.00,71019.00,70950.00,71018.00,313.177
1774354200000,71018.00,71081.60,70942.00,71033.20,371.098
1774354500000,71033.20,71050.00,70958.40,71010.20,210.603
1774354800000,71010.20,71045.10,70973.70,71025.40,389.840
1774355100000,71025.50,71075.90,70995.60,71050.30,194.046
1774355400000,71050.30,71050.30,70836.90,70876.40,617.667
1774355700000,70876.50,70925.00,70822.20,70879.60,669.249
1774356000000,70879.70,70962.70,70862.00,70862.00,295.540
1774356300000,70862.00,70903.40,70834.20,70851.80,354.532
1774356600000,70851.80,70997.40,70851.50,70947.90,328.892
1774356900000,70947.90,70952.00,70895.80,70924.40,143.903
1774357200000,70924.40,71029.20,70910.10,70942.80,227.830
1774357500000,70942.80,70994.00,70610.10,70690.10,1680.215
1774357800000,70690.10,70854.00,70680.10,70790.30,694.415
1774358100000,70790.20,70831.00,70572.60,70578.80,846.484
1774358400000,70578.80,70658.60,70534.90,70621.10,1211.881
1774358700000,70621.10,70680.50,70550.00,70569.90,462.724
1774359000000,70569.90,70752.80,70536.00,70694.10,1458.300
1774359300000,70694.10,70726.00,70405.10,70459.20,1468.587
1774359600000,70459.20,70459.20,70192.40,70284.60,4011.884
1774359900000,70284.60,70410.60,70168.00,70211.50,1625.395
1774360200000,70211.50,70303.10,69888.00,70039.40,4770.161
1774360500000,70039.40,70139.40,69935.00,70067.00,1487.535
1774360800000,70067.00,70267.90,70042.90,70266.10,1695.820
1774361100000,70266.10,70449.00,70178.50,70284.30,1397.014
1774361400000,70284.50,70299.80,69718.00,69829.80,3569.655
1774361700000,69829.80,69946.30,69756.00,69887.50,1963.677
1774362000000,69887.50,69981.70,69809.00,69886.50,883.695
1774362300000,69886.50,70064.90,69810.00,69970.10,1068.574
1774362600000,69970.10,70104.00,69940.00,70104.00,827.890
1774362900000,70104.00,70104.00,69800.20,69800.20,913.841
1774363200000,69800.10,69865.70,69738.00,69818.90,1418.782
1774363500000,69818.80,69834.30,69567.80,69604.50,3022.624
1774363800000,69604.40,70033.40,69467.80,69873.90,4512.411
1774364100000,69873.90,70026.90,69671.20,69847.60,2385.300
1774364400000,69847.60,70030.00,69847.60,69962.10,1274.358
1774364700000,69962.00,70030.10,69888.00,69934.90,860.401
1774365000000,69935.00,70005.90,69818.00,69927.20,505.620
1774365300000,69927.20,69997.80,69876.90,69936.50,704.075
1774365600000,69936.40,70240.00,69881.60,70176.10,2598.152
1774365900000,70176.00,70220.00,69976.00,69997.60,1748.435
1774366200000,69997.50,70047.10,69739.50,69889.90,1234.491
1774366500000,69889.90,70141.90,69876.90,70065.20,1057.575
1774366800000,70065.20,70126.00,69972.40,70022.30,521.455
1774367100000,70022.20,70037.00,69923.90,70031.50,559.103
1774367400000,70031.60,70168.60,70021.10,70070.00,662.170
1774367700000,70070.10,70070.10,69822.70,69837.70,815.545
1774368000000,69837.60,69857.60,69775.50,69801.90,997.304
1774368300000,69801.80,69874.00,69760.10,69852.50,508.631
1774368600000,69852.50,69911.50,69823.40,69878.80,550.495
1774368900000,69878.80,69979.00,69822.90,69920.20,553.782
1774369200000,69920.20,69931.20,69803.60,69805.80,596.787
1774369500000,69805.90,69849.20,69593.90,69769.80,1801.423
1774369800000,69769.90,69815.60,69613.00,69701.40,911.374
1774370100000,69701.10,69706.70,69281.20,69372.50,3233.157
1774370400000,69371.90,69537.20,69324.40,69537.10,2197.944
1774370700000,69537.20,69594.00,69454.10,69478.00,725.552
1774371000000,69478.00,69583.50,69471.00,69489.10,513.869
1774371300000,69489.00,69504.50,69387.20,69448.30,688.937
1774371600000,69448.40,69486.00,69243.50,69278.40,1180.904
1774371900000,69278.30,69278.30,69088.00,69130.30,2729.919
1774372200000,69130.30,69233.90,69101.00,69205.20,819.603
1774372500000,69205.20,69263.90,69074.00,69085.80,850.634
1774372800000,69085.80,69200.00,69082.50,69163.10,589.690
1774373100000,69163.00,69180.00,69083.80,69149.50,338.553
1774373400000,69149.40,69214.90,69025.00,69096.00,732.944
1774373700000,69096.00,69305.00,69046.60,69237.60,802.128
1774374000000,69237.60,69257.10,68888.80,68911.10,2006.413
1774374300000,68911.10,69034.30,68884.50,69029.00,1222.965
1774374600000,69028.90,69126.50,68962.50,69024.20,705.262
1774374900000,69024.20,69242.10,68972.40,69205.00,2055.941
1774375200000,69205.00,69319.80,69127.40,69240.80,1563.544
1774375500000,69240.90,69300.00,69168.00,69280.50,717.337
1774375800000,69280.50,69363.10,69220.20,69331.50,570.344
1774376100000,69331.50,69388.00,69239.70,69359.50,513.802
1774376400000,69359.50,69481.80,69322.30,69414.50,1316.442
1774376700000,69414.50,69451.80,69350.00,69383.50,427.988
1774377000000,69383.50,69550.00,69341.00,69478.20,762.181
1774377300000,69478.10,69724.80,69470.00,69714.30,1144.730
1774377600000,69714.30,69714.30,69450.00,69493.50,618.774
1774377900000,69493.60,69539.70,69402.90,69428.90,523.184
1774378200000,69429.00,69539.90,69420.00,69498.80,443.416
1774378500000,69498.90,69498.90,69389.40,69399.50,264.198
1774378800000,69399.50,69513.80,69395.90,69489.00,395.974
1774379100000,69489.00,69594.00,69464.50,69563.20,246.248
1774379400000,69563.20,69612.70,69548.70,69608.50,250.835
1774379700000,69608.40,69668.80,69576.10,69631.30,245.178
1774380000000,69631.30,69631.40,69538.40,69562.60,316.473
1774380300000,69562.60,69562.80,69489.60,69510.40,222.554
1774380600000,69510.40,69510.40,69352.00,69378.20,766.979
1774380900000,69378.10,69432.60,69336.20,69397.40,306.837
1774381200000,69397.50,69445.00,69376.00,69407.30,195.930
1774381500000,69407.20,69407.20,69265.10,69277.10,438.749
1774381800000,69277.00,69330.00,69226.00,69330.00,514.295
1774382100000,69330.00,69358.90,69261.60,69342.60,374.753
1774382400000,69342.60,69387.20,69300.00,69300.10,353.395
1774382700000,69300.00,69329.80,69257.90,69314.50,176.313
1774383000000,69314.40,69384.60,69312.70,69384.60,95.719
1774383300000,69384.60,69499.20,69384.60,69495.40,229.846
1774383600000,69495.40,69937.70,69495.40,69926.70,2440.237
1774383900000,69926.70,70270.00,69908.20,69975.00,3834.489
1774384200000,69974.90,70197.40,69930.70,69940.50,1561.081
1774384500000,69940.50,70121.90,69926.40,70094.60,1116.760
1774384800000,70094.70,70106.50,69984.00,70027.10,747.185
1774385100000,70027.10,70069.90,69858.40,70059.10,828.922
1774385400000,70059.10,70212.50,70005.40,70030.50,836.928
1774385700000,70030.50,70114.40,70015.70,70066.60,362.019
1774386000000,70066.60,70166.80,70046.90,70140.60,480.267
1774386300000,70140.60,70182.90,69963.50,69999.90,672.152
1774386600000,69999.90,70021.30,69901.00,69959.90,401.080
1774386900000,69960.00,70005.40,69903.40,69958.00,260.283
1774387200000,69957.90,69963.00,69844.30,69869.40,260.548
1774387500000,69869.50,70099.90,69869.40,70022.50,629.074
1774387800000,70022.60,70133.10,69992.00,70037.20,296.914
1774388100000,70037.10,70195.70,70012.70,70164.30,437.306
1774388400000,70164.30,70386.60,70118.70,70240.10,1002.807
1774388700000,70240.10,70365.90,70180.90,70284.90,561.800
1774389000000,70284.90,70303.40,70171.00,70253.70,354.260
1774389300000,70253.70,70312.50,70164.50,70296.20,487.629
1774389600000,70296.20,70327.30,70180.00,70252.50,314.216
1774389900000,70252.60,70521.90,70243.50,70478.40,1129.238
1774390200000,70478.30,70548.10,70436.50,70497.80,835.309
1774390500000,70497.70,70503.40,70364.80,70390.00,395.820
1774390800000,70390.00,70430.20,70352.00,70401.00,331.272
1774391100000,70400.90,70402.80,70143.80,70204.40,909.268
1774391400000,70204.40,70283.50,70084.00,70179.40,593.238
1774391700000,70179.40,70249.00,70136.00,70217.40,240.230
1774392000000,70217.40,70285.70,70200.00,70250.10,134.995
1774392300000,70250.00,70300.00,70204.00,70299.90,255.244
1774392600000,70300.00,70359.10,70238.10,70298.80,414.484
1774392900000,70298.90,70339.00,70277.90,70277.90,155.210
1774393200000,70278.00,70324.80,70216.70,70284.70,288.679
1774393500000,70284.70,70503.40,70240.00,70493.40,716.510
1774393800000,70493.40,70555.40,70474.00,70499.90,738.541
1774394100000,70499.90,70547.20,70477.00,70500.00,332.919
1774394400000,70499.90,70693.90,70464.90,70511.20,1632.369
1774394700000,70511.10,70729.10,70498.60,70712.00,1093.889
1774395000000,70712.10,70800.00,70681.70,70711.40,1465.865
1774395300000,70711.50,70759.20,70678.20,70732.60,361.992
1774395600000,70732.50,70760.10,70624.80,70625.50,372.679
1774395900000,70625.50,70658.90,70525.00,70621.60,430.494
1774396200000,70621.50,70621.60,70546.00,70548.20,308.244
1774396500000,70548.20,70562.10,70502.00,70523.90,226.222
1774396800000,70524.00,70604.20,70493.00,70594.50,443.978
1774397100000,70594.50,70665.50,70522.80,70665.50,256.097
1774397400000,70665.50,70723.50,70630.00,70690.00,351.092
1774397700000,70690.10,70692.90,70531.50,70570.30,266.981
1774398000000,70570.40,70591.50,70530.10,70568.80,161.265
1774398300000,70568.70,70645.80,70568.70,70630.00,227.765
1774398600000,70630.00,70829.90,70422.60,70769.10,1390.562
1774398900000,70769.20,70888.00,70755.00,70863.90,970.926
1774399200000,70864.00,71028.00,70848.80,70893.70,1563.353
1774399500000,70893.70,70962.00,70840.10,70840.20,494.827
1774399800000,70840.20,70863.50,70750.20,70841.50,489.547
1774400100000,70841.60,70900.00,70800.00,70804.30,209.092
1774400400000,70804.30,70851.90,70734.30,70780.50,627.070
1774400700000,70780.50,70820.40,70660.40,70790.70,608.823
1774401000000,70790.70,70950.00,70770.00,70770.00,619.280
1774401300000,70770.10,70782.10,70680.00,70693.60,393.747
1774401600000,70693.60,70810.50,70693.40,70693.50,413.730
1774401900000,70693.50,70738.80,70650.70,70727.10,314.989
1774402200000,70727.10,70760.90,70590.60,70619.60,606.195
1774402500000,70619.60,70692.70,70598.20,70641.60,365.533
1774402800000,70641.70,70777.00,70610.10,70707.20,301.372
1774403100000,70707.30,70769.90,70674.00,70750.20,203.483
1774403400000,70750.20,70793.60,70730.60,70741.40,139.627
1774403700000,70741.40,70754.90,70643.10,70643.10,405.266
1774404000000,70643.10,70678.90,70560.00,70617.20,336.936
1774404300000,70617.10,70617.20,70570.10,70578.20,226.442
1774404600000,70578.20,70614.40,70503.40,70573.70,447.412
1774404900000,70573.90,70618.40,70484.70,70576.70,491.038
1774405200000,70576.70,70599.00,70547.40,70558.10,251.100
1774405500000,70558.20,70637.00,70533.40,70564.40,204.259
1774405800000,70564.40,70625.00,70484.70,70600.00,294.875
1774406100000,70599.90,70741.50,70585.30,70681.70,275.746
1774406400000,70681.70,70714.90,70654.50,70660.20,182.901
1774406700000,70660.10,70714.80,70584.40,70596.40,266.973
1774407000000,70596.30,70618.40,70547.70,70551.50,227.085
1774407300000,70551.50,70553.30,70460.10,70500.00,460.262
1774407600000,70500.00,70541.60,70482.60,70528.50,279.722
1774407900000,70528.50,70528.60,70441.20,70467.50,377.711
1774408200000,70467.30,70508.90,70378.00,70471.90,673.517
1774408500000,70471.90,70479.50,70375.00,70450.80,636.657
1774408800000,70450.70,70464.40,70396.60,70424.10,358.561
1774409100000,70424.10,70521.70,70399.90,70500.10,213.076
1774409400000,70500.10,70679.80,70500.10,70624.90,524.508
1774409700000,70624.90,70777.90,70624.90,70735.50,506.682
1774410000000,70735.70,70751.20,70684.00,70715.50,357.295
1774410300000,70715.50,70776.40,70686.10,70695.10,255.784
1774410600000,70695.10,70738.20,70681.80,70693.60,254.571
1774410900000,70693.60,70739.30,70678.70,70689.30,240.028
1774411200000,70689.20,70745.30,70659.90,70683.20,230.270
1774411500000,70683.20,70878.80,70683.10,70867.40,479.165
1774411800000,70867.40,70879.30,70805.40,70817.50,394.419
1774412100000,70817.40,70817.40,70746.00,70805.90,194.577
1774412400000,70805.90,70835.00,70742.60,70834.90,206.442
1774412700000,70834.90,70920.00,70797.20,70833.10,445.266
1774413000000,70833.10,70851.00,70727.10,70733.10,253.241
1774413300000,70733.00,70765.50,70702.60,70735.50,345.678
1774413600000,70735.70,70788.50,70735.70,70739.50,152.671
1774413900000,70739.50,70765.10,70691.60,70710.40,270.012
1774414200000,70710.50,70758.00,70710.50,70749.90,126.360
1774414500000,70749.80,70949.30,70749.80,70938.10,489.072
1774414800000,70938.10,70963.50,70900.20,70950.10,387.485
1774415100000,70950.00,71273.90,70950.00,71175.00,2423.286
1774415400000,71175.00,71319.90,71159.00,71209.60,1542.222
1774415700000,71209.60,71219.10,71071.10,71084.90,618.439
1774416000000,71084.90,71139.90,71073.60,71078.60,436.415
1774416300000,71078.70,71175.40,71052.00,71160.90,404.155
1774416600000,71160.80,71200.00,71076.40,71099.80,368.964
1774416900000,71099.80,71164.80,71086.20,71121.90,214.755
1774417200000,71121.90,71220.00,71112.20,71183.80,238.455
1774417500000,71183.80,71211.60,71082.40,71093.30,297.182
1774417800000,71093.30,71102.20,71047.00,71092.40,378.365
1774418100000,71092.40,71092.50,71040.30,71080.10,239.078
1774418400000,71080.10,71126.00,71017.80,71031.70,304.623
1774418700000,71031.70,71038.70,70950.20,70993.90,618.702
1774419000000,70994.00,71042.90,70993.90,71042.90,181.576
1774419300000,71042.90,71191.30,71042.80,71155.80,477.841
1774419600000,71155.80,71233.70,71155.70,71164.40,307.945
1774419900000,71164.30,71199.90,71161.60,71195.80,212.948
1774420200000,71195.80,71216.80,71123.80,71193.80,489.493
1774420500000,71193.80,71210.70,71112.00,71141.40,389.408
1774420800000,71141.30,71197.00,71137.80,71153.60,219.282
1774421100000,71153.60,71191.80,71141.30,71151.60,342.129
1774421400000,71151.60,71170.00,71100.00,71109.10,336.658
1774421700000,71109.10,71109.10,70928.50,70962.80,669.063
1774422000000,70962.80,71032.50,70916.10,71000.00,586.253
1774422300000,71000.10,71035.10,70965.20,70995.20,216.157
1774422600000,70995.30,71113.10,70995.20,71105.30,231.473
1774422900000,71105.40,71121.30,71038.70,71075.30,272.166
1774423200000,71075.30,71075.40,71006.70,71008.90,149.068
1774423500000,71009.00,71045.20,71008.90,71028.90,132.016
1774423800000,71028.90,71170.40,71028.90,71140.10,287.682
1774424100000,71140.00,71185.10,71118.70,71175.00,313.387
1774424400000,71174.90,71233.60,71000.00,71023.00,558.861
1774424700000,71023.00,71053.20,70850.00,70940.20,994.778
1774425000000,70940.20,70940.20,70877.40,70877.50,365.417
1774425300000,70877.40,70906.60,70854.30,70900.00,383.291
1774425600000,70899.90,70980.00,70899.90,70962.60,318.792
1774425900000,70962.50,70965.90,70801.00,70819.90,661.770
1774426200000,70819.90,70833.00,70752.50,70774.60,626.274
1774426500000,70774.60,71080.00,70774.60,71068.80,758.661
1774426800000,71068.90,71109.60,71006.10,71050.00,466.114
1774427100000,71050.10,71226.00,71007.80,71155.60,748.478
1774427400000,71155.70,71478.00,71142.70,71458.70,2416.603
1774427700000,71458.80,71471.80,71259.80,71330.00,1111.924
1774428000000,71329.90,71460.00,71329.90,71438.20,783.405
1774428300000,71438.30,71438.30,71283.70,71290.70,572.022
1774428600000,71290.70,71305.20,71211.70,71219.90,377.447
1774428900000,71219.90,71258.10,71179.30,71209.10,253.620
1774429200000,71209.20,71260.10,71178.90,71215.80,334.706
1774429500000,71215.80,71330.00,71200.00,71329.90,317.230
1774429800000,71330.00,71347.20,71262.00,71290.00,340.406
1774430100000,71290.00,71361.20,71275.70,71284.30,263.861
1774430400000,71284.30,71358.90,71108.00,71191.20,604.489
1774430700000,71191.20,71275.00,71156.70,71226.70,311.984
1774431000000,71226.60,71290.20,71208.80,71222.90,280.364
1774431300000,71222.80,71270.40,71188.90,71267.40,344.601
1774431600000,71267.40,71274.60,71219.10,71226.30,181.328
1774431900000,71226.40,71229.10,71058.40,71128.00,598.214
1774432200000,71128.00,71188.70,71128.00,71186.00,279.571
1774432500000,71185.90,71376.00,71185.90,71301.50,646.951
1774432800000,71301.40,71400.00,71250.90,71285.50,708.769
1774433100000,71285.40,71376.80,71280.00,71361.20,292.165
1774433400000,71361.30,71420.00,71350.40,71386.90,355.669
1774433700000,71386.90,71450.00,71332.70,71410.00,461.392
1774434000000,71410.00,71446.90,71350.00,71364.70,343.922
1774434300000,71364.80,71409.20,71360.20,71369.80,187.406
1774434600000,71369.70,71381.50,71281.00,71322.70,337.167
1774434900000,71322.70,71376.80,71306.70,71322.90,165.229
1774435200000,71322.90,71398.00,71278.70,71397.90,189.430
1774435500000,71398.00,71600.00,71396.50,71504.90,1617.669
1774435800000,71504.90,71574.70,71488.10,71544.00,507.953
1774436100000,71544.00,71550.50,71448.40,71462.70,493.077
1774436400000,71462.70,71478.60,71425.00,71467.10,290.851
1774436700000,71467.20,71517.30,71430.80,71499.90,261.235
1774437000000,71499.90,71568.00,71473.60,71559.20,431.588
1774437300000,71559.10,71660.00,71559.10,71658.20,832.901
1774437600000,71658.20,71732.80,71620.00,71657.50,1034.121
1774437900000,71657.50,71935.90,71645.10,71832.80,1975.769
1774438200000,71832.90,71949.90,71794.90,71894.50,2208.950
1774438500000,71894.60,71999.90,71777.40,71865.20,1677.091
1774438800000,71865.20,71899.60,71737.30,71782.20,923.511
1774439100000,71782.20,71785.80,71484.50,71561.90,1576.695
1774439400000,71561.90,71663.10,71528.40,71600.90,726.654
1774439700000,71601.00,71660.40,71594.00,71650.30,411.856
1774440000000,71650.30,71760.10,71650.30,71759.30,750.171
1774440300000,71759.30,71816.70,71730.80,71779.70,481.250
1774440600000,71779.70,71800.40,71702.80,71716.90,377.721
1774440900000,71716.90,71721.80,71247.70,71390.40,2874.497
1774441200000,71390.40,71407.00,71085.50,71190.20,2781.740
1774441500000,71190.10,71316.40,71099.00,71310.30,1801.746
1774441800000,71310.30,71344.30,71149.90,71342.00,1314.624
1774442100000,71342.00,71374.60,71260.20,71369.40,712.690
1774442400000,71369.50,71450.00,71322.90,71327.20,935.395
1774442700000,71327.20,71339.10,71249.30,71293.30,601.598
1774443000000,71293.30,71393.00,71252.30,71393.00,369.875
1774443300000,71393.00,71933.30,71386.20,71685.40,3688.522
1774443600000,71685.40,71837.00,71603.80,71700.00,1084.971
1774443900000,71700.00,71712.20,71613.70,71639.70,519.402
1774444200000,71639.80,71740.00,71632.00,71675.40,302.710
1774444500000,71675.30,71675.40,71574.60,71625.30,349.237
1774444800000,71625.30,71683.50,71578.00,71597.50,359.366
1774445100000,71597.50,71611.00,71550.00,71594.20,314.998
1774445400000,71594.20,71873.40,71587.20,71723.80,1448.502
1774445700000,71723.80,71931.90,71723.80,71793.10,1142.734
1774446000000,71793.10,71921.00,71671.00,71696.40,730.600
1774446300000,71696.60,71793.70,71619.00,71625.40,594.985
1774446600000,71625.50,71724.70,71473.30,71625.00,930.214
1774446900000,71625.00,71730.00,71498.40,71546.60,637.464
1774447200000,71546.60,71666.60,71383.20,71450.00,1331.185
1774447500000,71450.00,71575.20,71350.00,71510.00,920.182
1774447800000,71509.90,71509.90,71233.60,71364.90,1326.882
1774448100000,71365.00,71510.80,71288.60,71315.30,594.503
1774448400000,71315.30,71457.80,71232.00,71253.30,646.574
1774448700000,71253.40,71468.80,71253.40,71341.20,717.806
1774449000000,71341.10,71500.00,71287.80,71477.00,466.651
1774449300000,71477.00,71530.00,71271.80,71316.00,507.439
1774449600000,71316.10,71387.30,71300.10,71331.40,362.514
1774449900000,71331.40,71387.10,71250.00,71374.90,642.722
1774450200000,71374.90,71417.30,71303.10,71310.50,385.875
1774450500000,71310.60,71315.20,71190.00,71203.60,550.992
1774450800000,71203.60,71282.30,71183.80,71234.30,562.786
1774451100000,71234.30,71260.90,70851.10,70891.20,3260.422
1774451400000,70891.10,70998.20,70704.60,70788.10,2287.530
1774451700000,70788.20,70840.50,70531.40,70662.00,3496.133
1774452000000,70661.90,70942.00,70657.40,70903.50,1779.007
1774452300000,70903.50,70997.00,70869.90,70986.70,811.383
1774452600000,70986.80,71078.10,70924.70,70937.30,1383.190
1774452900000,70937.30,70953.30,70788.50,70832.30,792.308
1774453200000,70832.40,70883.10,70779.50,70855.10,524.455
1774453500000,70855.20,70862.50,70741.70,70857.50,714.088
1774453800000,70857.40,70924.50,70810.20,70852.90,371.397
1774454100000,70852.90,70916.80,70784.20,70792.40,522.871
1774454400000,70792.40,70867.50,70786.00,70829.80,577.239
1774454700000,70829.80,70956.00,70671.30,70933.30,2065.800
1774455000000,70933.30,70933.40,70813.60,70840.60,524.541
1774455300000,70840.70,70912.80,70797.40,70905.30,443.409
1774455600000,70905.20,71046.40,70853.40,71046.40,763.401
1774455900000,71045.40,71742.20,71040.00,71475.30,6358.571
1774456200000,71475.30,71500.00,71341.70,71390.10,1392.862
1774456500000,71390.00,71605.10,71358.90,71599.30,652.998
1774456800000,71599.30,71599.40,71415.00,71434.50,480.417
1774457100000,71434.60,71437.80,71252.90,71300.00,914.446
1774457400000,71300.00,71380.00,71202.40,71362.10,569.931
1774457700000,71362.00,71380.00,71250.00,71290.00,281.989
1774458000000,71290.00,71361.80,71232.70,71278.40,324.015
1774458300000,71278.40,71278.40,71141.50,71164.60,466.822
1774458600000,71164.60,71184.30,71052.00,71120.50,800.381
1774458900000,71120.40,71120.50,70923.10,70998.20,758.162
1774459200000,70998.20,71114.40,70962.70,71049.90,391.027
1774459500000,71050.00,71176.40,71031.70,71043.70,507.180
1774459800000,71043.70,71043.70,70916.10,70973.30,386.012
1774460100000,70973.30,71000.00,70806.70,70859.30,601.633
1774460400000,70859.20,70980.80,70837.80,70883.40,419.553
1774460700000,70883.30,70948.60,70851.10,70861.90,232.075
1774461000000,70862.00,70894.20,70708.60,70764.40,761.710
1774461300000,70764.30,70811.20,70676.80,70752.60,757.384
1774461600000,70752.60,70847.70,70720.00,70816.80,731.154
1774461900000,70816.80,70918.50,70808.30,70838.80,957.802
1774462200000,70838.70,70900.00,70827.30,70893.30,369.935
1774462500000,70893.20,71037.80,70893.20,70956.70,745.220
1774462800000,70956.70,71121.30,70956.60,71064.40,579.870
1774463100000,71064.40,71064.40,70925.90,70935.30,309.129
1774463400000,70935.30,70979.30,70866.80,70892.40,370.743
1774463700000,70892.40,70925.40,70802.70,70835.00,298.095
1774464000000,70835.10,70837.20,70762.20,70815.80,282.693
1774464300000,70815.70,70901.40,70808.40,70873.10,186.789
1774464600000,70873.10,70946.30,70873.10,70946.20,253.903
1774464900000,70946.30,70946.30,70623.40,70786.80,856.943
1774465200000,70786.80,70973.90,70745.30,70973.90,564.985
1774465500000,70973.90,70984.50,70823.80,70849.80,307.927
1774465800000,70849.80,70861.90,70741.80,70820.30,278.198
1774466100000,70820.30,70865.60,70791.40,70861.00,155.662
1774466400000,70861.00,70960.50,70850.00,70936.70,239.025
1774466700000,70936.70,70941.70,70854.00,70928.20,204.609
1774467000000,70928.00,70936.00,70834.50,70898.30,109.330
1774467300000,70898.30,71023.60,70850.00,71014.80,215.969
1774467600000,71014.80,71082.30,70903.00,70912.00,268.905
1774467900000,70912.00,70932.40,70851.30,70910.80,163.686
1774468200000,70910.90,70967.60,70851.80,70866.30,221.219
1774468500000,70866.30,70872.90,70741.80,70853.20,419.695
1774468800000,70853.30,70879.90,70713.10,70721.80,303.651
1774469100000,70721.80,70764.50,70649.90,70681.10,776.081
1774469400000,70681.10,70748.10,70648.00,70715.00,493.929
1774469700000,70714.90,70781.90,70714.90,70773.80,125.311
1774470000000,70773.90,70773.90,70671.80,70681.80,329.559
1774470300000,70681.70,70713.90,70603.00,70679.90,373.454
1774470600000,70679.90,70720.00,70667.10,70700.20,145.186
1774470900000,70700.00,70822.70,70686.60,70802.20,227.366
1774471200000,70802.10,70917.00,70765.30,70917.00,296.242
1774471500000,70917.10,70961.70,70859.50,70942.50,380.554
1774471800000,70942.50,71028.00,70942.40,71019.10,333.717
1774472100000,71019.10,71019.80,70954.30,70970.00,197.180
1774472400000,70970.00,70999.30,70907.90,70994.40,295.288
1774472700000,70994.50,71036.00,70922.00,71035.50,177.127
1774473000000,71035.60,71149.60,71029.00,71128.40,413.603
1774473300000,71128.50,71145.20,71012.40,71041.90,293.147
1774473600000,71041.90,71049.30,70968.20,70982.10,175.545
1774473900000,70982.20,70982.20,70889.60,70947.00,417.304
1774474200000,70947.00,71009.90,70932.10,70967.00,161.579
1774474500000,70966.90,71038.80,70960.00,71038.70,65.714
1774474800000,71038.70,71070.30,71013.30,71024.70,120.219
1774475100000,71024.80,71075.60,70929.30,70945.60,213.343
1774475400000,70945.60,71006.70,70945.60,70995.20,93.213
1774475700000,70995.20,71006.90,70967.00,71000.00,68.955
1774476000000,71000.00,71103.50,70999.20,71062.30,272.983
1774476300000,71062.20,71062.20,70942.90,70942.90,151.502
1774476600000,70942.90,71000.00,70930.00,70958.50,166.112
1774476900000,70958.50,70975.60,70907.10,70972.60,143.213
1774477200000,70973.00,71005.90,70945.10,70994.60,109.015
1774477500000,70994.50,71050.00,70990.50,71004.50,127.449
1774477800000,71004.50,71195.70,70992.70,71183.20,461.759
1774478100000,71183.20,71323.10,71143.40,71201.90,957.398
1774478400000,71201.90,71606.00,71190.00,71338.40,1702.608
1774478700000,71338.50,71425.70,71322.70,71350.10,316.919
1774479000000,71350.20,71378.00,71279.60,71307.70,194.472
1774479300000,71307.70,71357.80,71280.80,71330.10,175.359
1774479600000,71330.00,71412.10,71323.70,71382.00,348.877
1774479900000,71382.00,71393.80,71330.60,71352.90,222.330
1774480200000,71352.90,71397.90,71279.80,71279.80,216.631
1774480500000,71279.80,71279.90,71202.90,71227.10,203.163
1774480800000,71227.10,71341.90,71200.00,71341.90,249.341
1774481100000,71341.90,71402.60,71310.80,71326.90,205.615
1774481400000,71327.00,71341.50,71260.50,71304.50,205.060
1774481700000,71304.50,71332.00,71230.00,71230.10,167.501
1774482000000,71230.00,71258.40,71155.70,71185.20,322.016
1774482300000,71185.20,71225.10,71143.50,71191.90,174.981
1774482600000,71191.90,71310.60,71191.90,71304.30,206.805
1774482900000,71304.20,71349.90,71287.80,71297.50,196.705
1774483200000,71297.50,71343.30,71206.70,71206.70,519.192
1774483500000,71206.70,71253.00,71178.40,71178.40,173.681
1774483800000,71178.40,71217.70,71139.60,71217.70,220.197
1774484100000,71217.80,71346.50,71197.30,71205.80,306.903
1774484400000,71205.70,71280.00,71194.30,71266.40,140.252
1774484700000,71266.50,71273.70,71213.10,71261.00,93.467
1774485000000,71261.00,71342.30,71239.90,71266.00,337.316
1774485300000,71266.00,71372.20,71266.00,71292.20,326.069
1774485600000,71292.30,71337.20,71280.90,71316.10,154.388
1774485900000,71316.10,71408.10,71305.20,71355.50,384.728
1774486200000,71355.60,71363.00,71186.40,71187.70,507.912
1774486500000,71187.70,71266.00,71088.10,71265.80,583.789
1774486800000,71265.80,71339.90,71240.40,71258.60,210.919
1774487100000,71258.70,71270.00,71157.80,71207.90,207.445
1774487400000,71208.00,71258.00,71176.60,71231.50,180.510
1774487700000,71231.50,71231.60,71116.90,71174.60,223.354
1774488000000,71174.50,71270.20,71174.50,71270.10,111.304
1774488300000,71270.20,71341.00,71224.70,71283.70,303.031
1774488600000,71283.70,71324.60,71254.50,71287.10,140.999
