timestamp,open,high,low,close,volume
1773810000000,74139.50,74225.40,74119.90,74141.00,496.776
1773810300000,74141.00,74232.40,74140.90,74226.40,217.387
1773810600000,74226.30,74271.00,74210.50,74244.00,204.865
1773810900000,74244.00,74253.20,74193.00,74195.70,144.098
1773811200000,74195.70,74195.70,74120.40,74131.40,131.354
1773811500000,74131.40,74135.80,74005.00,74027.70,477.009
1773811800000,74027.70,74118.60,74005.00,74005.00,459.667
1773812100000,74005.10,74048.30,73983.30,74043.20,251.654
1773812400000,74043.10,74044.00,73955.50,73959.20,246.639
1773812700000,73959.30,74025.50,73937.80,73953.70,456.674
1773813000000,73953.80,73974.60,73800.00,73802.30,900.637
1773813300000,73802.30,73941.20,73785.00,73911.20,739.910
1773813600000,73911.20,73995.40,73901.10,73995.40,333.812
1773813900000,73995.50,74037.80,73987.40,74029.00,348.297
1773814200000,74028.90,74072.10,73980.00,74049.60,307.306
1773814500000,74049.70,74063.30,73990.00,74050.40,240.588
1773814800000,74050.50,74175.00,74004.90,74151.10,454.247
1773815100000,74151.10,74190.10,74126.70,74138.30,251.542
1773815400000,74138.20,74176.00,74128.40,74128.50,158.732
1773815700000,74128.40,74140.30,74000.10,74029.30,255.915
1773816000000,74029.20,74029.30,73962.70,74011.10,286.540
1773816300000,74011.00,74066.90,73997.50,73998.70,223.192
1773816600000,73998.70,74053.70,73998.70,74042.70,85.071
1773816900000,74042.80,74050.00,73892.00,73910.00,344.267
1773817200000,73910.10,73959.40,73890.70,73901.20,219.584
1773817500000,73901.30,73919.20,73816.00,73822.10,365.114
1773817800000,73822.00,73952.80,73822.00,73941.20,306.823
1773818100000,73941.00,73950.70,73858.70,73859.10,199.575
1773818400000,73859.10,73865.80,73807.10,73859.80,251.423
1773818700000,73859.70,73864.50,73763.00,73804.60,388.676
1773819000000,73804.50,73804.60,73710.10,73717.60,423.897
1773819300000,73717.60,73789.30,73636.50,73691.00,867.909
1773819600000,73691.00,73774.20,73673.50,73673.60,494.301
1773819900000,73673.50,73794.00,73652.30,73786.50,502.125
1773820200000,73786.60,73874.60,73782.60,73865.20,440.672
1773820500000,73865.10,73869.70,73820.00,73840.00,304.019
1773820800000,73840.10,73933.30,73814.30,73918.80,516.090
1773821100000,73918.90,73985.00,73894.10,73894.10,287.209
1773821400000,73894.20,73984.70,73860.30,73969.70,395.964
1773821700000,73969.60,74015.20,73922.00,73970.10,314.472
1773822000000,73970.10,74017.30,73970.00,74015.90,165.878
1773822300000,74016.00,74031.40,73952.50,73996.60,479.047
1773822600000,73996.50,74029.30,73934.40,74017.40,282.148
1773822900000,74017.50,74069.30,73924.80,74061.40,434.341
1773823200000,74061.40,74061.50,73972.90,74039.20,133.299
1773823500000,74039.10,74051.60,73990.30,74040.00,373.203
1773823800000,74040.00,74080.10,73971.10,73994.00,313.922
1773824100000,73994.00,74016.50,73972.90,74005.80,211.835
1773824400000,74005.90,74069.00,73991.10,74052.20,196.434
1773824700000,74052.20,74115.60,74042.50,74098.30,278.238
1773825000000,74098.30,74152.50,74075.00,74122.60,318.143
1773825300000,74122.60,74150.00,74090.70,74145.70,294.649
1773825600000,74145.60,74184.50,74087.50,74087.90,316.245
1773825900000,74088.00,74114.50,74071.90,74113.40,157.420
1773826200000,74113.40,74158.40,74093.40,74151.00,170.590
1773826500000,74151.00,74215.00,74114.30,74193.80,410.268
1773826800000,74193.80,74246.20,74193.80,74204.00,345.171
1773827100000,74203.90,74237.10,74158.10,74170.40,228.726
1773827400000,74170.40,74172.70,74071.10,74081.10,295.727
1773827700000,74081.10,74142.40,74077.80,74136.00,193.503
1773828000000,74136.00,74166.80,74086.00,74087.00,203.538
1773828300000,74087.00,74106.90,74051.90,74103.90,231.873
1773828600000,74103.90,74220.00,74103.90,74204.90,298.729
1773828900000,74205.00,74205.00,74161.20,74168.10,118.414
1773829200000,74168.00,74171.50,74128.10,74129.60,100.194
1773829500000,74129.50,74170.40,74128.00,74135.10,139.606
1773829800000,74135.00,74166.70,74036.00,74051.70,237.436
1773830100000,74051.70,74054.40,73938.40,73947.80,506.481
1773830400000,73947.90,73990.00,73820.00,73837.60,675.687
1773830700000,73837.70,73896.90,73761.50,73895.00,1093.275
1773831000000,73895.00,73907.00,73840.90,73866.70,277.136
1773831300000,73866.70,73897.60,73841.20,73895.00,238.878
1773831600000,73895.00,73900.00,73750.00,73790.00,539.363
1773831900000,73790.10,73887.90,73680.50,73887.90,783.328
1773832200000,73887.80,74034.80,73881.70,73910.20,486.877
1773832500000,73910.20,73972.60,73901.90,73940.80,209.333
1773832800000,73940.70,73953.50,73868.40,73877.20,133.939
1773833100000,73877.30,73881.60,73499.30,73555.90,2096.119
1773833400000,73555.90,73560.50,73005.00,73153.20,6694.667
1773833700000,73153.20,73163.80,72732.90,72808.10,5683.966
1773834000000,72808.10,73088.50,72731.60,73065.70,2888.013
1773834300000,73065.80,73110.50,72935.90,72971.40,1623.624
1773834600000,72971.40,73103.30,72940.00,72972.00,819.263
1773834900000,72972.00,73030.90,72842.20,72906.40,1129.485
1773835200000,72906.40,72947.40,72788.80,72893.80,1620.330
1773835500000,72893.80,72905.80,72660.10,72742.40,1737.106
1773835800000,72742.40,72768.90,72613.50,72718.20,1483.108
1773836100000,72718.20,72820.00,72655.00,72714.50,1381.191
1773836400000,72714.40,72800.00,72658.80,72777.70,853.906
1773836700000,72777.70,72851.30,72747.30,72782.20,1041.757
1773837000000,72782.20,72782.20,72250.00,72351.20,5176.370
1773837300000,72351.30,72503.70,72347.00,72419.60,2143.030
1773837600000,72419.60,72502.70,72310.20,72393.20,1728.716
1773837900000,72393.20,72405.10,72266.00,72351.10,1719.788
1773838200000,72351.10,72428.90,72237.50,72408.80,1187.458
1773838500000,72408.70,72458.50,72304.60,72325.10,1041.541
1773838800000,72325.10,72409.40,72088.00,72314.90,4981.602
1773839100000,72315.00,72425.70,72260.10,72354.70,1494.093
1773839400000,72354.60,72420.00,72268.50,72400.10,1287.038
1773839700000,72400.00,72400.10,72266.10,72309.70,918.927
1773840000000,72309.70,72500.00,72308.40,72486.90,1480.493
1773840300000,72486.90,72507.80,72412.00,72444.90,839.710
1773840600000,72445.00,72445.00,72188.80,72247.50,1580.600
1773840900000,72247.60,72509.70,72229.30,72433.90,2028.209
1773841200000,72433.80,72547.50,72288.00,72299.40,1653.466
1773841500000,72299.30,72349.00,72160.50,72196.00,1596.966
1773841800000,72196.00,72221.50,72088.10,72114.70,1419.684
1773842100000,72114.60,72140.20,71938.60,72104.40,3696.740
1773842400000,72104.50,72194.10,71883.20,71988.60,1964.185
1773842700000,71988.70,72138.00,71850.00,72080.10,1412.892
1773843000000,72080.00,72087.60,71826.70,71846.90,1203.619
1773843300000,71846.80,71957.60,71830.00,71904.60,980.845
1773843600000,71904.60,71997.70,71851.30,71972.00,645.701
1773843900000,71972.10,71993.00,71550.00,71620.70,4501.406
1773844200000,71620.70,71777.90,71518.50,71697.30,2263.912
1773844500000,71697.30,71842.70,71615.80,71615.90,1498.706
1773844800000,71615.90,71638.20,71444.00,71467.20,2084.319
1773845100000,71467.30,71587.50,71466.50,71562.30,1139.378
1773845400000,71562.30,71578.80,71275.00,71351.90,2885.258
1773845700000,71351.90,71443.40,70975.10,71160.30,4759.748
1773846000000,71160.40,71343.00,70821.20,71274.40,6002.109
1773846300000,71274.30,71455.90,71196.30,71308.50,3675.888
1773846600000,71308.60,71308.60,70919.90,71036.40,2744.565
1773846900000,71036.50,71219.80,70964.30,71186.00,2409.827
1773847200000,71185.90,71267.00,71162.20,71243.10,1538.466
1773847500000,71243.10,71300.00,71162.20,71260.00,1104.085
1773847800000,71260.00,71476.60,71179.90,71416.30,2100.874
1773848100000,71416.20,71429.50,71254.90,71359.40,1805.963
1773848400000,71359.30,71389.80,71240.80,71328.30,634.118
1773848700000,71328.40,71352.20,71173.80,71320.00,658.584
1773849000000,71320.00,71412.10,71297.90,71405.80,823.644
1773849300000,71405.80,71497.00,71372.70,71436.40,1362.724
1773849600000,71436.30,71536.00,71319.80,71323.60,1508.823
1773849900000,71323.60,71346.80,71175.90,71200.10,980.868
1773850200000,71200.10,71301.00,71130.10,71214.10,1144.311
1773850500000,71214.20,71306.90,71150.00,71239.60,618.052
1773850800000,71239.70,71260.30,71139.60,71157.80,527.159
1773851100000,71157.80,71288.10,71061.40,71199.50,933.240
1773851400000,71199.50,71252.80,71075.60,71089.70,734.142
1773851700000,71089.40,71266.00,71001.80,71232.90,818.111
1773852000000,71233.00,71265.30,71155.20,71251.40,571.044
1773852300000,71251.30,71332.40,71224.40,71307.90,631.502
1773852600000,71307.90,71438.30,71290.00,71346.70,750.538
1773852900000,71346.70,71372.80,71227.50,71289.50,1072.190
1773853200000,71289.50,71365.10,71164.70,71291.90,1071.225
1773853500000,71291.90,71295.00,71174.20,71231.70,348.097
1773853800000,71231.70,71300.00,71231.70,71256.60,197.380
1773854100000,71256.90,71320.90,71170.00,71320.90,338.627
1773854400000,71320.80,71461.70,71311.80,71459.40,691.773
1773854700000,71459.30,71486.00,71340.00,71446.70,445.302
1773855000000,71446.80,71456.80,71311.70,71437.90,516.298
1773855300000,71437.80,71698.00,71436.40,71663.50,1508.253
1773855600000,71663.50,71663.50,71459.70,71555.50,880.276
1773855900000,71555.40,71722.20,71549.00,71656.20,712.704
1773856200000,71656.20,71656.20,71519.00,71596.30,536.534
1773856500000,71596.30,71659.40,71530.00,71556.60,685.955
1773856800000,71556.60,71944.90,71553.30,71886.90,2843.393
1773857100000,71886.90,71980.50,71800.00,71800.00,1228.294
1773857400000,71800.00,71900.00,71745.50,71843.80,893.278
1773857700000,71843.80,71843.80,71570.30,71615.20,1341.933
1773858000000,71615.10,71678.00,71517.60,71615.50,888.947
1773858300000,71615.50,71650.00,71558.00,71649.90,347.646
1773858600000,71650.00,71814.20,71436.50,71436.50,861.166
1773858900000,71436.50,71715.70,71436.50,71544.00,577.530
1773859200000,71544.00,71662.70,71507.60,71576.20,421.691
1773859500000,71576.40,71576.40,71355.40,71370.10,671.001
1773859800000,71370.00,71438.60,71043.00,71049.20,2160.711
1773860100000,71049.10,71137.90,70904.50,71066.50,2115.950
1773860400000,71066.50,71321.10,71046.00,71321.10,1369.979
1773860700000,71321.10,71392.10,71231.20,71384.80,613.868
1773861000000,71384.80,71384.80,71252.40,71298.20,433.672
1773861300000,71298.30,71460.30,71273.80,71401.20,431.503
1773861600000,71401.20,71408.00,71251.60,71260.00,351.986
1773861900000,71260.00,71274.10,71163.50,71248.80,526.364
1773862200000,71248.90,71327.90,71052.30,71123.70,1324.628
1773862500000,71123.70,71156.80,71077.00,71077.00,584.285
1773862800000,71077.10,71110.00,70955.60,71026.60,1033.497
1773863100000,71026.50,71067.60,70962.80,70984.10,369.015
1773863400000,70984.10,71074.60,70858.30,71054.60,629.152
1773863700000,71054.60,71114.60,70980.00,71030.30,548.604
1773864000000,71030.30,71030.30,70886.40,70950.10,788.756
1773864300000,70950.10,70953.50,70550.00,70577.50,3961.142
1773864600000,70577.50,70749.90,70456.00,70716.30,2238.845
1773864900000,70716.20,70850.00,70688.50,70747.00,1416.685
1773865200000,70747.10,70864.00,70734.40,70850.00,435.518
1773865500000,70850.00,70999.00,70831.70,70945.30,856.390
1773865800000,70945.40,71249.00,70913.20,71212.00,1635.037
1773866100000,71212.00,71298.00,71088.00,71165.80,768.746
1773866400000,71165.90,71184.90,71122.40,71129.90,399.077
1773866700000,71129.90,71293.10,71088.10,71246.40,364.340
1773867000000,71246.40,71264.20,71176.00,71220.20,333.844
1773867300000,71220.10,71239.20,71172.30,71172.30,166.056
1773867600000,71172.30,71301.90,71145.20,71262.40,282.853
1773867900000,71262.40,71346.50,71260.10,71314.20,432.506
1773868200000,71314.10,71438.10,71245.00,71245.00,504.172
1773868500000,71245.00,71330.60,71227.40,71287.10,206.438
1773868800000,71287.10,71339.00,71260.00,71267.00,259.619
1773869100000,71267.10,71267.10,71201.10,71203.40,204.886
1773869400000,71203.40,71237.20,71152.80,71152.80,172.969
1773869700000,71152.80,71317.70,71127.50,71309.00,233.372
1773870000000,71309.00,71378.20,71260.30,71292.50,247.272
1773870300000,71292.60,71306.00,71246.10,71297.60,301.954
1773870600000,71297.60,71300.00,71255.30,71280.00,88.748
1773870900000,71280.00,71329.70,71219.60,71219.70,223.222
1773871200000,71219.70,71233.20,71066.60,71077.00,442.092
1773871500000,71076.90,71093.50,70957.90,70987.00,788.028
1773871800000,70986.90,71020.00,70920.00,70966.00,311.673
1773872100000,70966.10,71090.30,70929.80,71067.00,358.133
1773872400000,71067.00,71080.50,70964.80,71066.70,256.249
1773872700000,71066.80,71066.80,70977.60,71056.50,164.201
1773873000000,71056.50,71086.60,70937.00,71008.80,261.011
1773873300000,71008.80,71025.20,70969.90,70999.90,150.002
1773873600000,71000.00,71034.20,70899.90,71027.40,261.080
1773873900000,71027.50,71061.50,70984.60,71046.40,249.132
1773874200000,71046.40,71079.20,71006.70,71050.60,119.644
1773874500000,71050.60,71118.00,71050.50,71118.00,192.547
1773874800000,71117.90,71234.00,71024.80,71098.50,599.413
1773875100000,71098.50,71212.80,71070.80,71199.20,225.773
1773875400000,71199.10,71202.90,71115.10,71121.40,253.488
1773875700000,71121.40,71133.70,71036.30,71079.40,197.154
1773876000000,71079.50,71113.00,71058.40,71109.90,161.943
1773876300000,71109.90,71179.20,71085.30,71171.30,122.633
1773876600000,71171.40,71299.30,71171.30,71287.30,406.356
1773876900000,71287.30,71314.40,71258.30,71294.50,235.508
1773877200000,71294.50,71303.20,71234.00,71237.10,173.412
1773877500000,71237.10,71333.10,71171.70,71298.00,622.675
1773877800000,71298.10,71298.10,71193.30,71243.90,202.681
1773878100000,71244.00,71268.50,71202.90,71202.90,162.902
1773878400000,71202.90,71258.90,71134.10,71224.80,651.031
1773878700000,71224.70,71274.00,71170.30,71170.40,236.060
1773879000000,71170.40,71170.40,71048.40,71148.70,426.922
1773879300000,71148.70,71166.20,71087.00,71112.30,153.780
1773879600000,71112.30,71130.00,71052.10,71078.40,208.266
1773879900000,71078.30,71283.30,71062.90,71261.70,307.859
1773880200000,71261.70,71265.80,71083.00,71084.40,249.940
1773880500000,71084.40,71102.10,71014.20,71078.30,463.128
1773880800000,71078.30,71092.90,71005.50,71031.60,169.089
1773881100000,71031.60,71087.20,71013.80,71013.90,216.890
1773881400000,71013.80,71055.00,70950.00,71015.10,537.142
1773881700000,71015.10,71033.10,70940.00,70970.10,273.463
1773882000000,70970.00,71078.60,70962.00,70971.10,292.332
1773882300000,70971.20,71050.00,70930.00,70956.30,313.265
1773882600000,70956.40,70987.20,70939.00,70970.00,211.316
1773882900000,70970.10,71048.40,70963.50,70968.70,292.541
1773883200000,70968.80,71018.20,70921.50,70948.00,161.538
1773883500000,70948.00,71043.60,70932.70,71040.10,144.470
1773883800000,71040.00,71080.00,70970.90,71060.50,208.832
1773884100000,71060.60,71105.30,71033.00,71062.20,278.161
1773884400000,71062.20,71132.20,71009.30,71103.70,260.261
1773884700000,71103.70,71149.90,71085.60,71137.80,213.107
1773885000000,71137.80,71144.90,71049.10,71137.90,154.455
1773885300000,71138.00,71147.10,71077.80,71078.50,160.991
1773885600000,71078.50,71078.50,70858.40,71003.20,444.613
1773885900000,71003.10,71149.70,70940.20,71060.50,373.920
1773886200000,71060.60,71183.80,71060.60,71147.00,313.303
1773886500000,71147.00,71216.00,71101.80,71113.20,300.852
1773886800000,71113.30,71214.70,71113.30,71148.40,210.060
1773887100000,71148.30,71221.00,71125.00,71221.00,294.912
1773887400000,71220.90,71226.70,71130.00,71214.10,248.762
1773887700000,71214.10,71222.20,71168.00,71172.10,137.781
1773888000000,71172.00,71218.00,71167.90,71170.20,193.697
1773888300000,71170.20,71184.40,71073.30,71073.40,248.530
1773888600000,71073.40,71091.00,71016.10,71060.40,238.090
1773888900000,71060.50,71069.10,71001.10,71020.60,176.697
1773889200000,71020.70,71096.00,71020.70,71063.50,165.488
1773889500000,71063.50,71180.20,71023.80,71164.60,216.900
1773889800000,71164.60,71208.10,71154.60,71156.20,304.839
1773890100000,71156.30,71598.30,71150.00,71543.50,2297.598
1773890400000,71543.50,71543.50,71426.60,71455.60,883.711
1773890700000,71455.70,71550.00,71392.40,71462.30,681.919
1773891000000,71462.40,71504.80,71312.70,71339.00,595.990
1773891300000,71339.10,71344.70,71245.50,71260.10,544.403
1773891600000,71260.20,71288.80,71200.00,71211.80,359.405
1773891900000,71211.90,71283.70,71164.80,71270.50,559.574
1773892200000,71270.50,71270.50,71213.40,71249.10,197.713
1773892500000,71249.10,71249.10,71175.80,71180.00,232.704
1773892800000,71180.00,71180.00,71073.50,71088.70,437.091
1773893100000,71088.80,71088.80,70688.00,70809.90,2150.052
1773893400000,70810.00,70862.20,70766.60,70835.90,616.446
1773893700000,70836.00,70908.70,70808.50,70836.00,587.164
1773894000000,70836.00,70836.00,70738.00,70741.50,320.546
1773894300000,70741.50,70741.60,70625.90,70700.00,943.041
1773894600000,70699.90,70773.70,70619.30,70765.10,732.195
1773894900000,70765.10,70807.20,70727.80,70751.00,606.144
1773895200000,70751.00,70787.70,70655.80,70756.80,349.354
1773895500000,70756.70,70764.60,70700.40,70738.80,157.713
1773895800000,70738.80,70809.70,70735.00,70791.00,163.019
1773896100000,70790.90,70848.60,70785.60,70790.70,297.293
1773896400000,70790.70,70879.00,70786.40,70838.50,337.234
1773896700000,70838.50,70844.40,70736.00,70779.80,318.696
1773897000000,70779.90,70800.10,70720.00,70779.50,205.119
1773897300000,70779.40,70853.40,70764.50,70832.10,189.493
1773897600000,70832.10,70851.30,70759.10,70785.20,183.515
1773897900000,70785.20,70794.80,70643.50,70658.30,378.898
1773898200000,70658.20,70716.40,70608.10,70666.20,422.357
1773898500000,70666.20,70773.30,70666.10,70756.70,276.477
1773898800000,70756.80,70848.10,70744.30,70750.10,260.347
1773899100000,70750.20,70807.90,70683.10,70793.50,245.814
1773899400000,70793.50,70811.00,70750.00,70803.90,231.577
1773899700000,70803.80,70820.00,70759.00,70792.80,223.965
1773900000000,70792.70,70812.20,70693.90,70737.70,251.135
1773900300000,70737.60,70945.50,70681.20,70840.10,679.709
1773900600000,70840.00,70889.90,70811.00,70837.30,195.476
1773900900000,70837.20,70902.50,70825.20,70838.80,283.096
1773901200000,70838.90,70890.00,70761.20,70780.20,268.833
1773901500000,70780.20,70857.70,70686.30,70692.20,277.571
1773901800000,70692.20,70725.40,70550.60,70603.40,718.309
1773902100000,70603.40,70686.30,70522.60,70667.90,728.068
1773902400000,70667.90,70696.40,70635.40,70689.30,276.035
1773902700000,70689.20,70706.30,70600.00,70611.30,212.211
1773903000000,70611.20,70634.20,70538.20,70570.50,531.459
1773903300000,70570.60,70606.60,70468.00,70552.40,1222.304
1773903600000,70552.40,70570.00,70300.00,70409.00,2806.781
1773903900000,70409.00,70463.40,70177.30,70273.50,1990.671
1773904200000,70273.40,70278.10,69907.10,69940.40,5980.335
1773904500000,69940.30,69999.00,69721.20,69792.90,3882.085
1773904800000,69792.90,69799.90,69421.10,69616.90,4549.976
1773905100000,69616.90,69848.80,69590.80,69769.80,2973.552
1773905400000,69769.80,69966.00,69746.50,69921.40,1515.830
1773905700000,69921.40,70145.30,69902.00,70134.60,1679.156
1773906000000,70134.60,70199.90,70047.30,70056.20,1113.135
1773906300000,70056.20,70069.30,69958.00,70002.70,816.424
1773906600000,70002.60,70265.50,69980.10,70192.80,1049.149
1773906900000,70192.80,70270.00,70100.00,70145.10,1317.561
1773907200000,70145.00,70255.00,70056.10,70071.80,915.048
1773907500000,70071.80,70159.70,70065.10,70116.20,418.975
1773907800000,70116.20,70213.20,70074.60,70131.30,576.716
1773908100000,70131.30,70197.00,70077.70,70113.90,484.840
1773908400000,70114.00,70194.60,70040.00,70154.00,366.517
1773908700000,70153.90,70153.90,70029.30,70029.30,701.524
1773909000000,70029.40,70088.00,70029.30,70029.30,1369.107
1773909300000,70029.40,70045.10,69860.30,69866.90,2769.228
1773909600000,69866.90,70138.00,69864.80,69988.30,1329.639
1773909900000,69988.20,70104.30,69967.40,70084.80,455.867
1773910200000,70084.80,70100.10,69911.00,69962.00,491.753
1773910500000,69962.00,69977.00,69890.60,69957.40,365.645
1773910800000,69957.40,70135.20,69957.40,70066.90,420.006
1773911100000,70066.90,70109.90,70015.20,70070.10,324.267
1773911400000,70070.00,70092.70,69950.00,70006.90,431.402
1773911700000,70006.90,70082.00,69967.70,70081.90,245.438
1773912000000,70081.90,70433.60,70062.40,70244.20,2289.837
1773912300000,70244.20,70311.20,70113.20,70223.80,979.621
1773912600000,70223.80,70332.60,70048.20,70167.90,1388.488
1773912900000,70168.00,70367.80,70156.00,70305.90,430.641
1773913200000,70306.00,70441.80,70288.60,70413.50,834.438
1773913500000,70413.50,70524.90,70380.00,70499.90,856.823
1773913800000,70500.00,70535.00,70390.00,70394.30,838.271
1773914100000,70394.40,70500.00,70382.20,70463.00,411.259
1773914400000,70463.00,70499.00,70380.40,70385.70,643.070
1773914700000,70385.80,70476.40,70380.00,70387.60,333.642
1773915000000,70387.60,70419.20,70363.90,70382.10,220.883
1773915300000,70382.20,70456.90,70380.50,70413.60,241.752
1773915600000,70413.60,70469.20,70324.80,70401.90,340.874
1773915900000,70401.80,70427.60,70360.00,70369.50,134.912
1773916200000,70369.50,70381.60,70285.00,70285.10,386.502
1773916500000,70285.00,70324.60,70200.00,70203.50,379.997
1773916800000,70203.50,70214.40,70149.60,70189.90,389.432
1773917100000,70189.90,70242.20,70168.80,70234.10,232.943
1773917400000,70234.10,70234.10,70115.80,70143.80,341.032
1773917700000,70143.90,70149.60,70082.40,70102.00,357.733
1773918000000,70102.10,70238.70,70082.80,70127.20,481.320
1773918300000,70127.30,70134.00,70077.00,70099.80,245.438
1773918600000,70099.80,70152.30,70034.80,70101.80,431.875
1773918900000,70101.70,70173.80,70086.90,70150.00,260.776
1773919200000,70149.90,70204.90,70148.70,70166.90,304.620
1773919500000,70166.90,70190.00,70138.90,70163.00,195.542
1773919800000,70163.10,70214.40,70100.00,70100.00,197.681
1773920100000,70100.10,70100.10,69989.00,69989.10,862.251
1773920400000,69989.20,70017.50,69968.40,69993.40,432.653
1773920700000,69993.50,70041.20,69973.80,69980.80,307.483
1773921000000,69980.80,69996.70,69924.90,69929.90,465.183
1773921300000,69929.90,69934.80,69872.30,69926.80,815.482
1773921600000,69926.80,69926.80,69800.70,69814.80,756.163
1773921900000,69814.80,69814.90,69568.10,69650.00,3797.157
1773922200000,69650.00,69835.90,69649.90,69773.10,1287.948
1773922500000,69773.10,69793.80,69568.00,69620.10,1037.021
1773922800000,69620.10,69717.90,69620.10,69667.30,401.092
1773923100000,69667.30,69673.00,69523.90,69577.50,893.214
1773923400000,69577.50,69594.70,69512.10,69555.10,797.270
1773923700000,69555.10,69690.90,69555.10,69627.50,589.256
1773924000000,69627.60,69748.60,69580.00,69606.70,567.028
1773924300000,69606.60,69633.00,69471.40,69482.40,914.252
1773924600000,69482.30,69500.00,69069.00,69276.80,3771.508
1773924900000,69276.90,69360.30,69245.70,69264.60,1068.477
1773925200000,69264.70,69426.50,69120.90,69395.00,2973.308
1773925500000,69395.00,69428.10,69282.80,69362.90,790.439
1773925800000,69362.80,69368.10,69050.00,69067.40,1423.309
1773926100000,69067.30,69333.10,69053.90,69299.90,1459.705
1773926400000,69299.90,69491.50,69261.50,69290.10,864.560
1773926700000,69290.10,69339.40,69258.10,69312.00,425.861
1773927000000,69311.90,69431.50,69209.30,69395.60,1208.278
1773927300000,69395.60,69424.70,69216.20,69282.60,1013.061
1773927600000,69282.70,69797.00,69223.00,69673.40,2752.277
1773927900000,69673.30,69848.90,69514.00,69841.00,1635.848
1773928200000,69841.00,70051.00,69750.00,70041.30,2101.879
1773928500000,70041.40,70058.00,69821.20,69866.30,1293.047
1773928800000,69866.20,70144.60,69743.90,69781.90,1687.585
1773929100000,69782.00,69859.10,69559.00,69610.00,1254.976
1773929400000,69610.10,69714.40,69453.10,69478.40,1365.528
1773929700000,69478.30,69528.60,69310.60,69394.70,1312.098
1773930000000,69394.70,69485.00,69255.00,69319.60,904.061
1773930300000,69319.70,69386.00,69097.10,69134.60,1384.941
1773930600000,69134.70,69308.30,69065.80,69305.10,1187.106
1773930900000,69305.00,69331.50,69060.00,69130.70,1042.671
1773931200000,69130.60,69339.20,69102.00,69250.00,1169.696
1773931500000,69250.10,69298.70,69161.90,69296.60,1051.941
1773931800000,69296.60,69549.70,69279.30,69454.70,1891.663
1773932100000,69454.70,69560.10,69370.00,69450.10,1189.854
1773932400000,69450.00,69734.00,69413.20,69733.60,1417.460
1773932700000,69733.70,69879.10,69638.00,69675.00,1815.973
1773933000000,69674.90,69764.30,69572.50,69664.60,931.474
1773933300000,69664.60,69777.00,69320.30,69347.40,1465.215
1773933600000,69347.40,69409.60,69200.00,69220.20,1326.384
1773933900000,69220.20,69284.60,69168.00,69168.10,868.215
1773934200000,69168.00,69293.50,69162.80,69183.50,966.667
1773934500000,69183.40,69350.00,69111.50,69216.40,1948.559
1773934800000,69216.50,69225.80,68844.80,68862.40,4741.231
1773935100000,68862.40,69249.00,68750.00,69200.20,3469.957
1773935400000,69200.20,69419.60,69146.20,69394.10,2957.445
1773935700000,69394.10,69535.60,69296.00,69372.70,1693.275
1773936000000,69372.80,69502.60,69301.10,69332.10,1056.555
1773936300000,69332.20,69350.00,69184.20,69234.00,797.530
1773936600000,69234.10,69333.00,69166.80,69307.00,752.446
1773936900000,69306.90,69348.30,69124.00,69290.90,1066.575
1773937200000,69290.80,69472.80,69276.80,69436.20,1239.588
1773937500000,69436.30,69576.80,69436.30,69497.20,1270.720
1773937800000,69497.20,69497.30,69265.20,69321.10,865.784
1773938100000,69321.10,69441.40,69225.80,69437.10,502.867
1773938400000,69437.10,69611.60,69426.90,69485.80,754.182
1773938700000,69485.70,69511.90,69350.30,69419.80,421.157
1773939000000,69419.80,69446.60,69250.00,69392.00,538.684
1773939300000,69392.00,69468.10,69361.40,69426.30,345.877
1773939600000,69426.30,69462.90,69279.80,69280.60,433.343
1773939900000,69280.50,69303.10,69065.40,69116.20,1037.846
1773940200000,69116.10,69315.50,69087.20,69194.00,718.700
1773940500000,69194.00,69419.20,69150.20,69407.60,617.726
1773940800000,69407.60,69683.50,69331.00,69583.60,1076.479
1773941100000,69583.70,69723.90,69560.00,69631.20,873.128
1773941400000,69631.10,69737.00,69527.40,69591.20,748.422
1773941700000,69591.20,69591.20,69452.80,69499.70,468.430
1773942000000,69499.70,69586.30,69483.80,69550.10,178.437
1773942300000,69550.00,69671.30,69513.80,69656.30,369.371
1773942600000,69656.20,69938.10,69646.10,69819.70,1441.939
1773942900000,69819.70,69857.20,69777.00,69820.00,546.004
1773943200000,69820.00,69843.80,69686.00,69727.60,389.652
1773943500000,69727.60,69799.70,69710.00,69749.60,331.299
1773943800000,69749.50,69900.00,69743.20,69800.00,459.131
1773944100000,69800.10,69884.00,69723.40,69762.50,295.708
1773944400000,69762.60,69810.00,69712.80,69733.30,242.405
1773944700000,69733.30,69733.30,69572.70,69627.60,577.952
1773945000000,69627.50,69670.30,69566.00,69624.50,401.007
1773945300000,69624.40,69732.40,69603.50,69650.00,251.498
1773945600000,69650.00,69683.10,69614.50,69683.00,171.034
1773945900000,69683.00,69699.40,69561.30,69598.00,228.150
1773946200000,69598.10,69708.20,69547.70,69676.20,209.650
1773946500000,69676.10,69822.00,69650.00,69787.50,335.640
1773946800000,69787.40,69989.80,69765.50,69974.20,930.891
1773947100000,69974.30,70185.00,69962.80,70025.60,2243.150
1773947400000,70025.60,70517.30,70020.00,70316.30,3804.037
1773947700000,70316.40,70528.80,70207.50,70503.90,1641.245
1773948000000,70503.90,70563.50,70400.50,70486.20,1671.451
1773948300000,70486.30,70486.30,70190.90,70243.10,843.973
1773948600000,70243.10,70409.50,70122.70,70250.00,1147.504
1773948900000,70250.00,70364.10,70122.00,70357.10,735.776
1773949200000,70357.00,70459.60,70303.60,70408.10,610.078
1773949500000,70408.50,70408.50,70319.70,70334.00,312.980
1773949800000,70334.00,70336.10,70138.00,70250.50,577.544
1773950100000,70250.60,70291.80,70162.20,70233.10,361.476
1773950400000,70233.00,70276.20,70161.00,70224.20,278.064
1773950700000,70224.20,70298.00,70168.90,70264.20,323.573
1773951000000,70264.20,70272.40,70160.90,70253.90,202.827
1773951300000,70253.90,70425.70,70253.90,70418.50,343.997
1773951600000,70418.60,70443.40,70321.40,70327.80,319.184
1773951900000,70327.90,70388.00,70277.80,70300.00,186.705
1773952200000,70299.90,70381.90,70279.80,70348.70,152.116
1773952500000,70348.60,70543.00,70340.10,70543.00,463.726
1773952800000,70543.00,70655.20,70457.80,70472.00,901.821
1773953100000,70471.90,70493.80,70390.80,70429.30,324.300
1773953400000,70429.40,70453.40,70400.00,70446.00,238.084
1773953700000,70446.00,70480.90,70410.90,70444.30,272.565
1773954000000,70444.40,70550.00,70409.40,70517.30,216.738
1773954300000,70517.30,70626.30,70495.30,70626.20,255.145
1773954600000,70626.20,70654.40,70610.20,70647.00,357.224
1773954900000,70647.10,70647.10,70557.30,70557.30,314.389
1773955200000,70557.30,70575.00,70469.40,70553.00,367.247
1773955500000,70553.00,70575.00,70493.20,70510.40,132.438
1773955800000,70510.50,70550.00,70394.70,70441.80,273.473
1773956100000,70441.70,70502.40,70435.50,70443.40,160.987
1773956400000,70443.30,70480.50,70400.00,70424.80,222.895
1773956700000,70424.80,70424.80,70354.30,70375.00,222.561
1773957000000,70375.00,70402.90,70331.90,70379.90,550.352
1773957300000,70380.00,70515.80,70375.90,70376.10,240.890
1773957600000,70376.00,70475.90,70330.10,70330.10,479.055
1773957900000,70330.10,70407.10,70270.00,70371.40,325.491
1773958200000,70371.30,70437.00,70338.30,70410.00,153.568
1773958500000,70410.00,70413.80,70324.80,70395.00,140.733
1773958800000,70395.00,70410.60,70330.00,70365.70,184.159
1773959100000,70365.60,70396.40,70342.00,70342.00,97.732
1773959400000,70342.00,70342.00,70090.10,70191.70,885.317
1773959700000,70191.70,70199.90,69920.70,70004.80,1460.427
1773960000000,70004.80,70058.80,69910.20,70036.90,322.296
1773960300000,70036.90,70079.90,69970.50,70079.90,344.207
1773960600000,70079.90,70143.10,70070.40,70133.30,264.450
1773960900000,70133.30,70157.00,70080.00,70157.00,241.483
1773961200000,70156.90,70260.00,70150.00,70237.10,362.636
1773961500000,70237.10,70258.30,70188.30,70190.20,204.584
1773961800000,70190.20,70207.10,70150.00,70165.70,204.467
1773962100000,70165.80,70165.90,69980.00,69992.80,387.601
1773962400000,69992.80,70004.60,69931.60,70004.50,408.402
1773962700000,70004.50,70145.40,70004.40,70114.80,266.829
1773963000000,70114.80,70161.50,69954.90,69955.00,278.434
1773963300000,69954.90,69985.00,69681.10,69696.10,1334.888
1773963600000,69696.20,69823.20,69677.10,69819.00,759.271
1773963900000,69819.10,69850.00,69772.90,69820.10,385.323
1773964200000,69820.00,69903.50,69782.50,69901.00,333.147
1773964500000,69900.90,69949.60,69866.90,69887.40,282.285
1773964800000,69887.40,69924.60,69801.30,69808.90,476.803
1773965100000,69808.90,70002.40,69808.80,69973.00,367.287
1773965400000,69973.00,70097.40,69973.00,70050.00,355.158
1773965700000,70050.00,70148.70,70036.80,70098.30,293.058
1773966000000,70098.30,70112.00,69903.80,69965.20,285.437
1773966300000,69965.20,70093.40,69965.20,70074.90,269.979
1773966600000,70074.90,70110.00,70056.40,70061.10,257.570
1773966900000,70061.00,70214.90,70018.00,70205.80,514.946
1773967200000,70205.70,70238.50,70162.30,70188.40,352.258
1773967500000,70188.50,70250.00,70188.50,70205.70,279.089
1773967800000,70205.70,70280.60,70135.50,70155.30,308.726
1773968100000,70155.40,70216.10,70146.60,70159.90,329.893
1773968400000,70159.90,70356.00,70150.00,70289.90,437.218
1773968700000,70289.90,70400.00,70289.90,70361.00,369.672
1773969000000,70361.00,70416.40,70310.10,70366.90,515.588
1773969300000,70366.90,70420.60,70313.00,70363.20,339.998
1773969600000,70363.20,70407.40,70304.50,70325.20,312.138
1773969900000,70325.20,70385.00,70319.00,70359.40,220.279
1773970200000,70359.30,70488.20,70359.30,70404.80,361.370
1773970500000,70404.70,70548.00,70364.00,70528.00,433.395
1773970800000,70528.00,70563.80,70498.30,70540.40,456.771
1773971100000,70540.30,70548.00,70461.80,70510.00,298.785
1773971400000,70509.90,70510.30,70460.50,70463.70,191.425
1773971700000,70463.60,70485.60,70342.40,70370.90,321.329
1773972000000,70370.80,70387.60,70275.10,70359.30,399.278
1773972300000,70359.20,70458.40,70348.50,70356.60,207.952
1773972600000,70356.60,70369.70,70316.40,70321.50,164.655
1773972900000,70321.50,70321.60,70211.60,70242.40,434.429
1773973200000,70242.30,70287.70,70170.00,70209.90,264.916
1773973500000,70210.00,70216.50,70131.70,70209.90,395.671
1773973800000,70210.00,70245.40,70030.60,70052.00,557.270
1773974100000,70052.00,70127.20,70050.00,70083.50,260.186
1773974400000,70083.40,70254.40,70079.70,70238.30,255.694
1773974700000,70238.30,70333.00,70186.90,70333.00,347.605
1773975000000,70333.00,70480.00,70311.60,70470.00,455.681
1773975300000,70470.00,70485.10,70373.70,70373.80,378.732
1773975600000,70373.80,70449.10,70345.20,70368.70,262.448
1773975900000,70368.80,70466.30,70359.90,70387.10,225.678
1773976200000,70387.10,70430.00,70376.20,70376.30,106.410
1773976500000,70376.30,70486.00,70369.60,70485.20,193.009
1773976800000,70485.10,70541.20,70453.60,70488.20,431.597
1773977100000,70488.30,70636.50,70468.00,70636.00,597.247
1773977400000,70636.00,70777.00,70636.00,70663.10,1508.824
1773977700000,70663.00,70690.20,70528.60,70575.10,381.770
1773978000000,70575.00,70635.00,70535.00,70574.00,459.293
1773978300000,70574.00,70661.30,70515.00,70601.20,381.694
1773978600000,70601.10,70750.00,70587.40,70688.00,654.171
1773978900000,70688.00,70750.00,70680.00,70696.10,447.791
1773979200000,70696.10,70760.80,70664.20,70725.70,350.237
1773979500000,70725.80,70931.10,70706.30,70888.60,1573.038
1773979800000,70888.60,70944.90,70855.20,70888.90,523.550
1773980100000,70888.90,70889.00,70789.00,70816.50,518.627
1773980400000,70816.50,70850.00,70792.00,70849.90,289.203
1773980700000,70849.90,70890.90,70826.70,70887.90,211.093
1773981000000,70888.00,70890.90,70567.10,70618.30,1214.563
1773981300000,70618.30,70650.00,70552.10,70568.60,574.654
1773981600000,70568.50,70575.60,70520.00,70571.50,425.762
1773981900000,70571.50,70722.70,70546.30,70711.50,392.352
1773982200000,70711.40,70743.40,70632.00,70706.90,291.072
1773982500000,70706.90,70767.30,70706.90,70743.40,261.291
1773982800000,70743.30,70817.00,70700.00,70732.40,553.470
1773983100000,70732.40,70809.80,70700.00,70809.80,325.231
1773983400000,70809.80,70820.00,70770.30,70812.90,192.622
1773983700000,70812.80,70833.80,70744.00,70778.20,168.582
1773984000000,70778.20,70797.80,70678.70,70690.60,271.290
1773984300000,70690.70,70704.80,70568.50,70595.30,428.137
1773984600000,70595.20,70616.30,70533.20,70566.40,476.697
1773984900000,70566.30,70697.00,70543.80,70631.30,257.810
1773985200000,70631.20,70690.20,70617.20,70669.80,113.874
1773985500000,70669.70,70688.90,70619.00,70619.00,99.798
1773985800000,70619.00,70669.10,70539.00,70565.10,174.390
1773986100000,70565.00,70586.80,70454.80,70570.20,616.826
1773986400000,70570.30,70623.70,70481.30,70538.40,461.097
1773986700000,70538.50,70575.50,70500.00,70510.70,264.997
1773987000000,70510.80,70511.00,70463.20,70495.60,331.737
1773987300000,70495.50,70499.80,70421.70,70446.70,308.997
1773987600000,70446.80,70504.70,70400.00,70445.00,494.733
1773987900000,70445.00,70477.80,70361.70,70450.70,365.056
1773988200000,70451.10,70507.50,70376.60,70430.50,237.978
1773988500000,70430.50,70442.20,70371.00,70373.70,165.236
1773988800000,70373.60,70443.60,70307.00,70427.10,470.789
1773989100000,70427.10,70470.10,70398.70,70448.70,261.447
1773989400000,70448.70,70513.70,70437.20,70464.00,275.597
1773989700000,70463.90,70472.60,70429.70,70462.00,178.182
1773990000000,70461.90,70462.00,70161.00,70268.90,1282.892
1773990300000,70268.80,70382.70,70231.10,70328.80,329.737
1773990600000,70328.90,70328.90,70203.70,70244.00,327.403
1773990900000,70243.90,70347.40,70230.00,70308.90,320.936
1773991200000,70308.90,70525.10,70300.00,70464.20,638.020
1773991500000,70464.30,70516.50,70413.10,70420.70,300.701
1773991800000,70420.60,70661.80,70386.70,70608.10,792.824
1773992100000,70608.00,70733.00,70590.00,70709.90,844.726
1773992400000,70709.90,70823.00,70709.90,70819.50,926.239
1773992700000,70819.40,70900.00,70782.00,70815.10,1259.095
1773993000000,70815.00,70857.70,70785.00,70840.10,459.678
1773993300000,70840.00,70860.40,70800.10,70811.90,396.362
1773993600000,70812.00,70844.00,70751.90,70774.90,586.628
1773993900000,70774.90,71128.80,70774.90,71127.10,1867.166
1773994200000,71127.10,71342.20,71113.00,71230.70,3537.649
1773994500000,71230.60,71238.60,71150.70,71204.00,903.759
1773994800000,71204.00,71248.10,71105.50,71209.90,724.133
1773995100000,71209.90,71258.40,71183.20,71205.60,611.469
1773995400000,71205.60,71205.60,71051.00,71193.70,1105.210
1773995700000,71193.80,71193.80,71089.00,71123.40,521.656
1773996000000,71123.30,71131.00,71063.50,71068.30,408.769
1773996300000,71068.30,71094.20,71007.30,71094.20,415.709
1773996600000,71094.20,71120.00,71035.80,71062.60,355.194
1773996900000,71062.50,71072.60,70969.00,71000.40,619.790
1773997200000,71000.40,71001.00,70882.50,70961.10,671.301
1773997500000,70961.10,70961.10,70833.30,70881.50,596.897
1773997800000,70881.40,70918.70,70802.00,70802.30,456.551
1773998100000,70802.30,70824.80,70580.50,70611.20,1290.704
1773998400000,70611.20,70611.20,70369.60,70411.70,1679.477
1773998700000,70411.70,70522.40,70377.00,70471.10,1030.364
1773999000000,70471.10,70631.00,70469.00,70578.50,1232.110
1773999300000,70578.50,70721.80,70578.50,70638.10,809.287
1773999600000,70638.10,70655.50,70558.80,70606.00,525.370
1773999900000,70606.00,70606.00,70480.50,70507.00,452.259
1774000200000,70507.10,70570.00,70430.90,70466.70,486.867
1774000500000,70466.80,70555.10,70466.80,70544.90,337.829
1774000800000,70545.00,70566.40,70386.50,70442.40,452.789
1774001100000,70442.50,70500.00,70318.40,70379.40,718.258
1774001400000,70379.40,70397.90,70253.00,70331.20,787.369
1774001700000,70331.10,70428.70,70203.00,70337.50,1003.862
1774002000000,70337.40,70337.40,70175.00,70265.10,892.042
1774002300000,70265.20,70311.10,70236.20,70293.60,388.680
1774002600000,70293.50,70392.50,70266.00,70374.70,561.683
1774002900000,70374.70,70539.00,70350.20,70532.50,775.415
1774003200000,70532.40,70651.20,70472.00,70496.10,1136.850
1774003500000,70496.10,70565.80,70470.40,70544.00,425.566
1774003800000,70544.00,70617.60,70526.40,70538.90,279.928
1774004100000,70538.90,70580.90,70517.10,70580.90,242.790
1774004400000,70580.90,70671.60,70532.10,70612.20,484.573
1774004700000,70612.10,70734.60,70597.80,70691.40,605.269
1774005000000,70691.40,70780.80,70632.40,70743.20,654.546
1774005300000,70743.30,70743.30,70566.00,70648.80,708.717
1774005600000,70648.80,70684.70,70594.60,70639.50,353.389
1774005900000,70639.40,70697.00,70631.00,70670.00,115.578
1774006200000,70669.90,70679.10,70639.60,70673.40,147.417
1774006500000,70673.30,70673.40,70268.60,70300.00,1907.850
1774006800000,70300.00,70395.80,70293.50,70364.10,718.022
1774007100000,70364.10,70370.60,70266.00,70321.80,349.381
1774007400000,70321.80,70377.50,70291.50,70377.50,244.393
1774007700000,70377.50,70441.40,70374.50,70439.90,287.350
1774008000000,70440.00,70546.30,70364.80,70451.40,880.220
1774008300000,70451.40,70638.00,70451.40,70630.60,831.844
1774008600000,70630.60,70647.50,70520.70,70536.40,386.000
1774008900000,70536.40,70566.40,70506.20,70566.30,186.257
1774009200000,70566.30,70614.20,70532.00,70539.90,239.499
1774009500000,70540.00,70558.90,70384.30,70406.50,680.020
1774009800000,70406.60,70422.80,70310.30,70323.10,515.069
1774010100000,70323.10,70428.50,70314.30,70342.90,316.076
1774010400000,70342.80,70358.80,70210.10,70320.00,716.831
1774010700000,70320.00,70345.80,70212.80,70295.20,433.866
1774011000000,70295.20,70323.60,70236.40,70273.60,302.359
1774011300000,70273.60,70320.90,70259.00,70304.60,210.253
1774011600000,70304.70,70363.70,70270.50,70330.80,428.066
1774011900000,70330.80,70424.70,70300.60,70350.10,376.853
1774012200000,70350.10,70363.00,70200.00,70285.30,556.906
1774012500000,70285.30,70394.50,70278.20,70387.70,320.012
1774012800000,70387.70,70517.00,70385.00,70480.50,505.872
1774013100000,70480.60,70580.00,70370.80,70464.50,816.183
1774013400000,70464.50,70480.00,69900.00,69990.10,3660.954
1774013700000,69990.00,70203.10,69808.00,70008.30,2165.150
1774014000000,70008.20,70362.90,69872.90,70292.80,2498.779
1774014300000,70292.80,70355.00,70107.10,70267.60,1796.804
1774014600000,70267.70,70279.10,69900.00,69979.90,1741.746
1774014900000,69980.00,70018.80,69755.00,69831.10,2144.041
1774015200000,69831.00,69973.20,69645.00,69847.50,3331.231
1774015500000,69847.40,69987.20,69709.00,69833.60,1742.410
1774015800000,69833.70,70085.00,69760.50,69781.20,2455.792
1774016100000,69781.30,69856.50,69600.00,69692.80,3278.227
1774016400000,69692.80,69813.20,69562.50,69783.80,3453.887
1774016700000,69783.70,69966.40,69690.50,69911.80,1647.809
1774017000000,69911.90,70158.00,69911.90,70147.20,3663.090
1774017300000,70147.30,70240.00,69982.30,70162.70,1406.180
1774017600000,70162.50,70228.90,69926.30,69943.00,915.857
1774017900000,69943.10,70084.50,69859.60,69903.50,998.615
1774018200000,69903.40,69903.40,69604.40,69631.50,1471.876
1774018500000,69631.50,69787.20,69631.40,69706.00,998.389
1774018800000,69705.90,69850.00,69580.00,69642.00,1664.239
1774019100000,69641.90,69669.70,69450.00,69492.50,2813.364
1774019400000,69492.50,69750.00,69492.40,69737.10,1109.449
1774019700000,69737.10,69782.70,69550.40,69581.70,809.508
1774020000000,69581.70,69972.30,69568.40,69767.80,2500.392
1774020300000,69767.70,69824.40,69667.40,69790.70,1113.415
1774020600000,69790.70,69954.70,69717.90,69887.90,788.150
1774020900000,69887.90,69970.20,69758.40,69882.10,602.337
1774021200000,69882.20,69973.20,69850.00,69877.30,550.770
1774021500000,69877.20,69968.20,69779.70,69898.00,567.900
1774021800000,69897.90,69983.00,69820.00,69853.40,466.234
1774022100000,69853.40,69853.40,69726.40,69829.50,626.991
1774022400000,69829.50,70027.10,69820.00,70019.30,811.518
1774022700000,70019.40,70042.40,69831.80,69922.40,657.434
1774023000000,69921.50,70056.00,69907.40,69954.60,494.119
1774023300000,69954.60,70080.00,69850.00,70036.80,553.366
1774023600000,70036.80,70070.00,69914.30,69961.40,472.973
1774023900000,69961.40,70008.50,69902.80,69994.00,302.366
1774024200000,69994.00,69998.80,69710.30,69831.20,948.191
1774024500000,69831.10,69872.20,69650.00,69720.10,607.358
1774024800000,69720.10,69773.50,69676.20,69739.00,378.986
1774025100000,69739.00,69827.20,69712.80,69712.90,460.153
1774025400000,69712.90,69749.20,69577.00,69730.30,581.872
1774025700000,69730.20,69863.30,69725.80,69792.10,439.170
1774026000000,69792.10,69920.00,69792.10,69904.40,428.845
1774026300000,69904.40,69930.00,69651.40,69831.50,834.923
1774026600000,69831.40,69870.90,69740.00,69774.50,269.102
1774026900000,69774.40,69862.10,69731.70,69792.80,211.024
1774027200000,69792.70,69798.60,69700.00,69705.40,430.720
1774027500000,69705.40,69705.40,69602.30,69621.60,449.885
1774027800000,69621.30,69664.80,69481.80,69519.60,732.264
1774028100000,69519.70,69621.20,69350.00,69590.70,2319.772
1774028400000,69590.50,69634.30,69516.30,69541.40,451.419
1774028700000,69541.50,69649.30,69533.60,69611.50,323.117
1774029000000,69611.50,69763.50,69581.50,69756.90,562.868
1774029300000,69757.00,70035.00,69755.60,69970.80,1510.634
1774029600000,69970.90,69986.80,69859.90,69914.80,698.191
1774029900000,69914.80,70048.90,69903.90,69955.10,520.216
1774030200000,69955.20,69988.00,69866.80,69937.20,236.526
1774030500000,69937.20,69972.70,69883.30,69928.40,345.558
1774030800000,69928.40,69996.30,69687.50,69766.80,739.488
1774031100000,69767.00,69841.20,69600.00,69637.30,1088.381
1774031400000,69637.30,69681.30,69523.30,69658.80,1057.331
1774031700000,69658.90,69671.00,69484.00,69622.00,674.548
1774032000000,69622.10,69763.10,69612.10,69659.90,458.782
1774032300000,69659.90,69870.50,69647.10,69714.00,683.205
1774032600000,69714.00,69858.40,69688.90,69773.50,399.465
1774032900000,69773.40,69828.90,69651.70,69733.30,414.515
1774033200000,69733.60,69887.10,69733.60,69830.60,374.056
1774033500000,69830.60,69856.70,69667.00,69771.80,388.475
1774033800000,69771.90,69860.20,69662.00,69845.50,300.601
1774034100000,69845.50,69914.90,69769.70,69911.80,404.916
1774034400000,69911.70,69950.00,69756.40,69796.40,400.001
1774034700000,69796.40,69869.70,69744.50,69842.90,194.584
1774035000000,69843.00,69954.90,69733.20,69763.50,333.598
1774035300000,69763.40,69792.60,69634.80,69763.20,457.749
1774035600000,69763.20,69983.00,69757.90,69968.90,323.103
1774035900000,69968.90,69968.90,69867.40,69867.50,342.100
1774036200000,69867.50,70151.50,69867.50,70106.50,1057.355
1774036500000,70106.40,70161.00,70084.20,70141.90,907.673
1774036800000,70141.90,70177.10,70039.90,70089.10,557.172
1774037100000,70089.10,70177.00,70058.00,70150.10,285.403
1774037400000,70150.00,70225.00,70139.60,70165.90,481.507
1774037700000,70165.90,70166.00,69954.20,69998.90,640.849
1774038000000,69998.80,70000.00,69910.00,69984.80,362.899
1774038300000,69984.80,69997.70,69915.80,69939.40,221.783
1774038600000,69939.40,69953.20,69777.00,69791.30,396.663
1774038900000,69791.40,69881.00,69701.30,69832.60,676.735
1774039200000,69832.70,69926.70,69800.10,69887.70,368.256
1774039500000,69887.70,70021.60,69865.70,70000.10,539.672
1774039800000,70000.10,70063.10,69967.00,69975.60,200.033
1774040100000,69975.60,70045.80,69963.00,70019.70,151.649
1774040400000,70019.70,70054.90,69947.60,70006.30,226.371
1774040700000,70006.20,70006.20,69960.00,69980.90,127.331
1774041000000,69980.90,70133.30,69900.90,70097.90,580.525
1774041300000,70097.90,70550.00,70081.10,70498.30,2728.309
1774041600000,70498.30,70550.00,70340.00,70413.50,877.024
1774041900000,70413.50,70511.50,70354.40,70470.60,542.034
1774042200000,70470.60,70546.90,70416.00,70500.40,552.341
1774042500000,70500.40,70720.60,70478.90,70510.70,1187.518
1774042800000,70510.70,70510.70,70338.50,70376.30,564.686
1774043100000,70376.30,70535.70,70369.30,70512.20,280.722
1774043400000,70512.20,70573.00,70459.70,70494.20,268.504
1774043700000,70494.10,70522.00,70477.10,70498.30,194.034
1774044000000,70498.30,70857.10,70495.70,70821.00,1109.006
1774044300000,70821.00,70865.20,70741.70,70761.90,725.414
1774044600000,70761.90,70888.00,70703.50,70774.50,782.036
1774044900000,70774.40,70842.90,70733.60,70754.00,305.580
1774045200000,70754.00,70796.50,70689.00,70692.00,241.195
1774045500000,70691.80,70722.30,70648.30,70652.50,248.490
1774045800000,70652.40,70660.10,70569.20,70612.50,304.933
1774046100000,70612.60,70733.70,70612.50,70707.50,336.284
1774046400000,70707.40,70726.40,70637.80,70662.90,255.177
1774046700000,70662.80,70751.30,70620.80,70744.20,164.445
1774047000000,70744.20,70799.90,70715.40,70746.40,231.092
1774047300000,70746.40,70781.80,70739.20,70739.20,114.133
1774047600000,70739.20,70739.30,70600.10,70645.60,296.294
1774047900000,70645.70,70645.70,70508.70,70540.00,477.805
1774048200000,70539.90,70567.00,70466.80,70490.40,368.763
1774048500000,70490.30,70526.30,70388.30,70493.60,572.694
1774048800000,70493.60,70517.60,70455.70,70487.70,219.192
1774049100000,70487.80,70500.00,70440.90,70447.90,175.532
1774049400000,70447.90,70485.90,70427.00,70440.50,214.578
1774049700000,70440.50,70509.70,70436.70,70465.30,118.859
1774050000000,70465.30,70513.60,70446.00,70503.50,204.630
1774050300000,70503.50,70527.10,70430.40,70527.00,176.167
1774050600000,70527.10,70566.60,70447.40,70466.60,200.001
1774050900000,70466.60,70495.40,70465.50,70472.70,82.263
1774051200000,70472.60,70537.60,70469.10,70523.60,179.649
1774051500000,70523.70,70549.30,70486.40,70489.80,254.995
1774051800000,70489.80,70559.30,70430.20,70553.80,299.027
1774052100000,70553.90,70694.80,70538.00,70694.80,426.462
1774052400000,70694.80,70803.10,70633.60,70644.30,760.743
1774052700000,70644.40,70676.20,70602.90,70615.30,145.546
1774053000000,70615.30,70626.60,70563.60,70605.60,177.582
1774053300000,70605.60,70643.80,70591.60,70623.30,102.465
1774053600000,70623.30,70623.30,70536.50,70560.10,154.749
1774053900000,70560.20,70575.80,70528.50,70559.80,109.670
1774054200000,70560.00,70639.80,70559.20,70639.80,100.469
1774054500000,70639.70,70699.50,70633.50,70643.90,191.961
1774054800000,70643.90,70680.00,70612.60,70612.60,156.713
1774055100000,70612.60,70692.70,70612.60,70670.10,155.840
1774055400000,70670.10,70726.80,70622.20,70636.20,158.906
1774055700000,70636.30,70642.30,70537.10,70569.90,190.451
1774056000000,70570.00,70617.00,70564.40,70564.50,89.127
1774056300000,70564.40,70616.70,70562.30,70569.10,79.177
1774056600000,70569.10,70569.10,70500.40,70564.50,170.007
1774056900000,70564.40,70620.80,70564.40,70576.30,118.039
1774057200000,70576.30,70576.30,70467.90,70482.70,116.481
1774057500000,70482.80,70540.00,70456.60,70474.40,178.217
1774057800000,70474.30,70498.10,70440.00,70440.10,126.430
1774058100000,70440.00,70480.00,70419.40,70430.30,198.598
1774058400000,70430.40,70470.10,70403.20,70428.70,337.594
1774058700000,70428.70,70477.00,70410.00,70463.00,204.386
1774059000000,70463.00,70469.80,70437.50,70456.90,110.255
1774059300000,70456.80,70528.00,70456.80,70522.00,165.308
1774059600000,70522.10,70560.70,70511.40,70560.60,98.967
1774059900000,70560.70,70669.40,70560.60,70610.30,407.572
1774060200000,70610.40,70612.80,70533.70,70599.40,234.063
1774060500000,70599.40,70632.60,70575.80,70632.60,131.598
1774060800000,70632.60,70714.00,70632.60,70676.80,267.331
1774061100000,70676.70,70705.00,70653.20,70701.10,174.573
1774061400000,70701.20,70758.20,70699.80,70736.10,230.654
1774061700000,70736.10,70736.10,70656.70,70703.70,190.082
1774062000000,70703.70,70717.50,70629.90,70629.90,197.793
1774062300000,70629.90,70720.00,70629.90,70712.90,138.897
1774062600000,70712.80,70752.60,70622.60,70666.10,236.645
1774062900000,70666.10,70674.20,70630.40,70645.90,108.647
1774063200000,70645.80,70658.00,70633.10,70646.00,85.926
1774063500000,70646.00,70688.00,70614.20,70673.00,157.529
1774063800000,70672.90,70672.90,70614.60,70615.80,108.767
1774064100000,70615.80,70618.10,70591.00,70593.90,132.684
1774064400000,70594.00,70618.10,70593.90,70609.40,53.297
1774064700000,70609.40,70617.00,70590.00,70597.40,138.247
1774065000000,70597.40,70654.20,70590.00,70631.40,126.019
1774065300000,70631.40,70662.60,70620.20,70638.00,88.732
1774065600000,70637.90,70719.80,70631.30,70714.50,188.434
1774065900000,70714.60,70758.00,70684.80,70704.90,266.213
1774066200000,70704.90,70731.80,70685.40,70717.70,130.397
1774066500000,70717.80,70746.00,70696.20,70700.00,134.971
1774066800000,70700.10,70751.80,70681.10,70741.00,218.238
1774067100000,70740.90,70798.50,70715.00,70715.00,363.508
1774067400000,70715.00,70715.00,70603.80,70617.50,232.850
1774067700000,70617.60,70630.40,70591.00,70616.90,225.282
1774068000000,70616.90,70619.80,70582.90,70602.50,212.117
1774068300000,70602.50,70624.00,70598.80,70598.80,88.067
1774068600000,70598.80,70623.10,70582.70,70607.50,135.440
1774068900000,70607.60,70628.30,70592.40,70602.70,155.316
1774069200000,70602.80,70670.00,70600.00,70610.00,148.339
1774069500000,70610.00,70629.80,70598.70,70611.70,92.722
1774069800000,70611.70,70612.10,70598.70,70612.00,111.257
1774070100000,70612.10,70714.00,70603.40,70683.80,188.897
1774070400000,70683.90,70742.10,70663.20,70683.00,193.214
1774070700000,70683.10,70767.80,70683.10,70748.50,229.960
1774071000000,70748.50,70800.00,70679.60,70703.20,365.250
1774071300000,70703.20,70760.10,70682.40,70696.50,174.077
1774071600000,70696.60,70736.10,70695.60,70735.10,103.555
1774071900000,70735.20,70738.90,70700.00,70702.20,94.425
1774072200000,70702.20,70702.20,70641.20,70670.80,185.338
1774072500000,70670.80,70689.50,70664.60,70673.90,78.136
1774072800000,70673.80,70708.90,70655.10,70678.50,150.554
1774073100000,70678.40,70715.20,70664.30,70682.20,117.715
1774073400000,70682.20,70700.00,70682.20,70687.90,56.218
1774073700000,70687.90,70766.70,70676.10,70745.10,227.896
1774074000000,70745.00,70763.10,70699.20,70763.10,104.631
1774074300000,70763.00,70786.10,70715.30,70773.00,308.461
1774074600000,70773.00,70784.60,70707.60,70707.70,131.717
1774074900000,70707.70,70753.60,70704.00,70732.80,162.251
1774075200000,70732.80,70771.50,70730.00,70750.00,172.969
1774075500000,70750.00,70769.90,70716.90,70747.10,124.736
1774075800000,70747.10,70752.90,70726.30,70734.00,96.340
1774076100000,70734.10,70743.60,70725.80,70739.20,56.819
1774076400000,70739.20,70749.30,70710.30,70743.20,140.386
1774076700000,70743.20,70749.90,70697.50,70710.30,156.527
1774077000000,70710.40,70720.00,70701.00,70705.90,70.497
1774077300000,70705.90,70790.00,70705.80,70777.70,261.683
1774077600000,70777.70,70794.10,70735.40,70776.10,210.753
1774077900000,70776.10,70849.20,70770.00,70839.80,413.587
1774078200000,70839.90,70840.90,70728.40,70764.40,246.233
1774078500000,70764.30,70764.40,70730.00,70733.70,100.203
1774078800000,70733.60,70752.40,70717.10,70717.20,133.848
1774079100000,70717.10,70727.80,70639.00,70717.20,252.392
1774079400000,70717.10,70717.20,70654.50,70675.10,139.023
1774079700000,70675.10,70687.40,70643.30,70687.30,164.958
1774080000000,70687.40,70687.40,70653.20,70670.30,168.571
1774080300000,70670.20,70721.70,70663.10,70663.70,220.774
1774080600000,70663.70,70708.60,70660.20,70660.90,227.092
1774080900000,70660.90,70684.90,70538.50,70586.00,530.018
1774081200000,70585.90,70590.00,70471.50,70555.10,783.015
1774081500000,70555.10,70555.20,70471.00,70487.50,508.546
1774081800000,70487.40,70595.70,70455.60,70570.90,487.350
1774082100000,70570.90,70596.80,70567.00,70575.90,241.989
1774082400000,70575.90,70600.00,70563.20,70573.30,324.555
1774082700000,70573.20,70606.90,70532.30,70549.90,278.780
1774083000000,70549.90,70566.70,70539.00,70553.00,105.292
1774083300000,70553.00,70574.30,70553.00,70563.30,71.722
1774083600000,70563.30,70671.60,70537.70,70651.50,204.824
1774083900000,70651.50,70711.50,70627.80,70679.20,361.639
1774084200000,70679.20,70696.10,70644.30,70691.80,242.707
1774084500000,70691.80,70695.30,70625.10,70625.20,141.786
1774084800000,70625.10,70642.50,70608.20,70608.30,183.789
1774085100000,70608.20,70611.50,70545.80,70550.10,279.293
1774085400000,70550.10,70595.30,70539.70,70595.30,133.305
1774085700000,70595.30,70650.00,70562.60,70650.00,186.042
1774086000000,70650.00,70666.20,70591.70,70610.10,133.948
1774086300000,70610.20,70629.80,70594.90,70621.70,94.441
1774086600000,70621.60,70641.20,70603.00,70625.20,70.115
1774086900000,70625.10,70633.50,70610.00,70633.50,47.244
1774087200000,70633.50,70666.00,70598.50,70634.00,121.965
1774087500000,70634.00,70634.00,70569.40,70633.00,310.864
1774087800000,70633.10,70640.90,70577.90,70594.80,94.210
1774088100000,70594.90,70604.70,70521.20,70559.00,116.653
1774088400000,70559.00,70569.90,70523.90,70537.80,113.477
1774088700000,70537.80,70570.00,70525.70,70537.90,188.592
1774089000000,70538.00,70599.90,70537.90,70574.80,383.412
1774089300000,70574.80,70589.90,70574.70,70589.90,32.872
1774089600000,70589.90,70589.90,70551.50,70559.60,62.001
1774089900000,70559.60,70559.60,70533.00,70540.10,69.756
1774090200000,70540.10,70560.40,70540.00,70555.50,40.995
1774090500000,70555.50,70576.10,70555.50,70576.00,77.223
1774090800000,70576.00,70580.40,70570.40,70580.30,53.821
1774091100000,70580.30,70580.40,70550.00,70574.20,128.154
1774091400000,70574.10,70574.10,70525.10,70525.10,371.646
1774091700000,70525.10,70565.90,70525.10,70550.70,76.576
1774092000000,70550.70,70559.90,70550.70,70555.00,56.000
1774092300000,70555.10,70578.20,70555.00,70570.10,56.728
1774092600000,70570.00,70570.90,70536.00,70563.20,55.207
1774092900000,70563.20,70581.40,70556.40,70576.20,59.235
1774093200000,70576.20,70619.90,70575.40,70609.70,113.135
1774093500000,70609.60,70609.60,70584.40,70594.30,81.828
1774093800000,70594.40,70600.00,70574.80,70579.70,51.240
1774094100000,70579.60,70618.30,70579.60,70618.30,97.119
1774094400000,70618.20,70694.40,70618.20,70694.30,250.579
1774094700000,70694.40,70694.40,70626.00,70684.10,110.689
1774095000000,70684.00,70700.00,70684.00,70696.90,126.305
1774095300000,70697.00,70714.00,70653.30,70664.90,168.495
1774095600000,70664.90,70769.60,70656.10,70733.20,376.791
1774095900000,70733.20,70755.50,70727.40,70748.90,303.000
1774096200000,70749.00,70751.00,70687.10,70687.20,141.481
1774096500000,70687.20,70745.70,70680.10,70722.60,135.434
1774096800000,70722.70,70723.00,70712.30,70723.00,52.106
1774097100000,70723.00,70727.80,70670.80,70692.10,116.522
1774097400000,70692.20,70700.10,70676.70,70676.70,100.701
1774097700000,70676.70,70693.80,70676.70,70680.00,44.033
1774098000000,70680.00,70704.70,70668.50,70668.50,84.587
1774098300000,70668.50,70713.40,70668.50,70713.40,109.454
1774098600000,70713.40,70734.40,70713.10,70714.40,84.304
1774098900000,70714.30,70785.10,70714.30,70776.00,146.352
1774099200000,70776.00,70776.00,70684.60,70695.90,159.784
1774099500000,70695.90,70728.50,70695.90,70702.20,72.830
1774099800000,70702.30,70761.60,70699.80,70737.90,139.442
1774100100000,70737.90,70737.90,70695.40,70695.40,106.959
1774100400000,70695.40,70699.10,70682.10,70690.10,104.680
1774100700000,70690.10,70707.30,70675.00,70699.90,154.610
1774101000000,70700.00,70730.00,70699.90,70704.80,91.387
1774101300000,70704.80,70709.70,70682.20,70700.30,67.157
1774101600000,70700.30,70769.90,70700.30,70733.60,228.975
1774101900000,70733.70,70785.00,70731.20,70780.30,157.280
1774102200000,70780.40,71077.70,70773.30,70992.70,2512.085
1774102500000,70992.70,71044.00,70888.00,70976.40,785.114
1774102800000,70976.40,70976.40,70902.70,70914.90,224.759
1774103100000,70914.90,70921.80,70885.20,70890.70,288.828
1774103400000,70890.80,70959.90,70889.00,70959.70,351.292
1774103700000,70959.70,70989.00,70894.60,70898.10,234.109
1774104000000,70898.10,70930.50,70894.30,70902.60,157.586
1774104300000,70902.60,70902.70,70713.60,70763.50,569.112
1774104600000,70763.60,70763.60,70599.00,70657.30,1294.272
1774104900000,70657.30,70657.30,70550.00,70595.00,772.856
1774105200000,70595.00,70627.10,70532.00,70603.40,521.391
1774105500000,70603.50,70608.80,70531.00,70574.30,319.571
1774105800000,70574.20,70613.80,70564.30,70613.70,218.973
1774106100000,70613.80,70645.00,70420.00,70476.10,949.375
1774106400000,70476.10,70607.10,70476.00,70595.80,322.007
1774106700000,70595.90,70637.90,70567.60,70637.90,226.568
1774107000000,70637.90,70739.00,70624.30,70729.80,478.342
1774107300000,70729.80,70729.80,70587.40,70590.40,302.723
1774107600000,70590.40,70650.00,70563.00,70590.80,199.704
1774107900000,70590.80,70644.30,70590.80,70624.60,244.201
1774108200000,70624.50,70650.00,70600.30,70620.00,126.396
1774108500000,70620.00,70637.00,70599.10,70599.10,112.232
1774108800000,70599.10,70620.20,70562.30,70594.90,171.213
1774109100000,70594.80,70615.80,70577.20,70577.30,102.055
1774109400000,70577.30,70577.30,70529.40,70530.10,179.267
1774109700000,70530.10,70607.00,70439.80,70479.40,608.150
1774110000000,70479.30,70519.90,70458.00,70489.10,174.040
1774110300000,70489.00,70504.70,70261.80,70391.80,1007.714
1774110600000,70391.80,70446.30,70371.70,70440.90,299.141
1774110900000,70440.80,70448.50,70384.30,70400.20,296.145
1774111200000,70400.10,70400.10,70300.00,70344.50,489.744
1774111500000,70344.40,70403.90,70333.60,70378.20,199.558
1774111800000,70378.10,70381.30,70334.00,70338.60,209.204
1774112100000,70338.60,70338.60,70214.80,70274.90,659.916
1774112400000,70275.00,70334.30,70273.40,70334.20,253.181
1774112700000,70334.30,70340.00,70163.00,70221.50,481.369
1774113000000,70221.50,70250.00,70179.40,70243.40,234.600
1774113300000,70243.40,70295.30,70216.40,70259.90,240.460
1774113600000,70259.90,70394.90,70259.00,70338.10,423.126
1774113900000,70338.20,70374.90,70325.00,70330.70,259.934
