timestamp,open,high,low,close,volume
1717459200000,68809.89000000,69370.01000000,68629.90000000,69170.22000000,2195.99092000
1717473600000,69170.22000000,69268.27000000,68745.68000000,69013.63000000,2550.75405000
1717488000000,69013.62000000,69191.99000000,68567.32000000,68955.85000000,3143.28299000
1717502400000,68955.84000000,70480.00000000,68843.73000000,70445.00000000,10001.68378000
1717516800000,70445.00000000,71063.45000000,70092.50000000,70423.60000000,9252.35453000
1717531200000,70423.61000000,70736.00000000,70168.67000000,70537.84000000,2475.71862000
1717545600000,70537.83000000,71275.00000000,70423.51000000,70947.58000000,4747.42504000
1717560000000,70947.58000000,71379.21000000,70826.15000000,71200.00000000,4692.49958000
1717574400000,71199.99000000,71243.60000000,70694.61000000,70971.71000000,3455.32686000
1717588800000,70971.70000000,71731.35000000,70383.66000000,71580.00000000,7724.60004000
1717603200000,71580.01000000,71758.00000000,70871.20000000,71279.95000000,5604.75987000
1717617600000,71279.95000000,71357.68000000,70700.00000000,71108.00000000,2478.56943000
1717632000000,71108.00000000,71237.02000000,70900.00000000,71050.00000000,1838.31631000
1717646400000,71050.00000000,71106.46000000,70800.00000000,71021.47000000,2441.77446000
1717660800000,71021.46000000,71204.59000000,70862.50000000,71170.01000000,2311.02713000
1717675200000,71170.01000000,71700.00000000,71000.00000000,71300.00000000,6417.45132000
1717689600000,71300.00000000,71379.93000000,70450.00000000,70479.49000000,5514.55376000
1717704000000,70479.49000000,70958.89000000,70117.64000000,70799.06000000,3318.88151000
1717718400000,70799.06000000,71015.20000000,70663.59000000,70989.68000000,1822.51982000
1717732800000,70989.69000000,71449.98000000,70989.68000000,71110.00000000,4173.52745000
1717747200000,71110.01000000,71700.00000000,71048.12000000,71699.99000000,3176.10664000
1717761600000,71700.00000000,71997.02000000,70633.21000000,71111.54000000,9856.47926000
1717776000000,71111.55000000,71208.89000000,68420.00000000,69255.00000000,13917.20632000
1717790400000,69255.01000000,69585.96000000,68978.52000000,69355.60000000,2652.61096000
1717804800000,69355.60000000,69525.00000000,69287.28000000,69432.00000000,1791.64307000
1717819200000,69432.00000000,69582.20000000,69232.15000000,69582.20000000,1721.33097000
1717833600000,69582.20000000,69582.20000000,69318.19000000,69365.93000000,1625.99373000
1717848000000,69365.94000000,69491.36000000,69168.02000000,69430.01000000,2118.57239000
1717862400000,69430.01000000,69490.00000000,69292.22000000,69460.01000000,1578.06404000
1717876800000,69460.00000000,69475.18000000,69290.28000000,69310.46000000,938.22547000
1717891200000,69310.46000000,69346.90000000,69130.24000000,69259.38000000,1184.61971000
1717905600000,69259.38000000,69425.70000000,69234.73000000,69295.64000000,1031.53735000
1717920000000,69295.64000000,69397.19000000,69283.45000000,69367.69000000,869.09305000
1717934400000,69367.68000000,69777.00000000,69250.01000000,69508.64000000,3778.30362000
1717948800000,69508.64000000,69857.14000000,69500.00000000,69710.26000000,1982.06406000
1717963200000,69710.26000000,69821.53000000,69590.33000000,69648.14000000,1044.94930000
1717977600000,69648.15000000,69801.34000000,69426.00000000,69613.20000000,1986.09511000
1717992000000,69613.20000000,69677.50000000,69249.99000000,69303.99000000,2111.86040000
1718006400000,69304.00000000,69550.00000000,69172.29000000,69473.89000000,2217.29737000
1718020800000,69473.89000000,70195.94000000,69201.59000000,70066.12000000,4204.58568000
1718035200000,70066.12000000,70141.10000000,69386.81000000,69490.80000000,4296.16146000
1718049600000,69490.81000000,69700.51000000,69334.46000000,69540.00000000,2306.66939000
1718064000000,69540.00000000,69590.01000000,67900.00000000,68464.00000000,8068.66900000
1718078400000,68464.00000000,68464.00000000,67325.00000000,67570.18000000,7797.79833000
1718092800000,67570.18000000,67662.49000000,66732.00000000,66890.01000000,7282.49886000
1718107200000,66890.00000000,67278.88000000,66051.00000000,66244.48000000,9349.62363000
1718121600000,66244.48000000,67586.64000000,66161.26000000,67407.01000000,6551.15060000
1718136000000,67407.02000000,67588.22000000,67173.92000000,67314.24000000,2386.27546000
1718150400000,67314.23000000,67596.15000000,66905.00000000,67407.00000000,2922.25340000
1718164800000,67407.01000000,67624.89000000,67195.97000000,67453.63000000,2712.51803000
1718179200000,67453.64000000,68059.01000000,67353.02000000,67778.43000000,3358.72040000
1718193600000,67778.43000000,69999.00000000,67736.00000000,69734.00000000,12403.63584000
1718208000000,69734.00000000,69862.40000000,67250.00000000,67532.92000000,11888.02200000
1718222400000,67532.92000000,68667.44000000,67413.51000000,68263.99000000,3890.17389000
1718236800000,68263.98000000,68393.63000000,66969.98000000,67474.94000000,5168.64979000
1718251200000,67474.95000000,67729.41000000,67300.30000000,67724.81000000,2963.75859000
1718265600000,67724.80000000,67971.20000000,67168.00000000,67739.99000000,3762.21969000
1718280000000,67740.00000000,68449.30000000,66368.76000000,66470.01000000,10171.91317000
1718294400000,66470.01000000,67080.13000000,66251.78000000,66604.01000000,5091.83328000
1718308800000,66604.01000000,66980.00000000,66530.84000000,66773.01000000,1921.18119000
1718323200000,66773.01000000,67027.32000000,66480.00000000,66744.00000000,2704.93799000
1718337600000,66744.00000000,67221.32000000,66707.76000000,66904.98000000,2943.04425000
1718352000000,66904.98000000,67256.32000000,66746.40000000,67036.00000000,3383.93360000
1718366400000,67035.99000000,67370.24000000,66344.67000000,66392.00000000,5730.45832000
1718380800000,66392.00000000,66520.00000000,65078.00000000,65520.02000000,9683.77753000
1718395200000,65520.02000000,66627.52000000,65480.00000000,66043.99000000,3962.03628000
1718409600000,66043.99000000,66290.00000000,65967.50000000,66267.87000000,2008.24903000
1718424000000,66267.87000000,66416.66000000,66065.80000000,66076.99000000,2891.47187000
1718438400000,66076.99000000,66348.00000000,66076.98000000,66319.95000000,1493.77779000
1718452800000,66319.94000000,66478.48000000,66153.84000000,66316.02000000,2100.54737000
1718467200000,66316.02000000,66360.00000000,66071.47000000,66154.70000000,1431.64709000
1718481600000,66154.70000000,66287.76000000,65857.10000000,66228.25000000,1526.10927000
1718496000000,66228.25000000,66269.74000000,66076.55000000,66146.00000000,790.58916000
1718510400000,66145.99000000,66360.18000000,66034.50000000,66266.30000000,1179.96721000
1718524800000,66266.30000000,66770.00000000,66172.50000000,66492.83000000,2395.77885000
1718539200000,66492.83000000,66793.72000000,66480.00000000,66712.80000000,1854.32659000
1718553600000,66712.80000000,66744.71000000,66522.00000000,66562.52000000,1140.46531000
1718568000000,66562.52000000,66998.70000000,66460.00000000,66676.87000000,2031.39511000
1718582400000,66676.86000000,66913.69000000,66155.00000000,66222.00000000,3307.38167000
1718596800000,66222.00000000,66567.68000000,65939.67000000,66172.00000000,2843.05342000
1718611200000,66172.00000000,66317.64000000,65556.00000000,65817.20000000,4095.43003000
1718625600000,65817.20000000,65827.90000000,65130.00000000,65368.00000000,5353.73577000
1718640000000,65368.00000000,67298.81000000,65138.00000000,66691.99000000,8280.08295000
1718654400000,66691.99000000,66764.70000000,66164.01000000,66504.33000000,3506.48467000
1718668800000,66504.33000000,66588.23000000,64569.00000000,65500.00000000,11041.36558000
1718683200000,65500.00000000,65845.47000000,65344.24000000,65672.51000000,4340.32865000
1718697600000,65672.51000000,65750.01000000,65100.00000000,65366.00000000,3732.15562000
1718712000000,65366.00000000,65433.97000000,64261.12000000,64706.00000000,11395.51177000
1718726400000,64705.99000000,64904.91000000,64060.00000000,64412.19000000,6974.93160000
1718740800000,64412.18000000,65305.00000000,64178.10000000,65175.32000000,4865.80922000
1718755200000,65175.32000000,65603.91000000,64810.62000000,65404.00000000,5262.16662000
1718769600000,65404.00000000,65727.54000000,65158.05000000,65326.89000000,3599.20908000
1718784000000,65326.89000000,65544.00000000,65000.00000000,65210.00000000,3851.72512000
1718798400000,65210.00000000,65310.02000000,64756.28000000,64922.00000000,3230.69752000
1718812800000,64921.99000000,65284.37000000,64791.76000000,64882.01000000,2587.30051000
1718827200000,64882.02000000,65087.76000000,64666.00000000,64974.37000000,1529.69691000
1718841600000,64974.37000000,65407.40000000,64818.72000000,65189.99000000,2764.12678000
1718856000000,65190.00000000,65967.39000000,65070.91000000,65858.84000000,3218.48909000
1718870400000,65858.84000000,66482.94000000,65559.45000000,66169.85000000,3716.69714000
1718884800000,66169.86000000,66300.50000000,64658.06000000,64831.23000000,7331.76705000
1718899200000,64831.24000000,65217.21000000,64559.15000000,65050.00000000,5208.45123000
1718913600000,65049.99000000,65200.11000000,64848.70000000,64869.99000000,2025.75902000
1718928000000,64869.99000000,65066.66000000,64345.00000000,64506.14000000,3151.09938000
1718942400000,64506.15000000,64739.09000000,64190.76000000,64201.63000000,3017.09525000
1718956800000,64201.63000000,64372.15000000,63522.75000000,63770.00000000,6116.25686000
1718971200000,63770.01000000,64360.00000000,63379.35000000,63732.02000000,7918.52722000
1718985600000,63732.02000000,64264.95000000,63465.17000000,64232.01000000,4035.76865000
1719000000000,64232.01000000,64460.14000000,63828.09000000,64143.56000000,1754.81706000
1719014400000,64143.56000000,64342.54000000,63943.82000000,64327.45000000,1615.03389000
1719028800000,64327.46000000,64540.26000000,64253.07000000,64520.00000000,2121.70614000
1719043200000,64519.99000000,64546.81000000,64214.43000000,64265.26000000,1376.34835000
1719057600000,64265.27000000,64397.82000000,64246.52000000,64307.08000000,930.39133000
1719072000000,64307.09000000,64362.00000000,64218.50000000,64295.01000000,729.09750000
1719086400000,64295.01000000,64330.00000000,64246.01000000,64262.01000000,536.37821000
1719100800000,64262.01000000,64521.00000000,64262.00000000,64416.14000000,1222.91150000
1719115200000,64416.14000000,64433.03000000,64349.49000000,64415.27000000,526.41413000
1719129600000,64415.27000000,64437.28000000,64252.85000000,64341.45000000,945.73190000
1719144000000,64341.46000000,64429.10000000,64049.41000000,64094.00000000,1383.12991000
1719158400000,64094.01000000,64187.62000000,63918.58000000,64149.78000000,1430.37834000
1719172800000,64149.78000000,64159.00000000,63178.32000000,63210.01000000,2715.88869000
1719187200000,63210.01000000,63369.80000000,62695.02000000,62862.00000000,4626.61921000
1719201600000,62862.00000000,62952.00000000,62160.72000000,62456.00000000,5068.08372000
1719216000000,62456.00000000,62975.60000000,60567.01000000,61291.95000000,12136.79401000
1719230400000,61291.95000000,61700.00000000,60670.36000000,60843.99000000,5796.95477000
1719244800000,60843.99000000,61044.44000000,59058.00000000,59306.72000000,16409.89475000
1719259200000,59306.72000000,60442.71000000,58402.00000000,60293.30000000,8123.00768000
1719273600000,60293.30000000,61598.87000000,60257.06000000,61302.59000000,4817.65654000
1719288000000,61302.59000000,61420.00000000,60624.63000000,60685.16000000,4078.38689000
1719302400000,60685.16000000,61583.18000000,60668.01000000,61187.64000000,4679.07209000
1719316800000,61187.64000000,62134.00000000,60953.23000000,61810.00000000,8735.80046000
1719331200000,61810.00000000,62420.00000000,61135.37000000,61975.46000000,6527.99194000
1719345600000,61975.46000000,62162.49000000,61664.00000000,61806.01000000,2350.33569000
1719360000000,61806.01000000,62487.81000000,61643.48000000,61936.07000000,3538.82122000
1719374400000,61936.07000000,61990.00000000,61520.00000000,61720.02000000,3492.11682000
1719388800000,61720.02000000,61754.60000000,61149.64000000,61445.26000000,3493.40400000
1719403200000,61445.26000000,61980.00000000,61182.80000000,61467.86000000,4713.90642000
1719417600000,61467.85000000,61547.02000000,60715.30000000,61000.01000000,5015.68985000
1719432000000,61000.01000000,61155.66000000,60712.00000000,60864.99000000,2231.72632000
1719446400000,60864.98000000,61300.00000000,60764.73000000,61037.31000000,2391.00432000
1719460800000,61037.31000000,61192.00000000,60606.63000000,60794.01000000,2714.73648000
1719475200000,60794.01000000,61455.15000000,60736.62000000,61196.02000000,2628.05752000
1719489600000,61196.01000000,62389.22000000,61154.60000000,61576.00000000,6247.05892000
1719504000000,61576.00000000,62015.52000000,61411.70000000,61450.00000000,2557.37367000
1719518400000,61450.00000000,61719.92000000,61338.56000000,61706.47000000,1806.05540000
1719532800000,61706.46000000,62225.31000000,61472.37000000,61828.17000000,3950.34413000
1719547200000,61828.17000000,61834.41000000,61236.00000000,61350.01000000,2679.62058000
1719561600000,61350.01000000,61792.34000000,61212.11000000,61690.00000000,3397.52649000
1719576000000,61690.00000000,61875.00000000,60751.00000000,61062.01000000,7645.83227000
1719590400000,61062.00000000,61119.58000000,60079.41000000,60123.73000000,5131.47495000
1719604800000,60123.73000000,60450.00000000,60063.00000000,60427.84000000,2016.39413000
1719619200000,60427.84000000,61009.29000000,60383.77000000,60762.00000000,3105.17344000
1719633600000,60762.00000000,61146.64000000,60704.46000000,61052.30000000,1662.89798000
1719648000000,61052.30000000,61224.00000000,60890.03000000,61102.33000000,2290.41854000
1719662400000,61102.33000000,61182.70000000,60949.67000000,61106.00000000,1996.83297000
1719676800000,61106.00000000,61124.00000000,60915.12000000,61057.39000000,1250.42383000
1719691200000,61057.38000000,61090.00000000,60839.51000000,60986.68000000,1203.81228000
1719705600000,60986.68000000,61078.01000000,60740.94000000,60898.32000000,1806.11748000
1719720000000,60898.32000000,61782.00000000,60712.21000000,61528.01000000,3143.78973000
1719734400000,61528.01000000,61713.65000000,61393.07000000,61560.00000000,2353.60654000
1719748800000,61560.00000000,61860.00000000,61346.00000000,61717.90000000,2664.88075000
1719763200000,61717.90000000,62109.81000000,61590.01000000,62026.83000000,2493.15916000
1719777600000,62026.83000000,63058.76000000,61835.20000000,62772.01000000,4864.74770000
1719792000000,62772.01000000,63818.33000000,62573.32000000,63437.69000000,6859.32328000
1719806400000,63437.69000000,63466.92000000,63223.20000000,63277.84000000,1948.86897000
1719820800000,63277.84000000,63314.99000000,62593.07000000,62662.09000000,3745.11478000
1719835200000,62662.09000000,63166.11000000,62497.20000000,63132.90000000,4514.70610000
1719849600000,63132.90000000,63861.76000000,62966.77000000,63226.78000000,5479.95754000
1719864000000,63226.78000000,63423.48000000,62804.60000000,62899.99000000,1999.13471000
1719878400000,62900.00000000,63288.83000000,62787.42000000,63138.67000000,1678.91798000
1719892800000,63138.68000000,63245.80000000,62580.00000000,62629.99000000,2518.53154000
1719907200000,62630.00000000,62866.20000000,62401.23000000,62832.01000000,4139.03014000
1719921600000,62832.01000000,63152.00000000,61823.74000000,61948.08000000,5966.58949000
1719936000000,61948.08000000,62368.81000000,61806.28000000,61939.10000000,2841.63377000
1719950400000,61939.10000000,62181.24000000,61875.55000000,62135.47000000,1428.41583000
1719964800000,62135.46000000,62285.94000000,60600.00000000,60987.99000000,5145.57685000
1719979200000,60988.00000000,61181.84000000,60816.00000000,60870.01000000,2356.60300000
1719993600000,60870.01000000,60978.19000000,59600.00000000,60386.01000000,8846.07874000
1720008000000,60386.01000000,60740.20000000,59752.29000000,60186.25000000,7199.97498000
1720022400000,60186.25000000,60655.56000000,59666.00000000,59671.10000000,4933.93774000
1720036800000,59671.11000000,60374.82000000,59400.00000000,60208.58000000,3677.93996000
1720051200000,60208.57000000,60498.19000000,57800.01000000,59102.00000000,13491.78125000
1720065600000,59102.00000000,59150.00000000,58104.00000000,58219.99000000,4995.15301000
1720080000000,58219.99000000,58506.18000000,56952.00000000,57761.94000000,13240.07067000
1720094400000,57761.95000000,58350.19000000,56771.00000000,58140.00000000,12117.63525000
1720108800000,58140.00000000,58676.24000000,57752.27000000,58283.62000000,5009.28193000
1720123200000,58283.62000000,58813.13000000,56866.00000000,57050.01000000,5714.85065000
1720137600000,57050.02000000,57546.00000000,55000.00000000,55227.99000000,18842.91117000
1720152000000,55228.00000000,55356.42000000,53485.93000000,54415.05000000,18348.50944000
1720166400000,54415.04000000,55650.00000000,53900.00000000,55486.50000000,14058.05864000
1720180800000,55486.51000000,56678.19000000,54828.52000000,56662.00000000,16600.37842000
1720195200000,56662.99000000,57040.02000000,55779.33000000,56465.42000000,10590.10229000
1720209600000,56465.41000000,56866.00000000,56315.00000000,56628.79000000,2908.28760000
1720224000000,56628.79000000,56998.00000000,56170.50000000,56410.00000000,4430.41318000
1720238400000,56409.99000000,56683.90000000,56018.00000000,56606.00000000,3090.15552000
1720252800000,56606.00000000,56876.33000000,56436.78000000,56731.42000000,2361.38025000
1720267200000,56731.42000000,57441.10000000,56500.00000000,57317.98000000,4879.13871000
1720281600000,57317.99000000,58113.00000000,57185.76000000,57857.99000000,4272.51181000
1720296000000,57857.99000000,58475.00000000,57806.92000000,58230.13000000,2617.71611000
1720310400000,58230.13000000,58449.46000000,57838.00000000,57963.45000000,3130.97845000
1720324800000,57963.46000000,58007.87000000,57073.36000000,57369.99000000,3555.09321000
1720339200000,57369.99000000,57911.71000000,57350.94000000,57460.00000000,2240.99923000
1720353600000,57460.00000000,57631.02000000,56563.46000000,56825.42000000,4001.28632000
1720368000000,56825.42000000,57392.00000000,56755.55000000,57151.10000000,1983.16539000
1720382400000,57151.10000000,57319.10000000,55724.37000000,55857.81000000,4207.41658000
1720396800000,55857.81000000,56023.07000000,54260.16000000,55160.01000000,11551.58728000
1720411200000,55160.00000000,55900.00000000,54963.62000000,55852.01000000,4404.65688000
1720425600000,55852.00000000,58236.73000000,55741.11000000,57154.01000000,11849.73420000
1720440000000,57154.01000000,57621.10000000,54800.00000000,55761.52000000,12916.02666000
1720454400000,55761.52000000,56574.99000000,55425.74000000,56477.31000000,4703.86519000
1720468800000,56477.30000000,56971.94000000,56200.00000000,56714.62000000,2664.33469000
1720483200000,56714.61000000,57362.66000000,56289.45000000,57168.36000000,4128.26169000
1720497600000,57168.36000000,57754.00000000,57011.50000000,57116.84000000,4342.95753000
1720512000000,57116.84000000,57900.00000000,57024.01000000,57428.01000000,3810.42794000
1720526400000,57428.01000000,58131.09000000,56903.00000000,57477.01000000,8788.77381000
1720540800000,57477.00000000,58296.00000000,57362.08000000,57862.01000000,4164.82920000
1720555200000,57862.01000000,58260.00000000,57704.30000000,58050.00000000,2496.95771000
1720569600000,58050.00000000,58208.00000000,57309.09000000,58180.01000000,2762.23260000
1720584000000,58180.00000000,59470.00000000,58180.00000000,58977.99000000,6066.49390000
1720598400000,58977.99000000,59032.82000000,58311.66000000,58492.00000000,4042.42633000
1720612800000,58492.00000000,58550.00000000,57471.12000000,57699.69000000,6905.27165000
1720627200000,57699.69000000,58019.89000000,57353.84000000,57392.03000000,3000.71720000
1720641600000,57392.03000000,57879.58000000,57157.79000000,57725.85000000,2174.59631000
1720656000000,57725.85000000,58407.05000000,57050.00000000,57568.00000000,4166.29718000
1720670400000,57568.00000000,58300.00000000,57488.28000000,58191.50000000,3450.47132000
1720684800000,58191.50000000,58936.52000000,58052.00000000,58777.99000000,4104.41357000
1720699200000,58777.99000000,59650.00000000,57266.58000000,57402.01000000,12045.90104000
1720713600000,57402.01000000,58000.61000000,57178.00000000,57378.01000000,3674.19210000
1720728000000,57378.00000000,57636.00000000,57150.00000000,57339.89000000,2319.78214000
1720742400000,57339.89000000,57571.86000000,56542.47000000,56914.01000000,3755.44316000
1720756800000,56914.01000000,57416.13000000,56716.68000000,57106.94000000,2909.38206000
1720771200000,57106.95000000,57334.32000000,56767.05000000,57203.54000000,3142.52354000
1720785600000,57203.54000000,58278.00000000,57000.00000000,58214.00000000,6704.39430000
1720800000000,58213.99000000,58526.68000000,57500.00000000,57576.01000000,4912.50519000
1720814400000,57576.01000000,57906.10000000,57150.06000000,57889.10000000,2228.20865000
1720828800000,57889.09000000,57991.50000000,57762.39000000,57814.00000000,1446.83324000
1720843200000,57814.00000000,58216.08000000,57756.63000000,58170.32000000,1632.17504000
1720857600000,58170.33000000,58854.98000000,57900.57000000,58534.00000000,3065.17976000
1720872000000,58534.00000000,58899.46000000,58434.38000000,58830.63000000,2936.67433000
1720886400000,58830.62000000,58964.89000000,58572.98000000,58624.38000000,1692.04143000
1720900800000,58624.38000000,59850.00000000,58288.19000000,59204.02000000,4584.84139000
1720915200000,59204.01000000,59838.00000000,59194.01000000,59466.15000000,3229.45400000
1720929600000,59466.16000000,60324.61000000,59418.68000000,60062.01000000,4786.53502000
1720944000000,60062.01000000,60400.00000000,59904.00000000,60099.10000000,2939.88470000
1720958400000,60099.10000000,60236.13000000,59466.67000000,60084.00000000,3186.29928000
1720972800000,60084.00000000,60184.99000000,59894.16000000,59915.99000000,1320.94796000
1720987200000,59916.00000000,61420.69000000,59880.00000000,60797.91000000,5715.21811000
1721001600000,60797.91000000,62796.01000000,60632.30000000,62647.87000000,8302.39428000
1721016000000,62647.87000000,63084.00000000,62433.01000000,62840.12000000,4843.17921000
1721030400000,62840.12000000,63243.71000000,62290.00000000,62454.00000000,4225.17162000
1721044800000,62454.00000000,63328.00000000,62444.67000000,63026.00000000,6566.03185000
1721059200000,63026.01000000,63820.15000000,62852.00000000,63342.00000000,8649.43196000
1721073600000,63342.00000000,64900.00000000,63251.65000000,64724.14000000,6104.76928000
1721088000000,64724.06000000,64955.49000000,64436.20000000,64752.14000000,4459.14074000
1721102400000,64752.14000000,64993.95000000,62721.79000000,62895.01000000,9913.30874000
1721116800000,62895.01000000,63872.20000000,62373.24000000,63746.11000000,6280.01898000
1721131200000,63746.11000000,64960.86000000,63063.83000000,64878.24000000,8930.81380000
1721145600000,64878.24000000,65200.00000000,64111.56000000,65165.43000000,7931.24617000
1721160000000,65165.42000000,65388.97000000,64115.00000000,65043.99000000,5016.00072000
1721174400000,65044.00000000,66128.63000000,64932.31000000,65701.66000000,5877.77737000
1721188800000,65701.66000000,65993.14000000,65198.62000000,65258.00000000,4387.02514000
1721203200000,65258.01000000,65500.00000000,64560.00000000,64723.73000000,4608.68913000
1721217600000,64723.73000000,65400.00000000,64537.41000000,64724.01000000,6216.23738000
1721232000000,64724.01000000,64766.99000000,63854.00000000,64585.78000000,5893.07209000
1721246400000,64585.78000000,64672.89000000,64058.00000000,64087.99000000,2584.72843000
1721260800000,64087.99000000,65133.30000000,63910.00000000,64865.08000000,4071.27925000
1721275200000,64865.09000000,65061.50000000,64402.35000000,64668.00000000,2950.56928000
1721289600000,64668.00000000,64950.00000000,64441.94000000,64758.00000000,2394.45662000
1721304000000,64758.00000000,65111.29000000,63400.00000000,63538.12000000,6967.85898000
1721318400000,63538.12000000,63958.51000000,63238.48000000,63555.00000000,4155.67605000
1721332800000,63555.00000000,64122.43000000,63438.21000000,63987.92000000,2028.88232000
1721347200000,63987.92000000,64368.62000000,63300.67000000,64325.00000000,3161.96417000
1721361600000,64324.99000000,64486.00000000,63600.00000000,63694.01000000,4022.16332000
1721376000000,63694.01000000,64182.77000000,63409.01000000,64116.00000000,3490.01318000
1721390400000,64115.99000000,65888.00000000,64005.57000000,65836.77000000,10348.62908000
1721404800000,65836.76000000,67386.00000000,65827.62000000,67157.26000000,11099.18996000
1721419200000,67157.25000000,67352.44000000,66616.19000000,66660.00000000,3512.76768000
1721433600000,66660.01000000,66822.22000000,66222.46000000,66602.01000000,2794.00790000
1721448000000,66602.00000000,66775.11000000,66436.00000000,66562.28000000,1871.55513000
1721462400000,66562.27000000,66733.09000000,66458.83000000,66483.69000000,1353.55240000
1721476800000,66483.69000000,66832.00000000,66273.62000000,66825.00000000,1565.74689000
1721491200000,66824.99000000,67598.00000000,66679.01000000,67224.00000000,4139.41482000
1721505600000,67224.00000000,67430.01000000,66790.90000000,67139.96000000,2662.64720000
1721520000000,67139.97000000,67436.22000000,66962.00000000,67171.33000000,1473.02827000
1721534400000,67171.33000000,67220.52000000,66592.10000000,66701.99000000,1958.03031000
1721548800000,66702.00000000,67062.77000000,66680.00000000,66879.99000000,1335.82107000
1721563200000,66879.99000000,67499.99000000,66616.00000000,67164.00000000,2766.07202000
1721577600000,67164.00000000,67713.00000000,65777.00000000,67422.02000000,9311.54907000
1721592000000,67422.03000000,68366.66000000,67274.69000000,68165.34000000,4974.61117000
1721606400000,68165.35000000,68474.55000000,67753.72000000,67880.01000000,2930.46409000
1721620800000,67880.01000000,67996.01000000,67122.22000000,67236.00000000,2950.64733000
1721635200000,67236.01000000,67599.00000000,66944.10000000,67516.01000000,2471.17079000
1721649600000,67516.01000000,67952.39000000,66559.97000000,67063.87000000,5487.87343000
1721664000000,67063.87000000,68250.00000000,66798.36000000,68232.07000000,3909.83010000
1721678400000,68232.08000000,68256.00000000,67224.11000000,67532.01000000,3701.05729000
1721692800000,67532.00000000,67750.98000000,67183.98000000,67473.99000000,2359.78706000
1721707200000,67473.98000000,67526.01000000,66256.39000000,66576.00000000,5421.15607000
1721721600000,66576.00000000,67166.01000000,66454.00000000,66676.01000000,4791.70581000
1721736000000,66676.00000000,67349.03000000,65962.00000000,66584.01000000,8657.61770000
1721750400000,66584.01000000,66780.01000000,65441.08000000,65536.01000000,6601.90145000
1721764800000,65536.00000000,66054.00000000,65472.54000000,65936.01000000,3573.98507000
1721779200000,65936.00000000,66146.01000000,65476.84000000,66052.71000000,2432.59154000
1721793600000,66052.71000000,66080.01000000,65610.00000000,66078.00000000,2427.93275000
1721808000000,66078.00000000,66600.00000000,66008.00000000,66367.99000000,3288.02602000
1721822400000,66368.00000000,67102.01000000,66093.99000000,66176.00000000,5901.95291000
1721836800000,66176.00000000,66709.55000000,65558.89000000,65652.00000000,5503.70728000
1721851200000,65652.01000000,66066.66000000,65111.00000000,65376.00000000,3528.35227000
1721865600000,65376.01000000,65620.00000000,63861.00000000,64093.59000000,9391.42907000
1721880000000,64093.58000000,64390.00000000,63800.00000000,64134.00000000,3961.34648000
1721894400000,64134.00000000,64480.00000000,63878.00000000,64096.00000000,4126.90854000
1721908800000,64096.01000000,65005.00000000,63456.70000000,64790.88000000,7825.83383000
1721923200000,64790.89000000,65187.82000000,64388.46000000,64692.01000000,5638.02977000
1721937600000,64692.01000000,66175.49000000,64425.00000000,65799.95000000,4182.88165000
1721952000000,65799.95000000,67480.00000000,65722.63000000,67042.01000000,5791.72468000
1721966400000,67042.00000000,67190.00000000,66870.82000000,66890.56000000,3400.66108000
1721980800000,66890.56000000,67498.00000000,66890.56000000,67322.00000000,3011.50616000
1721995200000,67321.99000000,68000.00000000,66892.00000000,67560.01000000,6230.76783000
1722009600000,67560.00000000,68144.01000000,67303.07000000,67990.00000000,3294.11637000
1722024000000,67990.00000000,68200.00000000,67413.50000000,67907.99000000,2515.58411000
1722038400000,67908.00000000,68081.57000000,67630.00000000,67798.00000000,1546.23200000
1722052800000,67797.99000000,68295.39000000,67782.73000000,68036.68000000,1915.58616000
1722067200000,68036.68000000,68275.64000000,67892.24000000,68209.88000000,1834.00547000
1722081600000,68209.88000000,69399.99000000,68195.43000000,68844.00000000,6195.41252000
1722096000000,68844.00000000,68990.03000000,67658.68000000,68246.00000000,5271.56991000
1722110400000,68246.00000000,69182.94000000,66650.00000000,67896.50000000,14947.41315000
1722124800000,67896.49000000,68285.43000000,67260.54000000,67940.95000000,2215.70821000
1722139200000,67940.94000000,68024.18000000,67066.66000000,67560.86000000,2398.31930000
1722153600000,67560.86000000,68000.00000000,67220.00000000,67836.00000000,1770.93628000
1722168000000,67836.01000000,68123.32000000,67577.63000000,67645.00000000,1768.83501000
1722182400000,67645.00000000,68318.43000000,67624.00000000,68112.00000000,1510.51620000
1722196800000,68112.00000000,68277.83000000,67801.62000000,68249.88000000,1204.37894000
1722211200000,68249.88000000,69800.00000000,68168.00000000,69347.67000000,5973.42365000
1722225600000,69347.66000000,69888.00000000,69263.07000000,69528.01000000,4146.35577000
1722240000000,69528.01000000,69838.62000000,69375.00000000,69580.01000000,3013.88754000
1722254400000,69580.01000000,70079.99000000,67668.34000000,68104.00000000,11386.58792000
1722268800000,68103.99000000,68118.00000000,66428.00000000,67303.05000000,9083.51955000
1722283200000,67303.05000000,67553.66000000,66600.00000000,66784.69000000,2863.52190000
1722297600000,66784.68000000,66886.00000000,65862.00000000,66610.00000000,5989.73926000
1722312000000,66610.00000000,67000.00000000,66322.49000000,66952.00000000,2496.27288000
1722326400000,66952.00000000,66999.92000000,66404.53000000,66574.01000000,2327.27576000
1722340800000,66574.00000000,66948.00000000,65555.00000000,66216.01000000,6086.17893000
1722355200000,66216.01000000,66550.01000000,65556.56000000,65931.02000000,3450.64877000
1722369600000,65931.03000000,66356.89000000,65302.67000000,66188.00000000,2782.13881000
1722384000000,66188.00000000,66413.28000000,65881.96000000,66058.00000000,1725.24015000
1722398400000,66058.00000000,66554.40000000,65496.00000000,66224.00000000,3376.79106000
1722412800000,66224.00000000,66374.01000000,65954.54000000,66094.01000000,1829.74564000
1722427200000,66094.01000000,66849.24000000,65963.25000000,66379.99000000,4367.38069000
1722441600000,66379.99000000,66836.30000000,64957.14000000,65256.83000000,6409.37317000
1722456000000,65256.83000000,65422.00000000,64530.00000000,64628.00000000,4916.90834000
1722470400000,64628.01000000,64841.29000000,63750.00000000,63936.01000000,5768.43332000
1722484800000,63936.01000000,64488.00000000,63584.00000000,64328.59000000,4107.52186000
1722499200000,64328.60000000,64701.41000000,64299.87000000,64674.25000000,2655.04695000
1722513600000,64674.26000000,64949.58000000,62666.07000000,62906.60000000,8006.54547000
1722528000000,62907.44000000,63509.83000000,62302.00000000,63422.01000000,8541.89631000
1722542400000,63422.01000000,65659.78000000,63336.61000000,65354.02000000,6462.82463000
1722556800000,65354.02000000,65596.14000000,63668.00000000,64609.18000000,4163.15932000
1722571200000,64609.17000000,64655.17000000,63807.29000000,64164.07000000,3823.07721000
1722585600000,64164.07000000,64974.00000000,64044.00000000,64660.01000000,3302.57023000
1722600000000,64660.01000000,65524.01000000,62432.90000000,63416.01000000,14382.81934000
1722614400000,63416.00000000,63611.24000000,62515.00000000,62633.57000000,5054.98681000
1722628800000,62633.58000000,63187.26000000,61230.01000000,61498.33000000,8093.81646000
1722643200000,61498.34000000,61975.00000000,60505.00000000,61895.99000000,7057.47647000
1722657600000,61895.99000000,61981.43000000,61398.01000000,61662.01000000,2027.63322000
1722672000000,61662.02000000,62002.39000000,61457.89000000,61919.38000000,1996.26325000
1722686400000,61919.38000000,62198.22000000,60833.33000000,60879.00000000,3681.34999000
1722700800000,60879.01000000,61288.00000000,59920.00000000,60246.00000000,9231.05335000
1722715200000,60246.01000000,60849.93000000,59850.00000000,60697.99000000,4040.93939000
1722729600000,60697.99000000,61117.63000000,60320.00000000,60735.00000000,2502.72642000
1722744000000,60735.00000000,60938.54000000,60260.00000000,60373.99000000,1972.26761000
1722758400000,60374.00000000,61000.00000000,60081.57000000,60896.00000000,2180.15909000
1722772800000,60896.00000000,61097.55000000,58960.00000000,59086.01000000,7395.68169000
1722787200000,59086.01000000,59497.21000000,57122.77000000,59257.66000000,12940.59003000
1722801600000,59257.67000000,59583.00000000,58001.81000000,58161.00000000,4625.09519000
1722816000000,58161.00000000,58305.59000000,52300.17000000,53890.87000000,36136.46230000
1722830400000,53890.87000000,54576.71000000,49000.00000000,52674.19000000,43384.93070000
1722844800000,52674.20000000,53218.37000000,50633.47000000,51340.00000000,19223.46997000
1722859200000,51340.00000000,54980.00000000,49542.83000000,54321.09000000,39760.49257000
1722873600000,54321.08000000,55600.00000000,52555.00000000,53470.09000000,16277.76056000
1722888000000,53470.08000000,55200.00000000,53462.00000000,54018.81000000,7282.47576000
1722902400000,54018.82000000,56276.00000000,53950.00000000,55665.73000000,10506.64519000
1722916800000,55665.73000000,56169.48000000,55255.00000000,55999.99000000,7730.59021000
1722931200000,55998.02000000,56122.00000000,54600.01000000,55210.01000000,9386.98945000
1722945600000,55210.00000000,56605.55000000,54371.94000000,56405.99000000,13732.96595000
1722960000000,56405.99000000,57040.99000000,56234.80000000,56765.48000000,8827.28343000
1722974400000,56769.98000000,56935.56000000,55800.00000000,56022.01000000,5700.30253000
1722988800000,56022.00000000,57287.99000000,55557.88000000,56862.00000000,6756.54810000
1723003200000,56862.01000000,57250.00000000,56544.70000000,56920.91000000,5447.23988000
1723017600000,56920.91000000,57736.05000000,56870.39000000,56963.38000000,6601.32871000
1723032000000,56963.39000000,57479.60000000,55650.00000000,56094.50000000,10005.68143000
1723046400000,56094.51000000,56300.00000000,54676.35000000,54759.22000000,9406.48722000
1723060800000,54760.97000000,55566.24000000,54558.62000000,55134.16000000,6052.09150000
1723075200000,55133.76000000,57636.36000000,54730.00000000,57049.74000000,8647.80188000
1723089600000,57049.74000000,57434.35000000,56670.47000000,57193.49000000,3670.90212000
1723104000000,57193.48000000,57670.04000000,56978.52000000,57320.51000000,3688.92815000
1723118400000,57320.51000000,59505.00000000,56700.00000000,59428.03000000,14315.42395000
1723132800000,59428.03000000,59863.00000000,59237.59000000,59414.51000000,6749.57668000
1723147200000,59414.52000000,62745.14000000,59297.34000000,61685.99000000,11276.89671000
1723161600000,61686.00000000,61744.37000000,60720.00000000,61358.39000000,5373.57013000
1723176000000,61358.39000000,61390.70000000,60588.63000000,60863.57000000,4475.52913000
1723190400000,60863.58000000,61210.31000000,60170.16000000,60655.24000000,4238.45087000
1723204800000,60655.25000000,61115.11000000,59535.00000000,59810.23000000,8756.37366000
1723219200000,59810.24000000,60750.00000000,59700.00000000,60681.42000000,3794.60746000
1723233600000,60681.79000000,60986.03000000,59909.16000000,60837.99000000,4333.94892000
1723248000000,60837.99000000,61470.58000000,60266.03000000,60437.84000000,2866.07526000
1723262400000,60437.85000000,60851.91000000,60242.00000000,60842.00000000,1152.48879000
1723276800000,60842.01000000,61116.65000000,60601.96000000,60920.88000000,1618.24524000
1723291200000,60920.88000000,60949.99000000,60400.00000000,60515.89000000,1529.47703000
1723305600000,60515.90000000,61196.63000000,60400.00000000,61016.45000000,1789.44845000
1723320000000,61016.44000000,61160.00000000,60757.39000000,60923.51000000,1039.47144000
1723334400000,60923.51000000,61382.73000000,60892.00000000,61085.01000000,1397.39336000
1723348800000,61085.01000000,61271.43000000,60881.36000000,61257.00000000,1213.74092000
1723363200000,61257.00000000,61858.00000000,60425.00000000,60669.15000000,3535.80151000
1723377600000,60669.14000000,60761.09000000,59941.00000000,60127.29000000,4006.71160000
1723392000000,60127.29000000,60350.00000000,59542.57000000,59621.11000000,2598.58022000
1723406400000,59621.11000000,59674.38000000,58286.73000000,58712.59000000,6437.61751000
1723420800000,58712.59000000,59088.33000000,58100.06000000,58509.50000000,4095.99147000
1723435200000,58509.50000000,58984.85000000,57642.21000000,58674.61000000,4501.23624000
1723449600000,58674.62000000,59990.00000000,58125.75000000,59851.70000000,6603.96568000
1723464000000,59851.71000000,60711.09000000,57800.00000000,60207.37000000,12079.05910000
1723478400000,60207.38000000,60420.34000000,58440.54000000,59043.98000000,5640.99625000
1723492800000,59043.99000000,59745.99000000,58555.26000000,59346.64000000,4088.66869000
1723507200000,59346.64000000,59923.28000000,58846.95000000,59040.00000000,4305.36618000
1723521600000,59040.00000000,59476.00000000,58830.23000000,59238.05000000,2580.73080000
1723536000000,59238.05000000,59331.99000000,58392.88000000,58830.00000000,3375.90810000
1723550400000,58830.01000000,59776.70000000,58709.57000000,59472.26000000,5686.11926000
1723564800000,59472.25000000,61578.10000000,59446.22000000,60820.15000000,9342.46623000
1723579200000,60820.16000000,61138.87000000,60389.75000000,60587.15000000,2568.36794000
1723593600000,60587.16000000,61302.88000000,60425.01000000,60952.83000000,2371.78110000
1723608000000,60952.83000000,61162.20000000,60637.30000000,60914.02000000,1820.09080000
1723622400000,60914.02000000,61453.00000000,60640.40000000,61296.87000000,3475.66893000
1723636800000,61296.88000000,61800.00000000,58823.52000000,59435.69000000,13499.00032000
1723651200000,59435.69000000,59462.61000000,58615.06000000,58891.13000000,4924.68347000
1723665600000,58891.13000000,59183.99000000,58433.18000000,58683.39000000,2331.53864000
1723680000000,58683.39000000,59044.44000000,58010.00000000,58442.98000000,5000.29248000
1723694400000,58442.99000000,58639.00000000,57713.88000000,58060.37000000,4142.71713000
1723708800000,58060.36000000,58872.85000000,57964.85000000,58745.36000000,3345.64247000
1723723200000,58745.36000000,59787.37000000,58532.42000000,59682.84000000,7723.07742000
1723737600000,59682.85000000,59849.38000000,56680.00000000,57047.46000000,10434.70512000
1723752000000,57046.34000000,57885.00000000,56078.54000000,57541.06000000,7039.74160000
1723766400000,57541.05000000,58517.47000000,57098.62000000,57890.00000000,4146.62428000
1723780800000,57890.00000000,58666.77000000,57800.47000000,58456.99000000,3244.35689000
1723795200000,58456.99000000,58683.47000000,58218.71000000,58400.00000000,2450.75569000
1723809600000,58400.00000000,58915.18000000,57526.31000000,58071.06000000,8248.43744000
1723824000000,58071.07000000,59817.76000000,58000.00000000,59683.39000000,6963.94372000
1723838400000,59683.39000000,59715.69000000,58703.99000000,58874.60000000,2556.72542000
1723852800000,58874.59000000,59389.18000000,58785.05000000,59158.37000000,1769.95814000
1723867200000,59158.36000000,59263.47000000,59051.98000000,59248.00000000,1106.84453000
1723881600000,59248.00000000,59477.16000000,59060.00000000,59137.12000000,1327.01136000
1723896000000,59137.12000000,59654.90000000,59100.28000000,59388.11000000,1490.86412000
1723910400000,59388.11000000,59700.00000000,59294.31000000,59473.19000000,1157.01055000
1723924800000,59473.19000000,59500.00000000,59113.68000000,59491.99000000,870.04061000
1723939200000,59491.99000000,60259.01000000,59300.00000000,59337.42000000,2850.65710000
1723953600000,59337.41000000,59698.00000000,59256.56000000,59573.39000000,1521.38536000
1723968000000,59573.39000000,60200.00000000,59436.00000000,60024.01000000,2556.86768000
1723982400000,60024.00000000,60284.99000000,59669.85000000,59863.99000000,2229.08779000
1723996800000,59863.99000000,59945.83000000,59377.14000000,59708.38000000,1411.05054000
1724011200000,59708.38000000,59869.77000000,58408.92000000,58427.35000000,3065.80870000
1724025600000,58427.35000000,58763.83000000,58210.03000000,58736.85000000,4986.95947000
1724040000000,58736.85000000,58746.00000000,58359.50000000,58502.19000000,2077.63203000
1724054400000,58502.19000000,58671.38000000,57787.30000000,58396.95000000,4744.05742000
1724068800000,58396.94000000,58970.00000000,58029.77000000,58539.24000000,4628.31977000
1724083200000,58539.25000000,59290.00000000,58380.00000000,58967.53000000,3169.47813000
1724097600000,58967.54000000,59617.63000000,58914.00000000,59438.50000000,3202.86569000
1724112000000,59438.50000000,60910.55000000,59363.31000000,60619.18000000,6392.34637000
1724126400000,60619.19000000,61400.00000000,60576.06000000,60924.33000000,5275.93633000
1724140800000,60924.33000000,60975.00000000,60401.90000000,60518.82000000,3208.77740000
1724155200000,60518.83000000,60955.99000000,58680.01000000,58825.53000000,10444.84480000
1724169600000,58825.53000000,59597.28000000,58548.23000000,59511.99000000,3678.04238000
1724184000000,59512.00000000,59722.72000000,58802.35000000,59013.80000000,2477.49820000
1724198400000,59013.80000000,59519.99000000,58783.47000000,59320.00000000,2364.50372000
1724212800000,59320.00000000,59739.52000000,59183.13000000,59712.00000000,2017.26415000
1724227200000,59711.99000000,59924.13000000,59085.88000000,59361.14000000,2931.20089000
1724241600000,59361.14000000,60201.98000000,58850.00000000,59511.80000000,8008.24548000
1724256000000,59511.79000000,61625.20000000,59375.00000000,61570.00000000,7137.29601000
1724270400000,61570.00000000,61820.93000000,60902.13000000,61156.03000000,5525.13195000
1724284800000,61156.03000000,61229.00000000,59724.87000000,60548.90000000,4109.54112000
1724299200000,60548.90000000,61114.23000000,60459.98000000,60984.31000000,2676.87579000
1724313600000,60984.31000000,61400.00000000,60802.38000000,61336.09000000,3099.60131000
1724328000000,61336.09000000,61398.18000000,60100.00000000,60407.40000000,6849.31563000
1724342400000,60407.39000000,60600.20000000,60131.00000000,60308.00000000,2663.66757000
1724356800000,60307.99000000,60707.88000000,60288.00000000,60375.84000000,1842.20446000
1724371200000,60375.83000000,60968.24000000,60342.14000000,60593.31000000,2184.37470000
1724385600000,60593.31000000,61367.74000000,60582.68000000,61069.27000000,2937.25078000
1724400000000,61069.26000000,61337.57000000,60691.11000000,60741.68000000,2313.52775000
1724414400000,60741.68000000,62320.36000000,60741.68000000,61533.05000000,11626.90263000
1724428800000,61533.04000000,63819.16000000,61349.99000000,63628.84000000,11503.37000000
1724443200000,63628.84000000,64955.00000000,63484.18000000,64037.24000000,7552.64503000
1724457600000,64037.24000000,64206.70000000,63626.58000000,63832.01000000,3091.41323000
1724472000000,63832.00000000,64332.00000000,63822.00000000,64315.00000000,2843.18939000
1724486400000,64315.00000000,64494.50000000,63868.00000000,63905.01000000,2357.89821000
1724500800000,63905.00000000,64244.00000000,63872.00000000,63976.00000000,2293.96419000
1724515200000,63976.00000000,64444.00000000,63903.58000000,64210.60000000,2874.78934000
1724529600000,64210.60000000,64328.00000000,63531.00000000,64157.01000000,2395.90180000
1724544000000,64157.02000000,64507.04000000,64000.00000000,64101.01000000,2623.24737000
1724558400000,64101.01000000,64196.00000000,63785.76000000,63868.26000000,1645.44133000
1724572800000,63868.27000000,64010.00000000,63773.27000000,63873.91000000,1728.68012000
1724587200000,63873.92000000,64288.00000000,63805.00000000,64132.16000000,1834.21670000
1724601600000,64132.17000000,64248.66000000,64000.00000000,64187.41000000,1118.62168000
1724616000000,64187.42000000,65000.00000000,64122.49000000,64220.00000000,3355.27257000
1724630400000,64219.99000000,64481.00000000,63790.00000000,64114.99000000,2477.44562000
1724644800000,64115.00000000,64205.31000000,63420.00000000,63627.01000000,2772.63585000
1724659200000,63627.01000000,64039.20000000,63220.95000000,63859.00000000,2882.34645000
1724673600000,63859.00000000,63958.95000000,63061.00000000,63532.53000000,4958.27097000
1724688000000,63532.54000000,63878.78000000,63192.04000000,63342.99000000,3487.08919000
1724702400000,63342.99000000,63557.58000000,62800.00000000,62834.00000000,2892.26468000
1724716800000,62834.00000000,63212.00000000,62657.00000000,62970.00000000,3568.52133000
1724731200000,62970.00000000,63200.00000000,62701.06000000,62902.31000000,3113.00318000
1724745600000,62902.32000000,63000.00000000,62230.00000000,62417.00000000,4189.56881000
1724760000000,62416.99000000,62495.00000000,61473.03000000,61709.13000000,8258.16317000
1724774400000,61709.13000000,62196.75000000,61518.74000000,62102.01000000,3043.78733000
1724788800000,62102.00000000,62102.01000000,58034.01000000,59415.00000000,12962.89796000
1724803200000,59415.00000000,59650.00000000,58917.12000000,59629.01000000,5551.95530000
1724817600000,59629.01000000,59661.00000000,58516.00000000,58600.98000000,4614.54952000
1724832000000,58600.98000000,60234.98000000,58534.35000000,59935.00000000,6405.76959000
1724846400000,59934.99000000,60160.00000000,58443.07000000,59000.00000000,8281.56232000
1724860800000,59000.00000000,59849.99000000,57860.00000000,58898.85000000,8303.26552000
1724875200000,58898.85000000,59602.00000000,58623.01000000,59034.90000000,3711.44050000
1724889600000,59034.90000000,59320.00000000,58878.46000000,59141.10000000,2188.72128000
1724904000000,59141.11000000,59764.00000000,59049.79000000,59583.88000000,2877.04011000
1724918400000,59583.88000000,60477.00000000,59374.00000000,60067.06000000,4113.75713000
1724932800000,60067.06000000,61166.99000000,59990.00000000,60779.99000000,7624.50121000
1724947200000,60779.99000000,60960.00000000,58915.01000000,59258.00000000,7172.50668000
1724961600000,59257.99000000,59638.37000000,58713.09000000,59359.01000000,3044.38102000
1724976000000,59359.00000000,59487.64000000,58899.70000000,59032.01000000,2743.70295000
1724990400000,59032.00000000,59582.86000000,58685.00000000,59271.10000000,4144.30240000
1725004800000,59271.11000000,59674.42000000,59271.00000000,59396.00000000,3176.58551000
1725019200000,59396.00000000,59944.07000000,57946.01000000,58094.99000000,10365.98684000
1725033600000,58095.00000000,59371.00000000,57701.10000000,58700.02000000,6417.58601000
1725048000000,58700.02000000,59298.89000000,58700.00000000,59123.99000000,1671.15824000
1725062400000,59123.99000000,59462.38000000,59070.40000000,59232.01000000,1647.80492000
1725076800000,59232.01000000,59350.00000000,59043.12000000,59095.00000000,1230.67061000
1725091200000,59095.01000000,59188.90000000,58831.88000000,59120.99000000,1404.08788000
1725105600000,59120.99000000,59244.04000000,58892.15000000,59006.54000000,1774.98601000
1725120000000,59006.54000000,59140.01000000,58744.00000000,58856.00000000,1637.26790000
1725134400000,58856.00000000,59141.72000000,58763.29000000,58973.99000000,1103.59168000
1725148800000,58974.00000000,59076.59000000,58276.01000000,58524.21000000,2314.00203000
1725163200000,58524.21000000,58599.98000000,57777.00000000,58478.64000000,3366.16193000
1725177600000,58478.64000000,58504.81000000,57840.00000000,58240.52000000,2520.59733000
1725192000000,58240.51000000,58360.38000000,57201.00000000,58217.00000000,5911.39633000
1725206400000,58217.00000000,58788.93000000,57864.30000000,58514.00000000,2668.74429000
1725220800000,58514.01000000,58656.77000000,57205.00000000,57301.86000000,3924.25550000
1725235200000,57301.77000000,57767.14000000,57128.00000000,57742.01000000,4604.88008000
1725249600000,57742.00000000,57987.99000000,57362.06000000,57547.99000000,2616.60584000
1725264000000,57548.00000000,58680.76000000,57520.12000000,58422.01000000,5072.33101000
1725278400000,58422.01000000,58808.00000000,58104.00000000,58537.99000000,4023.88935000
1725292800000,58537.99000000,58666.64000000,58293.12000000,58439.99000000,2856.47240000
1725307200000,58440.03000000,59425.69000000,58384.61000000,59132.13000000,3720.83593000
1725321600000,59132.12000000,59809.65000000,59021.62000000,59110.99000000,3188.73817000
1725336000000,59111.00000000,59259.00000000,58872.00000000,59112.00000000,2786.55038000
1725350400000,59112.01000000,59195.63000000,58717.00000000,59072.00000000,2434.05695000
1725364800000,59072.01000000,59350.00000000,57568.00000000,57725.00000000,8190.06416000
1725379200000,57725.01000000,58251.09000000,57589.01000000,58046.00000000,3746.41150000
1725393600000,58045.99000000,58247.00000000,57415.00000000,57487.73000000,2482.36331000
1725408000000,57487.74000000,57943.53000000,55606.00000000,56653.98000000,10008.54590000
1725422400000,56653.99000000,56881.00000000,56201.00000000,56746.00000000,5570.10401000
1725436800000,56746.00000000,56909.94000000,56453.00000000,56573.00000000,3012.85274000
1725451200000,56573.00000000,58181.43000000,56187.61000000,58134.00000000,9903.94203000
1725465600000,58134.00000000,58519.00000000,57646.00000000,58058.01000000,5284.73247000
1725480000000,58058.00000000,58390.00000000,57792.46000000,57970.90000000,1780.64431000
1725494400000,57970.90000000,58327.07000000,56891.07000000,57135.42000000,4718.02876000
1725508800000,57135.42000000,57291.10000000,56541.68000000,57155.10000000,3337.56535000
1725523200000,57155.10000000,57232.00000000,56623.00000000,56698.01000000,2824.97809000
1725537600000,56698.01000000,57350.00000000,55817.51000000,55976.01000000,10200.08948000
1725552000000,55976.01000000,56710.00000000,55800.00000000,56060.01000000,4306.58366000
1725566400000,56060.00000000,56259.97000000,55643.65000000,56180.00000000,2419.66879000
1725580800000,56180.00000000,56858.88000000,55989.00000000,56588.00000000,3089.15324000
1725595200000,56588.01000000,56747.91000000,55280.00000000,55804.29000000,5943.85272000
1725609600000,55804.28000000,56262.11000000,55639.00000000,55999.09000000,4116.26102000
1725624000000,55999.09000000,57008.00000000,53808.00000000,54045.01000000,21136.96377000
1725638400000,54045.00000000,54435.00000000,53267.54000000,53534.28000000,11314.50356000
1725652800000,53534.27000000,53969.99000000,52550.00000000,53962.97000000,8847.03395000
1725667200000,53962.97000000,54095.65000000,53745.54000000,53818.91000000,2283.19066000
1725681600000,53818.92000000,54405.37000000,53814.00000000,54286.00000000,4210.82665000
1725696000000,54286.00000000,54492.98000000,54168.23000000,54326.00000000,2289.86562000
1725710400000,54326.01000000,54829.00000000,54326.00000000,54780.00000000,2510.87487000
1725724800000,54780.00000000,54850.00000000,54000.00000000,54404.01000000,3137.77696000
1725739200000,54404.01000000,54437.97000000,53814.01000000,54160.86000000,2261.51298000
1725753600000,54160.86000000,54509.00000000,53964.00000000,54402.99000000,1979.50014000
1725768000000,54402.98000000,54575.00000000,54261.10000000,54436.25000000,1722.23364000
1725782400000,54436.25000000,54722.85000000,54356.00000000,54556.08000000,1765.73164000
1725796800000,54556.08000000,54567.00000000,53640.00000000,53687.00000000,3500.41607000
1725811200000,53686.99000000,54531.10000000,53629.01000000,54337.01000000,2289.20807000
1725825600000,54337.02000000,55318.00000000,54184.00000000,54869.95000000,5017.05823000
1725840000000,54869.95000000,55370.23000000,54688.69000000,55115.00000000,4899.59127000
1725854400000,55115.00000000,55150.00000000,54591.96000000,54974.01000000,3091.16196000
1725868800000,54974.01000000,55555.00000000,54960.00000000,55264.87000000,3429.17626000
1725883200000,55264.87000000,55799.00000000,54804.00000000,55386.00000000,6542.48233000
1725897600000,55385.99000000,57177.00000000,55348.54000000,57089.54000000,9053.91852000
1725912000000,57089.53000000,58088.00000000,56810.00000000,57042.00000000,5368.18703000
1725926400000,57042.01000000,57065.34000000,56522.86000000,56524.74000000,3589.26607000
1725940800000,56524.74000000,57290.00000000,56386.40000000,57218.57000000,2969.98514000
1725955200000,57218.56000000,57378.00000000,56878.65000000,57228.00000000,3523.74246000
1725969600000,57228.01000000,57468.98000000,56502.31000000,56596.00000000,6137.02725000
1725984000000,56596.01000000,58044.36000000,56566.00000000,57952.01000000,5036.50689000
1725998400000,57952.01000000,57975.99000000,57453.00000000,57635.99000000,2370.25345000
1726012800000,57635.99000000,57750.00000000,56681.32000000,56819.55000000,4635.08566000
1726027200000,56819.56000000,56819.56000000,56100.00000000,56712.00000000,4361.14028000
1726041600000,56712.01000000,56895.82000000,56325.70000000,56797.99000000,4294.63231000
1726056000000,56798.00000000,57166.66000000,55545.19000000,56701.23000000,10825.44190000
1726070400000,56701.22000000,57981.71000000,56646.00000000,57585.50000000,7312.78160000
1726084800000,57585.50000000,57676.83000000,57211.10000000,57338.00000000,1597.48582000
1726099200000,57338.00000000,58470.01000000,57324.00000000,58232.72000000,4925.10026000
1726113600000,58232.73000000,58430.56000000,57836.28000000,58138.16000000,3805.17892000
1726128000000,58138.15000000,58350.00000000,57894.00000000,58057.99000000,3403.41297000
1726142400000,58058.00000000,58588.00000000,57345.23000000,57512.03000000,9147.61704000
1726156800000,57512.03000000,58450.99000000,57494.01000000,58388.00000000,5931.38887000
1726171200000,58388.00000000,58388.00000000,57781.10000000,58132.32000000,3861.70825000
1726185600000,58132.31000000,58290.40000000,57798.49000000,57845.97000000,2349.18013000
1726200000000,57845.97000000,58137.68000000,57742.00000000,58109.31000000,2043.62690000
1726214400000,58109.31000000,58350.00000000,57815.00000000,57871.10000000,2642.80891000
1726228800000,57871.10000000,59723.97000000,57632.62000000,59667.38000000,10230.19313000
1726243200000,59666.01000000,59999.00000000,59312.01000000,59743.99000000,6438.89464000
1726257600000,59743.99000000,60625.00000000,59633.40000000,60498.00000000,6120.52962000
1726272000000,60497.99000000,60610.45000000,60285.55000000,60329.37000000,2276.07277000
1726286400000,60329.38000000,60348.24000000,59900.00000000,60138.14000000,2520.20691000
1726300800000,60138.14000000,60156.00000000,59605.98000000,59706.39000000,2203.89620000
1726315200000,59706.40000000,60010.00000000,59626.01000000,59876.00000000,1704.29511000
1726329600000,59875.99000000,59983.39000000,59400.00000000,59810.00000000,2133.99814000
1726344000000,59810.01000000,60134.13000000,59774.00000000,59993.03000000,1299.43988000
1726358400000,59993.02000000,60280.06000000,59986.01000000,60155.93000000,1236.11942000
1726372800000,60155.93000000,60216.00000000,60032.90000000,60196.00000000,1021.60267000
1726387200000,60195.99000000,60204.00000000,59880.00000000,60000.51000000,1163.54597000
1726401600000,60000.51000000,60395.80000000,59871.00000000,60335.41000000,2112.81180000
1726416000000,60335.41000000,60352.65000000,59707.08000000,59878.22000000,3245.74935000
1726430400000,59878.23000000,59939.10000000,58691.05000000,59132.00000000,4978.09440000
1726444800000,59132.00000000,59210.70000000,58112.00000000,58575.09000000,5370.83860000
1726459200000,58575.09000000,58970.00000000,58312.54000000,58911.10000000,3433.45011000
1726473600000,58911.10000000,59179.35000000,58506.00000000,58663.99000000,3270.35511000
1726488000000,58664.00000000,58789.93000000,57553.38000000,57881.69000000,6950.28148000
1726502400000,57881.70000000,58263.84000000,57493.30000000,57943.99000000,4927.89314000
1726516800000,57943.99000000,58410.00000000,57608.00000000,58213.99000000,2524.74576000
1726531200000,58213.99000000,58343.99000000,57610.01000000,58060.00000000,2399.69133000
1726545600000,58060.00000000,58779.08000000,58028.00000000,58695.39000000,2401.70353000
1726560000000,58695.39000000,59300.00000000,58636.36000000,59080.99000000,3403.05073000
1726574400000,59080.99000000,61320.00000000,58872.02000000,61135.50000000,14518.51056000
1726588800000,61135.49000000,61261.00000000,59618.26000000,59967.99000000,7151.64931000
1726603200000,59967.98000000,60424.25000000,59715.42000000,60313.99000000,3241.65332000
1726617600000,60313.99000000,60769.00000000,59854.60000000,60509.99000000,3991.84107000
1726632000000,60510.00000000,60689.62000000,60199.68000000,60428.01000000,1833.32107000
1726646400000,60428.01000000,60428.01000000,59348.88000000,59846.00000000,4528.13103000
1726660800000,59846.00000000,60160.00000000,59308.61000000,59429.18000000,5117.90940000
1726675200000,59429.19000000,61318.60000000,59174.80000000,60057.99000000,14645.02961000
1726689600000,60057.99000000,61786.24000000,59473.68000000,61759.99000000,5970.79251000
1726704000000,61759.98000000,62589.52000000,61555.00000000,62117.99000000,8344.29250000
1726718400000,62117.98000000,62179.99000000,61814.00000000,62093.99000000,3360.24822000
1726732800000,62094.00000000,62727.52000000,61888.18000000,62645.44000000,3685.66229000
1726747200000,62645.44000000,63500.84000000,62582.14000000,63154.04000000,10166.54165000
1726761600000,63154.03000000,63850.00000000,62940.00000000,63251.99000000,6054.84450000
1726776000000,63251.99000000,63254.14000000,62650.00000000,62947.99000000,2720.93692000
1726790400000,62948.00000000,63750.00000000,62606.00000000,63742.16000000,3621.81690000
1726804800000,63742.15000000,64133.32000000,63390.32000000,63524.80000000,6638.35306000
1726819200000,63524.81000000,63700.00000000,63090.43000000,63440.00000000,3743.75146000
1726833600000,63440.01000000,63544.37000000,62553.90000000,63153.99000000,6589.92794000
1726848000000,63153.99000000,63282.00000000,62350.00000000,62809.13000000,3393.59501000
1726862400000,62809.13000000,63300.00000000,62709.30000000,63201.05000000,1478.93357000
1726876800000,63201.05000000,63310.37000000,62816.47000000,62889.57000000,1640.98964000
1726891200000,62889.58000000,63134.00000000,62758.00000000,63091.02000000,1209.98344000
1726905600000,63091.02000000,63136.00000000,62966.01000000,63089.77000000,1035.11805000
1726920000000,63089.76000000,63306.00000000,63036.92000000,63167.98000000,1603.27919000
1726934400000,63167.98000000,63400.00000000,63086.00000000,63203.59000000,1787.68953000
1726948800000,63203.59000000,63559.90000000,63058.00000000,63348.96000000,1098.28623000
1726963200000,63348.97000000,63450.00000000,62830.01000000,63106.00000000,1863.74001000
1726977600000,63106.00000000,63200.00000000,62838.00000000,62936.00000000,967.92007000
1726992000000,62936.00000000,63034.99000000,62544.94000000,62784.00000000,1840.93484000
1727006400000,62784.00000000,62930.00000000,62429.16000000,62652.12000000,2271.34613000
1727020800000,62652.12000000,63229.50000000,62468.01000000,63160.00000000,2262.34879000
1727035200000,63160.00000000,64000.00000000,62357.93000000,63578.76000000,5035.90908000
1727049600000,63578.76000000,64745.88000000,62538.75000000,64354.00000000,7140.31946000
1727064000000,64354.00000000,64455.13000000,63400.00000000,63548.82000000,3443.68917000
1727078400000,63548.83000000,63710.00000000,63300.00000000,63435.04000000,2927.24270000
1727092800000,63435.03000000,63806.00000000,63059.93000000,63618.00000000,5683.13836000
1727107200000,63617.99000000,63825.96000000,63098.97000000,63298.56000000,3051.89312000
1727121600000,63300.01000000,63489.00000000,63088.69000000,63339.99000000,1831.77006000
1727136000000,63339.99000000,63401.21000000,62700.00000000,63124.00000000,4362.37127000
