timestamp,open,high,low,close,volume
1770620400000,70667.96000000,70830.38000000,70462.15000000,70796.84000000,160.31690000
1770621300000,70796.83000000,70902.51000000,70646.89000000,70722.16000000,178.51847000
1770622200000,70722.16000000,70743.91000000,70363.79000000,70432.07000000,342.90611000
1770623100000,70432.07000000,70527.31000000,70331.57000000,70422.59000000,334.06024000
1770624000000,70422.59000000,70608.83000000,70329.68000000,70532.47000000,230.14317000
1770624900000,70532.48000000,70550.58000000,70054.12000000,70087.20000000,308.31168000
1770625800000,70087.20000000,70106.00000000,69393.97000000,69807.99000000,867.11786000
1770626700000,69807.99000000,70017.00000000,69740.00000000,69873.99000000,189.58280000
1770627600000,69873.45000000,70116.00000000,69865.56000000,69866.85000000,247.15714000
1770628500000,69866.85000000,69966.67000000,69718.41000000,69895.38000000,256.89434000
1770629400000,69895.38000000,69976.66000000,69564.80000000,69691.70000000,252.41791000
1770630300000,69691.71000000,69809.97000000,69478.63000000,69630.35000000,355.79480000
1770631200000,69630.35000000,69730.38000000,69364.00000000,69540.01000000,393.26202000
1770632100000,69540.00000000,69557.63000000,68982.76000000,69038.84000000,507.38825000
1770633000000,69038.84000000,69040.70000000,68420.58000000,68622.43000000,743.68746000
1770633900000,68622.43000000,68850.00000000,68439.00000000,68727.88000000,408.35802000
1770634800000,68727.88000000,68980.76000000,68602.00000000,68614.44000000,384.03754000
1770635700000,68614.44000000,68952.15000000,68573.31000000,68866.09000000,233.26159000
1770636600000,68866.10000000,69022.89000000,68770.75000000,68914.94000000,212.13124000
1770637500000,68914.94000000,68986.97000000,68668.79000000,68928.72000000,519.35184000
1770638400000,68928.71000000,69262.91000000,68857.97000000,69182.59000000,332.16909000
1770639300000,69182.59000000,69182.59000000,68982.90000000,69042.50000000,242.25990000
1770640200000,69042.51000000,69236.65000000,68939.39000000,69151.50000000,237.70265000
1770641100000,69151.50000000,69192.00000000,69006.02000000,69147.01000000,197.31723000
1770642000000,69147.02000000,69299.99000000,68946.06000000,69250.60000000,262.69646000
1770642900000,69250.60000000,69289.06000000,69006.48000000,69270.00000000,161.01006000
1770643800000,69271.36000000,69271.36000000,69046.50000000,69074.59000000,192.20110000
1770644700000,69074.58000000,69157.13000000,68586.48000000,68594.57000000,413.95074000
1770645600000,68594.56000000,68831.56000000,68308.00000000,68608.87000000,464.74318000
1770646500000,68608.86000000,69050.68000000,68400.92000000,68994.70000000,560.65154000
1770647400000,68994.71000000,69755.59000000,68500.00000000,69176.47000000,956.97994000
1770648300000,69176.48000000,69450.00000000,68959.31000000,69272.00000000,533.87383000
1770649200000,69271.99000000,69884.82000000,69271.00000000,69483.18000000,868.37722000
1770650100000,69483.18000000,69670.09000000,68780.00000000,68921.04000000,626.68973000
1770651000000,68921.05000000,69653.23000000,68850.00000000,69542.29000000,490.18312000
1770651900000,69542.29000000,69629.43000000,69172.41000000,69563.37000000,322.98209000
1770652800000,69563.37000000,69720.00000000,69100.00000000,69205.01000000,330.44649000
1770653700000,69205.01000000,69628.00000000,69160.04000000,69604.00000000,221.45319000
1770654600000,69603.84000000,70029.80000000,69332.04000000,69942.02000000,411.11935000
1770655500000,69942.01000000,70428.48000000,69935.33000000,70093.01000000,771.75509000
1770656400000,70093.00000000,70342.50000000,69870.65000000,69926.39000000,316.90770000
1770657300000,69926.40000000,70215.68000000,69880.01000000,70049.31000000,311.47358000
1770658200000,70049.32000000,71000.00000000,69985.38000000,70853.59000000,999.08918000
1770659100000,70853.60000000,70938.14000000,70588.47000000,70612.29000000,578.96122000
1770660000000,70612.29000000,71012.00000000,70483.64000000,70540.86000000,529.60051000
1770660900000,70540.86000000,70590.00000000,70088.88000000,70284.03000000,436.29922000
1770661800000,70284.03000000,70503.86000000,70142.84000000,70437.75000000,258.42568000
1770662700000,70437.74000000,70546.80000000,70259.39000000,70418.68000000,195.30779000
1770663600000,70418.67000000,70530.46000000,70260.00000000,70484.79000000,160.12683000
1770664500000,70484.79000000,70700.00000000,70454.82000000,70676.47000000,211.49839000
1770665400000,70676.47000000,70961.90000000,70635.51000000,70928.68000000,190.13658000
1770666300000,70928.68000000,71075.31000000,70786.82000000,70957.01000000,316.60268000
1770667200000,70957.01000000,71126.00000000,70709.21000000,70987.99000000,284.94565000
1770668100000,70987.99000000,70999.99000000,70500.37000000,70550.15000000,255.20287000
1770669000000,70550.15000000,70834.25000000,70500.00000000,70832.00000000,220.86821000
1770669900000,70832.00000000,70871.59000000,70694.00000000,70738.71000000,187.91941000
1770670800000,70738.71000000,70807.75000000,70391.40000000,70412.02000000,179.03726000
1770671700000,70412.03000000,70502.71000000,70292.32000000,70318.51000000,232.10762000
1770672600000,70318.51000000,70363.48000000,69888.01000000,70011.42000000,354.50119000
1770673500000,70011.43000000,70500.00000000,69823.52000000,70400.00000000,337.18594000
1770674400000,70400.01000000,70719.70000000,70271.13000000,70645.28000000,228.15498000
1770675300000,70645.27000000,70645.27000000,70369.35000000,70442.52000000,143.68098000
1770676200000,70442.52000000,70555.00000000,70388.48000000,70513.55000000,88.85186000
1770677100000,70513.56000000,70602.45000000,70340.90000000,70372.96000000,70.26199000
1770678000000,70372.96000000,70572.84000000,70322.42000000,70442.67000000,96.93740000
1770678900000,70442.68000000,70500.00000000,70265.40000000,70287.55000000,117.93770000
1770679800000,70287.56000000,70441.02000000,70260.26000000,70391.49000000,78.22193000
1770680700000,70391.50000000,70394.68000000,70083.45000000,70138.00000000,113.10460000
1770681600000,70138.00000000,70255.36000000,69978.10000000,70184.80000000,139.14554000
1770682500000,70184.79000000,70200.00000000,69881.57000000,69987.99000000,162.45592000
1770683400000,69987.99000000,70112.00000000,69759.00000000,69784.23000000,164.83122000
1770684300000,69784.22000000,69910.52000000,69743.80000000,69827.33000000,102.70410000
1770685200000,69827.34000000,70151.49000000,69827.34000000,70115.99000000,130.67954000
1770686100000,70115.99000000,70463.34000000,70061.77000000,70366.01000000,178.77075000
1770687000000,70366.00000000,70527.59000000,70247.94000000,70465.60000000,96.61309000
1770687900000,70465.61000000,70489.82000000,70277.16000000,70486.82000000,138.62335000
1770688800000,70486.82000000,70486.82000000,70283.62000000,70355.14000000,110.05398000
1770689700000,70355.15000000,70452.83000000,70246.18000000,70248.51000000,96.75265000
1770690600000,70248.52000000,70299.44000000,70050.00000000,70051.69000000,119.49602000
1770691500000,70051.68000000,70191.63000000,69982.27000000,70102.89000000,117.70442000
1770692400000,70102.90000000,70166.22000000,69760.00000000,69844.00000000,147.89966000
1770693300000,69844.01000000,69907.93000000,69487.17000000,69543.94000000,361.12010000
1770694200000,69542.55000000,69542.55000000,69208.61000000,69378.34000000,259.16145000
1770695100000,69378.34000000,69600.00000000,69353.20000000,69511.83000000,143.61594000
1770696000000,69511.83000000,69863.81000000,69469.58000000,69792.98000000,192.37683000
1770696900000,69792.97000000,69823.67000000,69611.94000000,69823.66000000,110.48524000
1770697800000,69823.66000000,69868.74000000,69621.67000000,69696.90000000,84.22206000
1770698700000,69696.89000000,69906.50000000,69658.33000000,69831.62000000,102.34368000
1770699600000,69831.62000000,69864.00000000,69679.76000000,69807.35000000,103.71634000
1770700500000,69807.35000000,69807.35000000,69483.18000000,69526.80000000,127.69120000
1770701400000,69526.80000000,69705.24000000,69291.80000000,69366.68000000,143.39956000
1770702300000,69366.69000000,69476.00000000,69210.76000000,69447.64000000,191.11731000
1770703200000,69447.63000000,69499.90000000,69315.41000000,69340.46000000,140.93471000
1770704100000,69340.45000000,69398.00000000,69082.68000000,69209.14000000,204.69496000
1770705000000,69209.15000000,69297.15000000,69000.00000000,69031.10000000,338.50852000
1770705900000,69031.10000000,69058.00000000,68682.00000000,68921.35000000,556.88223000
1770706800000,68921.36000000,69218.64000000,68852.43000000,69119.69000000,277.72592000
1770707700000,69119.69000000,69151.50000000,68960.00000000,69091.99000000,146.92193000
1770708600000,69091.99000000,69142.47000000,68874.35000000,68958.00000000,168.46701000
1770709500000,68958.01000000,69053.81000000,68897.25000000,68919.66000000,244.00028000
1770710400000,68919.66000000,68996.69000000,68827.58000000,68838.00000000,208.42610000
1770711300000,68838.00000000,69102.90000000,68725.81000000,69034.96000000,197.10098000
1770712200000,69034.96000000,69137.97000000,68842.86000000,69071.19000000,169.83968000
1770713100000,69071.19000000,69226.16000000,69071.19000000,69142.00000000,154.66817000
1770714000000,69141.99000000,69363.34000000,69100.01000000,69263.60000000,273.37800000
1770714900000,69263.59000000,69417.70000000,69235.45000000,69280.54000000,214.39178000
1770715800000,69280.54000000,69290.49000000,69125.51000000,69204.20000000,159.60561000
1770716700000,69204.19000000,69254.90000000,68950.00000000,69151.50000000,397.60641000
1770717600000,69151.50000000,69229.41000000,69092.57000000,69149.92000000,199.30407000
1770718500000,69149.91000000,69258.52000000,69009.57000000,69176.09000000,206.30787000
1770719400000,69176.08000000,69176.08000000,68960.18000000,68997.79000000,127.93991000
1770720300000,68997.79000000,69055.66000000,68921.64000000,68921.68000000,152.75557000
1770721200000,68921.68000000,68997.23000000,68826.01000000,68904.68000000,203.80081000
1770722100000,68904.67000000,69007.97000000,68890.33000000,68931.12000000,218.57204000
1770723000000,68931.12000000,69085.79000000,68531.50000000,68666.41000000,302.39728000
1770723900000,68666.41000000,68800.00000000,68459.89000000,68535.01000000,403.36943000
1770724800000,68535.02000000,68828.92000000,68535.01000000,68636.48000000,248.71881000
1770725700000,68636.48000000,68784.24000000,68541.21000000,68761.34000000,216.66063000
1770726600000,68761.35000000,68855.35000000,68558.96000000,68569.80000000,136.82599000
1770727500000,68569.80000000,68688.60000000,68434.00000000,68610.12000000,219.32575000
1770728400000,68610.11000000,68616.64000000,68370.23000000,68587.96000000,320.64792000
1770729300000,68587.96000000,68808.64000000,68531.44000000,68734.86000000,172.82952000
1770730200000,68734.85000000,69063.00000000,68700.00000000,69029.99000000,281.97286000
1770731100000,69029.99000000,69143.60000000,68898.00000000,69027.95000000,216.99254000
1770732000000,69027.94000000,69210.60000000,68878.82000000,69133.82000000,195.36912000
1770732900000,69133.82000000,69591.20000000,69133.82000000,69225.14000000,591.05415000
1770733800000,69225.15000000,69434.31000000,67800.00000000,68229.65000000,1077.21244000
1770734700000,68234.89000000,68593.18000000,67920.74000000,68460.40000000,489.11529000
1770735600000,68460.40000000,69165.75000000,68300.90000000,68656.00000000,564.95119000
1770736500000,68656.00000000,69332.00000000,68549.23000000,69224.17000000,345.03235000
1770737400000,69224.17000000,69519.72000000,69182.59000000,69286.40000000,420.47427000
1770738300000,69286.39000000,69434.51000000,69112.14000000,69293.37000000,345.93081000
1770739200000,69293.37000000,69720.00000000,68945.23000000,69679.80000000,435.31408000
1770740100000,69679.81000000,69810.35000000,69261.48000000,69425.24000000,483.33032000
1770741000000,69425.24000000,69672.72000000,69271.31000000,69487.98000000,254.73597000
1770741900000,69487.98000000,69608.98000000,69301.00000000,69517.71000000,220.70056000
1770742800000,69517.71000000,69540.05000000,69309.35000000,69393.67000000,162.02704000
1770743700000,69393.68000000,69819.40000000,69350.81000000,69671.23000000,256.35737000
1770744600000,69671.23000000,69993.65000000,69628.66000000,69882.28000000,293.66416000
1770745500000,69882.28000000,69945.99000000,69706.95000000,69925.31000000,187.73573000
1770746400000,69925.31000000,69943.44000000,69563.53000000,69584.70000000,202.23107000
1770747300000,69584.71000000,69593.57000000,68880.00000000,68903.74000000,239.39090000
1770748200000,68903.73000000,69115.61000000,68775.54000000,68993.86000000,214.22712000
1770749100000,68993.86000000,69044.00000000,68604.63000000,68894.36000000,241.88317000
1770750000000,68894.36000000,68989.81000000,68690.32000000,68909.66000000,343.28456000
1770750900000,68909.66000000,68950.00000000,68720.01000000,68932.00000000,137.83200000
1770751800000,68931.99000000,69290.00000000,68889.21000000,69205.05000000,165.08632000
1770752700000,69205.05000000,69303.99000000,69001.64000000,69062.01000000,159.69818000
1770753600000,69062.00000000,69136.91000000,68738.63000000,68760.85000000,83.11870000
1770754500000,68760.86000000,68907.32000000,68712.26000000,68812.75000000,121.35421000
1770755400000,68812.75000000,68956.39000000,68629.47000000,68901.61000000,102.01743000
1770756300000,68901.61000000,68973.80000000,68707.97000000,68753.70000000,119.41593000
1770757200000,68753.69000000,69005.45000000,68730.72000000,68830.97000000,94.89563000
1770758100000,68830.97000000,68927.72000000,68651.90000000,68652.27000000,66.44899000
1770759000000,68652.28000000,68652.28000000,68362.00000000,68462.55000000,167.69644000
1770759900000,68462.55000000,68726.50000000,68462.54000000,68656.21000000,73.84658000
1770760800000,68656.22000000,68795.45000000,68600.00000000,68612.69000000,82.33935000
1770761700000,68612.69000000,68700.00000000,68566.80000000,68686.95000000,72.09085000
1770762600000,68686.94000000,68860.40000000,68651.90000000,68665.71000000,64.78910000
1770763500000,68665.71000000,68763.41000000,68636.01000000,68707.18000000,70.26283000
1770764400000,68707.18000000,68763.33000000,68595.53000000,68717.98000000,55.80544000
1770765300000,68717.95000000,68717.95000000,68506.20000000,68663.25000000,67.91659000
1770766200000,68663.25000000,68793.12000000,68590.00000000,68785.35000000,46.19294000
1770767100000,68785.35000000,68860.09000000,68726.40000000,68841.29000000,52.38830000
1770768000000,68841.28000000,68978.88000000,68784.47000000,68801.85000000,85.40068000
1770768900000,68801.84000000,69242.42000000,68797.58000000,69186.76000000,164.41771000
1770769800000,69186.76000000,69225.63000000,69018.75000000,69068.81000000,65.96456000
1770770700000,69068.80000000,69244.45000000,69036.06000000,69201.14000000,121.85810000
1770771600000,69201.14000000,69292.88000000,69089.12000000,69229.38000000,84.23330000
1770772500000,69229.38000000,69265.73000000,68931.90000000,68959.72000000,70.90710000
1770773400000,68959.54000000,69115.45000000,68914.73000000,69073.80000000,68.30921000
1770774300000,69073.80000000,69118.81000000,68945.27000000,68982.00000000,80.07734000
1770775200000,68982.00000000,69168.52000000,68941.40000000,68941.41000000,80.99006000
1770776100000,68941.41000000,69133.03000000,68941.41000000,69057.20000000,70.05265000
1770777000000,69057.21000000,69129.67000000,68869.82000000,68869.82000000,117.38539000
1770777900000,68869.82000000,68869.82000000,68603.40000000,68677.33000000,129.92536000
1770778800000,68677.34000000,68751.91000000,68521.17000000,68525.94000000,103.34071000
1770779700000,68525.94000000,68559.76000000,68011.11000000,68288.19000000,403.45007000
1770780600000,68288.18000000,68559.64000000,68262.00000000,68427.63000000,127.93351000
1770781500000,68427.63000000,68528.24000000,68175.96000000,68187.99000000,143.98869000
1770782400000,68188.00000000,68325.00000000,68021.69000000,68034.00000000,143.57517000
1770783300000,68034.01000000,68175.56000000,67556.00000000,67576.63000000,534.37079000
1770784200000,67576.63000000,67718.00000000,67368.00000000,67516.13000000,415.69979000
1770785100000,67516.12000000,67695.17000000,67385.88000000,67584.46000000,201.53906000
1770786000000,67584.47000000,67810.00000000,67575.00000000,67717.80000000,176.32739000
1770786900000,67717.80000000,67804.15000000,67546.90000000,67587.43000000,154.21162000
1770787800000,67587.42000000,67600.00000000,67397.86000000,67440.35000000,204.13185000
1770788700000,67440.35000000,67583.47000000,67400.00000000,67404.28000000,209.41446000
1770789600000,67404.28000000,67491.84000000,66819.24000000,66916.36000000,596.31006000
1770790500000,66916.36000000,67171.93000000,66699.15000000,67120.96000000,482.54080000
1770791400000,67120.97000000,67171.93000000,66850.70000000,66856.01000000,226.09664000
1770792300000,66856.01000000,66907.13000000,66557.99000000,66820.32000000,536.84925000
1770793200000,66819.84000000,66977.11000000,66652.27000000,66748.13000000,302.57184000
1770794100000,66748.14000000,67019.66000000,66672.33000000,67005.98000000,330.47507000
1770795000000,67005.99000000,67215.23000000,66953.61000000,67168.14000000,345.91730000
1770795900000,67168.14000000,67254.60000000,67024.56000000,67032.72000000,314.99498000
1770796800000,67032.71000000,67134.42000000,66846.12000000,66908.09000000,239.25290000
1770797700000,66908.08000000,67076.70000000,66808.55000000,66926.17000000,286.98240000
1770798600000,66926.16000000,67053.07000000,66793.93000000,67032.60000000,198.84858000
1770799500000,67032.60000000,67036.48000000,66911.13000000,66981.07000000,146.70095000
1770800400000,66981.08000000,67110.04000000,66825.03000000,66923.72000000,237.12145000
1770801300000,66923.71000000,66978.44000000,66800.01000000,66978.43000000,171.38615000
1770802200000,66978.43000000,67001.13000000,66800.00000000,66849.58000000,148.73783000
1770803100000,66849.58000000,66872.03000000,66716.02000000,66872.03000000,155.72497000
1770804000000,66872.03000000,66876.00000000,66648.63000000,66748.76000000,290.98143000
1770804900000,66748.76000000,66891.64000000,66671.81000000,66865.55000000,118.22178000
1770805800000,66865.56000000,66880.62000000,66565.08000000,66732.73000000,174.99139000
1770806700000,66732.74000000,66780.33000000,66369.49000000,66531.99000000,733.83447000
1770807600000,66531.99000000,66721.48000000,66500.84000000,66666.67000000,152.54888000
1770808500000,66666.66000000,67110.77000000,66640.00000000,66993.06000000,253.18692000
1770809400000,66993.06000000,67043.75000000,66879.62000000,66926.90000000,356.33194000
1770810300000,66926.90000000,67091.15000000,66926.89000000,67053.03000000,249.23527000
1770811200000,67053.03000000,67299.18000000,66959.67000000,67094.16000000,471.19479000
1770812100000,67094.16000000,67424.24000000,67084.75000000,67220.85000000,404.92345000
1770813000000,67220.85000000,67307.00000000,67018.15000000,67082.74000000,241.84083000
1770813900000,67082.74000000,67187.31000000,67020.26000000,67133.50000000,133.24704000
1770814800000,67133.51000000,67213.29000000,66840.36000000,66925.14000000,181.84944000
1770815700000,66925.15000000,67038.67000000,66799.58000000,67018.77000000,175.71320000
1770816600000,67022.57000000,67674.30000000,66882.13000000,67222.51000000,1250.51071000
1770817500000,67222.50000000,67565.87000000,66914.00000000,67454.49000000,365.83893000
1770818400000,67454.49000000,68834.34000000,67441.55000000,68458.52000000,964.80078000
1770819300000,68458.53000000,68582.42000000,67932.00000000,68000.00000000,645.83398000
1770820200000,68000.00000000,68245.60000000,66945.81000000,67236.43000000,722.45970000
1770821100000,67236.42000000,67426.94000000,66435.62000000,66584.60000000,794.04613000
1770822000000,66584.61000000,66799.58000000,65756.00000000,66113.25000000,1296.06878000
1770822900000,66113.25000000,66551.92000000,65900.00000000,66191.99000000,664.29365000
1770823800000,66191.99000000,66817.69000000,66112.54000000,66759.82000000,451.87410000
1770824700000,66759.83000000,66818.18000000,66062.00000000,66519.73000000,384.08863000
1770825600000,66519.72000000,67250.00000000,66415.09000000,67150.26000000,551.10188000
1770826500000,67150.26000000,67186.60000000,66573.35000000,66602.71000000,369.35915000
1770827400000,66602.70000000,66732.61000000,66118.40000000,66127.50000000,398.31287000
1770828300000,66127.50000000,66317.91000000,65952.00000000,66039.09000000,427.68466000
1770829200000,66039.08000000,66349.04000000,65876.00000000,66263.59000000,297.14521000
1770830100000,66263.59000000,66740.00000000,66263.59000000,66655.40000000,311.99127000
1770831000000,66655.41000000,66921.12000000,66544.01000000,66607.22000000,291.64333000
1770831900000,66607.22000000,66780.00000000,66443.21000000,66518.26000000,209.43104000
1770832800000,66518.26000000,66558.65000000,66150.66000000,66466.00000000,199.38102000
1770833700000,66466.00000000,67083.90000000,66456.00000000,66917.96000000,272.96003000
1770834600000,66917.96000000,67200.00000000,66796.11000000,67032.43000000,193.33966000
1770835500000,67032.43000000,67305.28000000,67003.30000000,67275.34000000,269.57444000
1770836400000,67275.34000000,67761.35000000,67105.79000000,67643.00000000,488.40468000
1770837300000,67643.00000000,67763.34000000,67419.17000000,67436.32000000,243.91575000
1770838200000,67436.32000000,67860.44000000,67304.28000000,67795.22000000,195.47921000
1770839100000,67795.21000000,67830.82000000,67530.00000000,67586.67000000,285.14730000
1770840000000,67586.66000000,67730.45000000,67431.81000000,67654.34000000,178.36977000
1770840900000,67654.33000000,67757.70000000,67213.29000000,67213.30000000,131.52510000
1770841800000,67213.29000000,67438.00000000,67190.00000000,67312.30000000,89.52326000
1770842700000,67312.30000000,67651.95000000,67296.90000000,67555.98000000,114.85247000
1770843600000,67555.98000000,67763.36000000,67417.04000000,67689.50000000,103.84467000
1770844500000,67689.51000000,68278.77000000,67582.43000000,68202.84000000,1152.40356000
1770845400000,68202.85000000,68369.77000000,67927.16000000,67998.02000000,446.02964000
1770846300000,67998.03000000,68021.12000000,67804.01000000,67811.17000000,121.26065000
1770847200000,67810.20000000,67872.68000000,67592.67000000,67667.93000000,133.03161000
1770848100000,67667.93000000,67781.50000000,67387.24000000,67569.57000000,151.79651000
1770849000000,67569.58000000,67696.86000000,67401.67000000,67647.55000000,151.91478000
1770849900000,67647.56000000,67713.90000000,67408.91000000,67433.14000000,104.89433000
1770850800000,67433.54000000,67563.77000000,67239.35000000,67330.55000000,134.27252000
1770851700000,67330.55000000,67399.94000000,66901.45000000,67016.62000000,310.43753000
1770852600000,67016.62000000,67131.12000000,66787.70000000,67083.68000000,146.36072000
1770853500000,67083.69000000,67110.93000000,66880.90000000,67082.52000000,86.92544000
1770854400000,67082.52000000,67381.67000000,67055.53000000,67365.56000000,185.47189000
1770855300000,67365.56000000,67510.00000000,67316.61000000,67392.13000000,145.97561000
1770856200000,67392.14000000,67700.00000000,67392.14000000,67584.00000000,123.03507000
1770857100000,67584.00000000,67680.00000000,67460.74000000,67460.75000000,127.27783000
1770858000000,67460.75000000,67700.00000000,67460.75000000,67699.99000000,102.80786000
1770858900000,67699.99000000,67876.29000000,67564.53000000,67809.42000000,166.65255000
1770859800000,67809.42000000,68047.48000000,67763.50000000,67859.75000000,169.79711000
1770860700000,67859.75000000,67882.98000000,67608.72000000,67699.01000000,110.00314000
1770861600000,67699.01000000,67800.00000000,67493.50000000,67498.17000000,161.59337000
1770862500000,67498.17000000,67578.00000000,67418.00000000,67532.40000000,117.26062000
1770863400000,67532.41000000,67756.81000000,67482.10000000,67740.49000000,161.41614000
1770864300000,67740.49000000,67753.79000000,67420.72000000,67439.14000000,113.89806000
1770865200000,67439.14000000,67559.81000000,67359.84000000,67491.57000000,113.63914000
1770866100000,67491.58000000,67524.60000000,67306.61000000,67382.85000000,113.59727000
1770867000000,67382.84000000,67539.28000000,67332.05000000,67496.49000000,84.06974000
1770867900000,67496.50000000,67596.00000000,67442.28000000,67580.99000000,104.47499000
1770868800000,67581.00000000,67682.69000000,67491.28000000,67577.41000000,138.39527000
1770869700000,67577.41000000,67591.70000000,67200.00000000,67212.01000000,173.97465000
1770870600000,67212.00000000,67297.00000000,67062.00000000,67235.48000000,168.81570000
1770871500000,67235.47000000,67280.29000000,67000.00000000,67018.40000000,107.19328000
1770872400000,67018.40000000,67209.99000000,66766.66000000,66805.97000000,213.60699000
1770873300000,66805.98000000,66986.00000000,66670.45000000,66877.01000000,166.70247000
1770874200000,66877.00000000,67132.32000000,66862.01000000,67086.86000000,175.18351000
1770875100000,67086.86000000,67157.25000000,67000.00000000,67141.93000000,128.43079000
1770876000000,67141.92000000,67249.99000000,67014.00000000,67118.00000000,130.53422000
1770876900000,67118.00000000,67355.93000000,67082.69000000,67290.90000000,248.30108000
1770877800000,67290.90000000,67350.00000000,67151.11000000,67237.31000000,225.70533000
1770878700000,67237.32000000,67303.64000000,67085.29000000,67125.57000000,226.20887000
1770879600000,67125.57000000,67156.79000000,66935.64000000,66992.17000000,146.75924000
1770880500000,66992.17000000,67330.00000000,66955.90000000,67228.20000000,174.03091000
1770881400000,67228.21000000,67254.48000000,67130.00000000,67130.01000000,144.51971000
1770882300000,67130.01000000,67240.46000000,67090.00000000,67217.72000000,142.23985000
1770883200000,67217.71000000,67344.00000000,67068.52000000,67248.48000000,436.61700000
1770884100000,67248.41000000,67248.41000000,66891.60000000,66932.00000000,154.07178000
1770885000000,66931.99000000,67071.23000000,66910.39000000,66973.75000000,107.44403000
1770885900000,66973.75000000,67152.84000000,66973.65000000,67141.15000000,84.89357000
1770886800000,67141.15000000,67228.00000000,67050.00000000,67187.84000000,97.30037000
1770887700000,67187.83000000,67325.57000000,67166.00000000,67296.77000000,118.33590000
1770888600000,67296.77000000,67471.52000000,67248.09000000,67422.01000000,182.22379000
1770889500000,67422.01000000,67699.10000000,67348.81000000,67550.47000000,246.16350000
1770890400000,67550.46000000,67632.27000000,67469.00000000,67570.54000000,169.60773000
1770891300000,67570.54000000,67612.02000000,67404.02000000,67609.81000000,97.17858000
1770892200000,67609.81000000,67850.00000000,67609.80000000,67665.99000000,234.95852000
1770893100000,67665.98000000,68026.60000000,67655.07000000,68014.01000000,341.66206000
1770894000000,68014.00000000,68117.19000000,67740.00000000,67906.74000000,455.79654000
1770894900000,67906.75000000,68258.09000000,67836.83000000,68208.64000000,373.85098000
1770895800000,68208.64000000,68299.00000000,68033.91000000,68084.79000000,370.57212000
1770896700000,68084.79000000,68177.07000000,68009.56000000,68076.01000000,197.37983000
1770897600000,68076.01000000,68162.02000000,67882.48000000,68022.23000000,224.72618000
1770898500000,68022.24000000,68049.70000000,67853.34000000,67985.12000000,227.78868000
1770899400000,67985.12000000,68002.47000000,67850.00000000,67872.87000000,163.84741000
1770900300000,67872.88000000,67946.00000000,67720.00000000,67865.31000000,212.89596000
1770901200000,67865.32000000,67885.36000000,67680.82000000,67844.30000000,259.36259000
1770902100000,67844.30000000,68071.42000000,67691.75000000,67769.42000000,288.99005000
1770903000000,67769.41000000,68170.75000000,67729.34000000,68116.83000000,162.17467000
1770903900000,68116.82000000,68397.50000000,67981.24000000,68376.58000000,249.80260000
1770904800000,68376.58000000,68410.52000000,67843.95000000,68016.28000000,230.65424000
1770905700000,68016.27000000,68084.48000000,67873.56000000,67994.90000000,144.86434000
1770906600000,67994.89000000,68283.38000000,67601.38000000,67625.01000000,475.08633000
1770907500000,67625.01000000,67993.58000000,67493.78000000,67577.02000000,581.14672000
1770908400000,67577.02000000,67814.92000000,67014.98000000,67415.99000000,587.76600000
1770909300000,67416.00000000,67956.40000000,67359.59000000,67855.14000000,323.31594000
1770910200000,67855.13000000,68000.00000000,67250.00000000,67400.41000000,350.82346000
1770911100000,67400.42000000,67543.33000000,67065.85000000,67134.74000000,340.99699000
1770912000000,67134.74000000,67232.04000000,66500.00000000,66558.41000000,830.22846000
1770912900000,66558.41000000,66799.58000000,66000.01000000,66065.40000000,848.81005000
1770913800000,66065.41000000,66540.25000000,65948.83000000,66271.97000000,623.03898000
1770914700000,66271.98000000,66371.81000000,65556.00000000,65863.37000000,891.03822000
1770915600000,65863.38000000,65999.11000000,65563.79000000,65740.35000000,635.02340000
1770916500000,65740.35000000,66265.06000000,65613.68000000,66129.25000000,515.32046000
1770917400000,66129.25000000,66200.88000000,65834.97000000,65978.00000000,347.30434000
1770918300000,65978.00000000,66047.99000000,65374.56000000,65413.99000000,602.91203000
1770919200000,65414.00000000,65800.00000000,65374.56000000,65694.08000000,347.62980000
1770920100000,65694.08000000,65718.00000000,65235.00000000,65304.01000000,490.47449000
1770921000000,65304.01000000,65534.50000000,65118.00000000,65432.80000000,514.04667000
1770921900000,65432.80000000,65700.00000000,65412.56000000,65590.95000000,260.01943000
1770922800000,65590.95000000,65750.00000000,65274.40000000,65448.57000000,299.61211000
1770923700000,65448.56000000,65965.37000000,65408.84000000,65780.00000000,244.62289000
1770924600000,65780.00000000,66102.97000000,65758.00000000,65979.20000000,185.02747000
1770925500000,65979.21000000,66117.51000000,65781.70000000,65788.36000000,298.37402000
1770926400000,65788.36000000,66042.24000000,65606.06000000,65704.14000000,220.40578000
1770927300000,65704.14000000,65806.91000000,65486.00000000,65505.70000000,152.57663000
1770928200000,65505.70000000,65685.31000000,65395.46000000,65546.68000000,218.68823000
1770929100000,65546.68000000,65586.15000000,65215.06000000,65428.56000000,302.49519000
1770930000000,65428.24000000,65672.65000000,65428.24000000,65669.89000000,133.98228000
1770930900000,65669.88000000,65806.94000000,65484.23000000,65603.49000000,224.69261000
1770931800000,65603.50000000,65848.31000000,65576.05000000,65817.22000000,145.36733000
1770932700000,65817.22000000,65900.00000000,65731.05000000,65849.87000000,86.22201000
1770933600000,65849.86000000,65881.21000000,65748.80000000,65816.45000000,175.70766000
1770934500000,65816.46000000,65959.82000000,65643.34000000,65959.81000000,111.94506000
1770935400000,65959.81000000,66200.00000000,65887.06000000,66199.99000000,150.78296000
1770936300000,66199.99000000,66399.94000000,66186.75000000,66288.00000000,204.38565000
1770937200000,66288.01000000,66477.35000000,66200.00000000,66313.25000000,254.03566000
1770938100000,66313.25000000,66488.90000000,66263.89000000,66404.21000000,144.73329000
1770939000000,66404.21000000,66484.32000000,66204.12000000,66247.44000000,163.56872000
1770939900000,66246.00000000,66311.70000000,66156.47000000,66272.17000000,344.80023000
1770940800000,66272.17000000,66527.09000000,66163.05000000,66374.88000000,232.42875000
1770941700000,66374.88000000,66382.01000000,66008.39000000,66026.92000000,230.47008000
1770942600000,66026.93000000,66144.26000000,65900.00000000,65952.16000000,171.85064000
1770943500000,65952.16000000,66069.01000000,65872.46000000,65918.60000000,130.64049000
1770944400000,65918.61000000,66270.60000000,65918.61000000,66251.12000000,162.95151000
1770945300000,66251.12000000,66296.64000000,66086.41000000,66225.43000000,170.24117000
1770946200000,66225.43000000,66511.39000000,66225.43000000,66420.00000000,235.18365000
1770947100000,66420.01000000,66619.90000000,66330.00000000,66454.95000000,203.20911000
1770948000000,66454.95000000,66577.15000000,66384.00000000,66565.50000000,103.23091000
1770948900000,66565.49000000,66655.77000000,66388.16000000,66538.05000000,172.06662000
1770949800000,66538.06000000,66636.73000000,66465.55000000,66592.23000000,90.35007000
1770950700000,66592.23000000,66759.61000000,66546.79000000,66663.08000000,110.80581000
1770951600000,66663.08000000,66779.93000000,66503.04000000,66522.24000000,124.93683000
1770952500000,66522.24000000,66679.00000000,66483.40000000,66679.00000000,91.23615000
1770953400000,66678.99000000,66814.00000000,66624.07000000,66643.69000000,106.36410000
1770954300000,66643.69000000,66679.00000000,66462.40000000,66553.08000000,247.42627000
1770955200000,66553.09000000,66600.00000000,66435.98000000,66537.60000000,128.77575000
1770956100000,66537.60000000,66671.62000000,66450.00000000,66450.01000000,158.05547000
1770957000000,66450.01000000,66478.30000000,66349.69000000,66365.87000000,90.00273000
1770957900000,66365.87000000,66447.17000000,66308.48000000,66329.22000000,85.31620000
1770958800000,66329.22000000,66454.88000000,66224.03000000,66246.87000000,120.08044000
1770959700000,66246.88000000,66400.00000000,66232.28000000,66324.94000000,100.57887000
1770960600000,66324.80000000,66476.80000000,66306.17000000,66470.06000000,102.71083000
1770961500000,66470.06000000,66502.27000000,66175.79000000,66175.79000000,160.88036000
1770962400000,66175.79000000,66308.70000000,66163.08000000,66233.33000000,170.37165000
1770963300000,66233.33000000,66300.00000000,66037.99000000,66123.99000000,176.84640000
1770964200000,66123.99000000,66125.71000000,66002.98000000,66086.00000000,139.03222000
1770965100000,66086.00000000,66397.86000000,66050.25000000,66359.28000000,127.71586000
1770966000000,66359.28000000,66568.47000000,66337.11000000,66528.27000000,175.39584000
1770966900000,66528.27000000,66566.00000000,66417.52000000,66514.43000000,170.83752000
1770967800000,66514.42000000,66514.42000000,66127.51000000,66127.51000000,242.76586000
1770968700000,66127.51000000,66322.50000000,66050.21000000,66208.96000000,279.05394000
1770969600000,66208.96000000,66491.84000000,66191.52000000,66260.28000000,130.25922000
1770970500000,66260.29000000,66442.62000000,66210.83000000,66414.04000000,134.77979000
1770971400000,66414.03000000,66539.16000000,66371.41000000,66504.63000000,148.72846000
1770972300000,66504.62000000,66747.38000000,66504.62000000,66699.96000000,189.25909000
1770973200000,66699.96000000,66850.85000000,66612.86000000,66684.60000000,146.39721000
1770974100000,66684.59000000,66836.78000000,66627.99000000,66820.37000000,140.68851000
1770975000000,66820.37000000,66937.79000000,66769.32000000,66858.77000000,148.59754000
1770975900000,66858.77000000,67062.93000000,66858.76000000,66959.71000000,157.25143000
1770976800000,66959.72000000,66965.74000000,66824.80000000,66905.43000000,137.81054000
1770977700000,66905.43000000,67099.97000000,66800.00000000,66911.70000000,150.04182000
1770978600000,66911.70000000,67116.00000000,66840.39000000,67029.95000000,128.48268000
1770979500000,67029.95000000,67095.63000000,66970.73000000,66977.66000000,100.57785000
1770980400000,66977.66000000,67031.03000000,66847.26000000,66889.36000000,82.85725000
1770981300000,66889.35000000,67013.73000000,66867.98000000,66982.60000000,103.71372000
1770982200000,66982.60000000,67025.00000000,66783.38000000,66997.10000000,144.76017000
1770983100000,66997.10000000,67226.66000000,66965.46000000,67171.42000000,157.37951000
1770984000000,67171.41000000,67177.20000000,66941.86000000,66985.84000000,133.18126000
1770984900000,66985.84000000,67124.00000000,66918.38000000,67097.17000000,91.44808000
1770985800000,67097.17000000,67133.99000000,67034.24000000,67094.03000000,81.91847000
1770986700000,67094.03000000,67212.28000000,67006.23000000,67084.00000000,98.81207000
1770987600000,67084.01000000,67187.47000000,66938.00000000,66969.46000000,184.32782000
1770988500000,66969.47000000,67420.00000000,66969.46000000,67337.21000000,381.32817000
1770989400000,67337.21000000,67615.34000000,67207.51000000,67301.39000000,748.41738000
1770990300000,67301.28000000,67420.38000000,67105.48000000,67274.15000000,309.99202000
1770991200000,67274.14000000,67310.61000000,67130.00000000,67164.48000000,136.78741000
1770992100000,67164.48000000,67399.99000000,67164.47000000,67311.84000000,164.36609000
1770993000000,67311.85000000,67600.00000000,66867.47000000,67331.47000000,618.59947000
1770993900000,67331.48000000,68028.45000000,67331.48000000,67733.51000000,804.28547000
1770994800000,67733.51000000,68598.00000000,67692.00000000,68382.00000000,1001.31756000
1770995700000,68382.01000000,68899.93000000,68129.74000000,68895.88000000,593.58000000
1770996600000,68895.88000000,69309.80000000,68718.02000000,68730.01000000,861.54661000
1770997500000,68730.01000000,68800.00000000,68379.90000000,68692.12000000,676.64303000
1770998400000,68692.12000000,69163.97000000,68540.83000000,69052.64000000,587.74205000
1770999300000,69052.64000000,69165.11000000,68831.37000000,69079.39000000,463.05776000
1771000200000,69079.39000000,69482.97000000,68983.29000000,69244.96000000,468.53594000
1771001100000,69244.96000000,69259.70000000,68910.07000000,68954.69000000,256.35123000
1771002000000,68954.69000000,69049.75000000,68636.36000000,68977.68000000,247.01141000
1771002900000,68977.67000000,69150.49000000,68864.87000000,68975.97000000,265.58248000
1771003800000,68975.97000000,69231.10000000,68964.50000000,69126.80000000,184.66064000
1771004700000,69126.81000000,69250.25000000,69018.33000000,69047.99000000,224.04223000
1771005600000,69048.00000000,69220.00000000,68903.27000000,69026.03000000,312.32001000
1771006500000,69026.02000000,69158.79000000,68931.39000000,69069.99000000,176.26610000
1771007400000,69070.00000000,69296.65000000,69016.00000000,69272.01000000,239.31040000
1771008300000,69272.01000000,69411.44000000,69094.00000000,69129.99000000,335.69682000
1771009200000,69129.99000000,69194.73000000,68967.50000000,69165.83000000,200.92493000
1771010100000,69165.83000000,69236.33000000,69005.90000000,69008.00000000,137.13712000
1771011000000,69008.00000000,69126.28000000,68918.79000000,68933.80000000,139.21029000
1771011900000,68933.80000000,69085.62000000,68931.90000000,68938.91000000,82.77306000
1771012800000,68938.91000000,68973.35000000,68805.80000000,68805.80000000,124.11760000
1771013700000,68805.81000000,68917.94000000,68718.20000000,68828.52000000,137.61033000
1771014600000,68828.52000000,68959.99000000,68730.59000000,68846.00000000,143.23076000
1771015500000,68846.00000000,68870.38000000,68683.32000000,68777.12000000,150.36981000
1771016400000,68777.13000000,69034.70000000,68731.75000000,69001.15000000,161.24621000
1771017300000,69001.16000000,69079.40000000,68886.40000000,68903.11000000,115.81343000
1771018200000,68903.11000000,68936.48000000,68806.00000000,68936.48000000,75.52243000
1771019100000,68936.82000000,68939.63000000,68800.40000000,68902.48000000,110.83743000
1771020000000,68902.48000000,68991.61000000,68726.40000000,68737.24000000,153.64688000
1771020900000,68737.25000000,68886.05000000,68737.24000000,68879.60000000,98.52212000
1771021800000,68879.60000000,68903.20000000,68792.97000000,68888.01000000,72.95529000
1771022700000,68888.00000000,69000.00000000,68826.00000000,68995.28000000,218.91627000
1771023600000,68995.29000000,69000.00000000,68841.76000000,68924.24000000,83.04143000
1771024500000,68924.24000000,68991.25000000,68884.10000000,68906.01000000,58.03544000
1771025400000,68906.01000000,68982.29000000,68829.20000000,68850.00000000,47.73694000
1771026300000,68851.26000000,68946.00000000,68829.20000000,68853.96000000,72.37691000
1771027200000,68853.97000000,68899.18000000,68784.33000000,68885.45000000,95.90624000
1771028100000,68885.44000000,68903.20000000,68768.56000000,68903.19000000,65.94302000
1771029000000,68903.19000000,69034.70000000,68886.40000000,69026.69000000,101.33707000
1771029900000,69026.68000000,69137.50000000,68985.09000000,69090.24000000,183.91765000
1771030800000,69090.25000000,69098.00000000,68969.83000000,69092.54000000,124.49500000
1771031700000,69092.53000000,69108.80000000,68976.08000000,69052.53000000,112.75377000
1771032600000,69052.53000000,69057.26000000,68964.50000000,68980.73000000,71.59044000
1771033500000,68980.74000000,69026.65000000,68921.54000000,68964.51000000,35.85080000
1771034400000,68964.51000000,69006.34000000,68916.00000000,68983.30000000,67.30525000
1771035300000,68983.30000000,68994.23000000,68869.61000000,68907.84000000,73.79552000
1771036200000,68907.84000000,68954.00000000,68865.13000000,68951.99000000,50.97524000
1771037100000,68952.00000000,68953.99000000,68845.60000000,68884.21000000,69.66633000
1771038000000,68884.21000000,68918.70000000,68852.00000000,68911.00000000,66.01003000
1771038900000,68911.00000000,68954.78000000,68860.00000000,68937.99000000,79.86148000
1771039800000,68937.99000000,69000.00000000,68923.84000000,68950.46000000,45.88515000
1771040700000,68950.47000000,69027.14000000,68900.00000000,68981.99000000,46.63704000
1771041600000,68982.00000000,68995.11000000,68869.55000000,68891.98000000,94.73904000
1771042500000,68891.99000000,68926.73000000,68869.81000000,68907.99000000,104.23427000
1771043400000,68907.98000000,68918.92000000,68826.80000000,68852.00000000,180.47686000
1771044300000,68852.00000000,68852.00000000,68789.59000000,68790.00000000,110.33574000
1771045200000,68790.01000000,68891.17000000,68762.30000000,68862.04000000,90.76247000
1771046100000,68862.04000000,68910.00000000,68860.87000000,68876.16000000,59.69270000
1771047000000,68876.15000000,68876.20000000,68792.62000000,68829.20000000,71.02207000
1771047900000,68829.20000000,68850.93000000,68760.00000000,68773.42000000,86.78306000
1771048800000,68773.41000000,68804.05000000,68730.13000000,68783.13000000,70.51570000
1771049700000,68783.13000000,68893.99000000,68783.12000000,68893.98000000,210.28989000
1771050600000,68893.98000000,68914.14000000,68852.51000000,68875.77000000,125.64066000
1771051500000,68875.77000000,68936.98000000,68862.49000000,68936.98000000,63.99132000
1771052400000,68936.98000000,68950.00000000,68900.11000000,68900.12000000,91.65447000
1771053300000,68900.11000000,68964.59000000,68884.56000000,68956.92000000,102.69127000
1771054200000,68956.92000000,69190.94000000,68944.03000000,69181.60000000,346.77608000
1771055100000,69181.60000000,69343.00000000,69130.79000000,69219.26000000,378.76819000
1771056000000,69219.27000000,69780.00000000,69218.71000000,69567.06000000,555.93194000
1771056900000,69567.05000000,69651.19000000,69465.67000000,69495.50000000,142.24649000
1771057800000,69495.50000000,69735.61000000,69470.94000000,69663.12000000,200.84665000
1771058700000,69663.12000000,69870.99000000,69663.12000000,69746.20000000,448.77835000
1771059600000,69746.20000000,69900.00000000,69689.00000000,69716.33000000,231.06354000
1771060500000,69716.32000000,69766.33000000,69566.78000000,69595.11000000,124.36330000
1771061400000,69595.10000000,69769.85000000,69595.10000000,69726.97000000,136.73796000
1771062300000,69726.96000000,69768.15000000,69694.10000000,69714.93000000,63.19905000
1771063200000,69714.94000000,69714.94000000,69590.00000000,69651.11000000,109.99129000
1771064100000,69651.11000000,69664.42000000,69585.15000000,69619.98000000,51.59535000
1771065000000,69619.98000000,69673.67000000,69607.80000000,69607.81000000,39.59589000
1771065900000,69607.80000000,69683.80000000,69607.80000000,69671.86000000,56.07280000
1771066800000,69671.86000000,70164.90000000,69671.86000000,70097.89000000,320.53616000
1771067700000,70097.88000000,70488.00000000,69983.55000000,70194.00000000,404.35777000
1771068600000,70194.00000000,70312.60000000,70062.10000000,70310.59000000,297.59614000
1771069500000,70310.58000000,70560.01000000,70226.71000000,70505.74000000,348.06441000
1771070400000,70505.74000000,70533.67000000,70360.58000000,70488.47000000,228.34078000
1771071300000,70488.48000000,70488.48000000,70300.00000000,70356.38000000,172.74348000
1771072200000,70356.38000000,70369.50000000,70012.36000000,70087.52000000,323.38333000
1771073100000,70087.52000000,70113.16000000,69600.00000000,69640.20000000,553.72815000
1771074000000,69640.20000000,69735.46000000,69398.22000000,69713.23000000,316.88343000
1771074900000,69713.23000000,69771.91000000,69064.60000000,69270.67000000,1703.94553000
1771075800000,69270.68000000,69577.21000000,69263.99000000,69447.99000000,527.22290000
1771076700000,69448.00000000,69584.80000000,69280.00000000,69460.00000000,845.70784000
1771077600000,69460.00000000,69500.00000000,69208.09000000,69460.10000000,904.73738000
1771078500000,69460.09000000,69633.00000000,69378.67000000,69455.60000000,422.26905000
1771079400000,69455.61000000,69673.60000000,69455.60000000,69673.60000000,188.14292000
1771080300000,69673.60000000,69856.70000000,69589.00000000,69701.66000000,164.86325000
1771081200000,69701.66000000,69798.12000000,69616.18000000,69616.19000000,149.79464000
1771082100000,69616.18000000,70048.39000000,69560.00000000,69874.24000000,345.63120000
1771083000000,69874.25000000,69959.40000000,69772.30000000,69867.84000000,126.64144000
1771083900000,69867.83000000,69897.15000000,69722.38000000,69778.28000000,129.58592000
1771084800000,69778.28000000,69815.00000000,69648.00000000,69687.47000000,229.03219000
1771085700000,69687.47000000,69687.48000000,69326.71000000,69424.93000000,267.36880000
1771086600000,69424.92000000,69661.87000000,69283.02000000,69651.11000000,272.33820000
1771087500000,69651.11000000,69791.61000000,69539.26000000,69755.10000000,237.93984000
1771088400000,69755.10000000,69861.00000000,69609.00000000,69860.98000000,281.54993000
1771089300000,69860.99000000,69930.90000000,69758.00000000,69819.16000000,208.40356000
1771090200000,69819.17000000,69881.34000000,69663.46000000,69784.00000000,143.80161000
1771091100000,69784.00000000,69813.89000000,69683.70000000,69739.38000000,52.11891000
1771092000000,69739.38000000,69856.70000000,69672.55000000,69764.00000000,91.63142000
1771092900000,69764.00000000,69838.00000000,69712.78000000,69742.19000000,41.38709000
1771093800000,69742.19000000,69808.95000000,69683.70000000,69731.52000000,84.39882000
1771094700000,69731.53000000,69792.00000000,69707.00000000,69772.31000000,53.00315000
1771095600000,69772.30000000,69856.70000000,69716.05000000,69755.00000000,72.83959000
1771096500000,69755.00000000,69877.58000000,69619.52000000,69840.14000000,109.08578000
1771097400000,69840.13000000,69900.00000000,69806.02000000,69888.92000000,57.32825000
1771098300000,69888.92000000,69920.60000000,69822.00000000,69873.99000000,93.05344000
1771099200000,69873.99000000,69992.45000000,69805.38000000,69828.00000000,130.50052000
1771100100000,69828.00000000,69912.72000000,69732.75000000,69830.88000000,115.48946000
1771101000000,69830.88000000,69975.53000000,69818.01000000,69954.46000000,96.55180000
1771101900000,69954.45000000,70028.59000000,69949.50000000,70023.09000000,91.59305000
1771102800000,70023.10000000,70250.01000000,70023.09000000,70211.82000000,232.84271000
1771103700000,70211.82000000,70250.46000000,69985.94000000,69997.74000000,176.11434000
1771104600000,69997.74000000,70023.95000000,69668.05000000,69860.90000000,185.96519000
1771105500000,69860.90000000,69935.87000000,69802.38000000,69935.86000000,45.97360000
1771106400000,69935.86000000,70038.20000000,69845.96000000,70006.81000000,63.02073000
1771107300000,70006.80000000,70006.81000000,69781.00000000,69940.72000000,66.68921000
1771108200000,69940.72000000,70033.70000000,69922.00000000,69988.09000000,77.23415000
1771109100000,69988.09000000,70100.00000000,69950.00000000,69959.75000000,85.96330000
1771110000000,69959.74000000,70008.00000000,69905.42000000,69977.27000000,63.38141000
1771110900000,69977.26000000,70020.00000000,69723.18000000,69828.09000000,157.85992000
1771111800000,69828.10000000,69861.00000000,69774.92000000,69816.03000000,59.00255000
1771112700000,69816.04000000,69865.38000000,69772.87000000,69822.95000000,56.41926000
1771113600000,69822.94000000,69864.74000000,69670.58000000,69681.93000000,70.07560000
1771114500000,69681.93000000,69772.40000000,69644.75000000,69695.77000000,96.17515000
1771115400000,69695.76000000,69758.00000000,69628.00000000,69634.01000000,68.98048000
1771116300000,69634.00000000,69798.40000000,69600.00000000,69777.07000000,57.04652000
1771117200000,69777.06000000,69902.70000000,69753.80000000,69902.69000000,51.07357000
1771118100000,69902.69000000,69902.69000000,69450.01000000,69529.34000000,161.59554000
1771119000000,69529.34000000,69670.00000000,69350.00000000,69407.22000000,125.92550000
1771119900000,69407.22000000,69725.40000000,69393.69000000,69717.65000000,61.60578000
1771120800000,69717.65000000,69753.90000000,69477.42000000,69548.41000000,91.70693000
1771121700000,69548.41000000,69622.60000000,69408.00000000,69475.48000000,112.25816000
1771122600000,69475.48000000,69564.40000000,69341.27000000,69510.71000000,115.70104000
1771123500000,69510.71000000,69576.00000000,69437.85000000,69480.01000000,55.55332000
1771124400000,69480.00000000,69595.19000000,69466.92000000,69466.92000000,58.30817000
1771125300000,69466.93000000,69586.47000000,69445.60000000,69445.60000000,58.49869000
1771126200000,69445.61000000,69539.58000000,69251.50000000,69360.11000000,246.44502000
1771127100000,69360.12000000,69990.02000000,69360.11000000,69954.50000000,333.99182000
1771128000000,69954.50000000,70450.80000000,69459.35000000,70424.50000000,1693.06104000
1771128900000,70424.51000000,70518.57000000,70172.29000000,70198.17000000,261.19796000
1771129800000,70198.18000000,70370.40000000,70190.00000000,70225.61000000,176.87583000
1771130700000,70225.62000000,70342.00000000,70113.96000000,70183.99000000,144.03330000
1771131600000,70184.00000000,70295.99000000,70132.54000000,70205.38000000,108.88262000
1771132500000,70205.38000000,70472.43000000,70170.00000000,70331.18000000,250.86639000
1771133400000,70331.18000000,70422.75000000,70274.29000000,70357.27000000,101.97681000
1771134300000,70357.28000000,70444.70000000,70267.60000000,70267.61000000,78.73201000
1771135200000,70267.60000000,70286.88000000,70184.09000000,70231.50000000,98.70455000
1771136100000,70231.50000000,70531.00000000,70200.45000000,70375.97000000,188.21409000
1771137000000,70375.97000000,70540.99000000,70361.18000000,70370.30000000,132.21488000
1771137900000,70370.31000000,70423.86000000,70292.97000000,70405.12000000,86.58199000
1771138800000,70405.12000000,70439.76000000,70307.11000000,70423.67000000,118.88808000
1771139700000,70423.67000000,70880.44000000,70400.00000000,70674.99000000,656.34957000
1771140600000,70675.00000000,70926.42000000,70595.40000000,70741.62000000,413.00452000
1771141500000,70741.62000000,70828.43000000,70690.01000000,70828.42000000,237.56058000
1771142400000,70828.43000000,70983.00000000,70732.01000000,70741.82000000,302.98276000
1771143300000,70741.82000000,70831.27000000,70568.01000000,70568.02000000,168.12805000
1771144200000,70568.01000000,70608.80000000,70182.31000000,70330.24000000,354.54314000
1771145100000,70330.23000000,70454.70000000,70297.38000000,70446.52000000,72.72433000
1771146000000,70446.52000000,70668.00000000,70388.30000000,70582.01000000,119.87959000
1771146900000,70582.02000000,70628.82000000,70513.47000000,70628.82000000,60.23295000
1771147800000,70628.81000000,70631.85000000,70451.26000000,70504.23000000,84.94443000
1771148700000,70504.23000000,70520.10000000,70370.30000000,70419.11000000,69.93429000
1771149600000,70419.12000000,70461.92000000,70208.16000000,70304.38000000,129.33317000
1771150500000,70304.37000000,70453.54000000,70226.55000000,70433.43000000,98.00666000
1771151400000,70433.42000000,70456.86000000,70300.00000000,70456.86000000,81.87600000
1771152300000,70456.85000000,70523.94000000,70414.04000000,70427.02000000,73.03320000
1771153200000,70427.02000000,70543.14000000,70410.00000000,70419.84000000,49.53656000
1771154100000,70419.84000000,70477.86000000,70350.00000000,70384.09000000,67.76667000
1771155000000,70384.09000000,70387.46000000,70284.59000000,70362.80000000,175.84840000
1771155900000,70362.79000000,70391.88000000,70267.60000000,70295.22000000,164.48398000
1771156800000,70295.22000000,70322.29000000,70164.80000000,70224.74000000,217.29447000
1771157700000,70224.74000000,70393.97000000,70024.48000000,70370.31000000,185.64596000
1771158600000,70370.30000000,70418.48000000,70154.24000000,70260.91000000,80.57465000
1771159500000,70260.91000000,70260.92000000,69309.87000000,69314.21000000,543.83080000
1771160400000,69314.22000000,69554.99000000,69296.26000000,69511.10000000,480.46968000
1771161300000,69511.10000000,69620.06000000,69015.11000000,69056.85000000,419.25608000
1771162200000,69056.86000000,69169.82000000,68878.36000000,68925.99000000,590.70609000
1771163100000,68926.00000000,69069.95000000,68772.20000000,68930.00000000,258.86509000
1771164000000,68930.00000000,69119.91000000,68845.72000000,68957.98000000,279.79818000
1771164900000,68957.98000000,69094.00000000,68956.45000000,69088.50000000,99.66548000
1771165800000,69088.50000000,69219.71000000,68980.00000000,69167.88000000,140.34812000
1771166700000,69167.88000000,69194.00000000,69050.00000000,69170.51000000,109.51399000
1771167600000,69170.51000000,69255.60000000,69109.58000000,69212.57000000,111.97909000
1771168500000,69212.57000000,69212.57000000,68888.00000000,68894.50000000,132.75240000
1771169400000,68894.49000000,69087.31000000,68888.03000000,69085.97000000,122.70966000
1771170300000,69085.97000000,69108.69000000,68958.35000000,69099.99000000,79.15550000
1771171200000,69100.00000000,69100.00000000,68658.00000000,68987.81000000,723.00280000
1771172100000,68987.81000000,69065.50000000,68760.62000000,69065.49000000,533.52631000
1771173000000,69065.49000000,69096.43000000,68922.89000000,69030.69000000,127.88035000
1771173900000,69030.70000000,69084.21000000,69006.26000000,69017.75000000,57.68065000
1771174800000,69017.76000000,69085.22000000,68956.60000000,69069.02000000,78.78879000
1771175700000,69069.01000000,69069.01000000,68915.00000000,68985.99000000,61.49677000
1771176600000,68985.99000000,69061.39000000,68823.05000000,68823.06000000,217.07519000
1771177500000,68823.05000000,68823.05000000,68203.60000000,68641.21000000,837.35143000
1771178400000,68641.21000000,68748.88000000,68440.70000000,68692.80000000,177.54475000
1771179300000,68692.80000000,68800.00000000,68559.92000000,68559.92000000,72.13409000
1771180200000,68559.92000000,68717.60000000,68274.31000000,68700.05000000,1122.16648000
1771181100000,68700.06000000,68709.68000000,68348.14000000,68451.44000000,1323.52111000
1771182000000,68451.45000000,68527.65000000,68000.00000000,68177.22000000,2231.76991000
1771182900000,68177.22000000,68560.84000000,68102.67000000,68549.39000000,327.33198000
1771183800000,68549.40000000,68551.40000000,68208.52000000,68246.40000000,128.23506000
1771184700000,68246.41000000,68443.96000000,68239.84000000,68286.63000000,120.01668000
1771185600000,68286.64000000,68440.14000000,68120.00000000,68418.58000000,149.50535000
1771186500000,68418.57000000,68490.00000000,68294.52000000,68484.94000000,83.17003000
1771187400000,68484.95000000,68560.22000000,68422.85000000,68509.62000000,108.35193000
1771188300000,68509.62000000,68509.62000000,68396.78000000,68450.00000000,58.91548000
1771189200000,68450.00000000,68770.30000000,68450.00000000,68739.03000000,112.54380000
1771190100000,68739.03000000,68813.43000000,68661.46000000,68789.99000000,91.70709000
1771191000000,68789.99000000,68950.16000000,68730.75000000,68735.73000000,103.34114000
1771191900000,68735.73000000,68933.64000000,68711.00000000,68852.01000000,99.96757000
1771192800000,68852.01000000,68959.78000000,68801.69000000,68801.96000000,81.76150000
1771193700000,68801.97000000,69048.00000000,68801.06000000,69011.19000000,88.26302000
1771194600000,69011.19000000,69078.49000000,68969.60000000,69044.29000000,73.37488000
1771195500000,69044.29000000,69078.03000000,68910.27000000,68999.96000000,140.67556000
1771196400000,68999.96000000,68999.96000000,68319.64000000,68490.80000000,223.24007000
1771197300000,68490.81000000,68665.22000000,68400.00000000,68648.11000000,109.32780000
1771198200000,68648.11000000,68800.00000000,68548.02000000,68682.40000000,121.11596000
1771199100000,68682.40000000,68837.10000000,68670.53000000,68832.58000000,67.36362000
1771200000000,68832.59000000,69006.00000000,68732.61000000,68943.37000000,113.23313000
1771200900000,68943.38000000,69065.50000000,68771.85000000,68850.96000000,92.97467000
1771201800000,68850.95000000,68974.42000000,68754.01000000,68754.01000000,62.75147000
1771202700000,68754.01000000,68950.00000000,68700.00000000,68845.81000000,80.91057000
1771203600000,68845.81000000,69041.97000000,68787.08000000,68865.20000000,76.16979000
1771204500000,68865.20000000,68923.33000000,68663.45000000,68722.90000000,56.36293000
1771205400000,68722.89000000,68773.80000000,68454.54000000,68590.12000000,87.74160000
1771206300000,68590.13000000,68670.95000000,68572.97000000,68630.81000000,49.80841000
1771207200000,68630.81000000,68734.00000000,68472.06000000,68566.13000000,158.58063000
1771208100000,68566.12000000,68574.94000000,68325.05000000,68350.51000000,278.75656000
1771209000000,68350.51000000,68526.03000000,68333.90000000,68458.17000000,152.96206000
1771209900000,68458.16000000,68519.40000000,68243.68000000,68320.48000000,93.43475000
1771210800000,68320.49000000,68450.82000000,68311.62000000,68382.12000000,85.07894000
1771211700000,68382.12000000,68416.00000000,68171.92000000,68182.59000000,159.78555000
1771212600000,68182.58000000,68355.27000000,68143.22000000,68353.87000000,141.61361000
1771213500000,68353.86000000,68463.96000000,68324.66000000,68424.82000000,66.93357000
1771214400000,68424.82000000,68665.57000000,68417.17000000,68640.00000000,109.14283000
1771215300000,68640.00000000,68797.61000000,68625.70000000,68783.05000000,121.27391000
1771216200000,68783.05000000,68817.45000000,68692.14000000,68694.83000000,109.19528000
1771217100000,68694.84000000,68894.52000000,68694.83000000,68870.07000000,125.59539000
1771218000000,68870.07000000,68900.00000000,68463.96000000,68473.16000000,128.81667000
1771218900000,68473.17000000,68524.80000000,68385.71000000,68457.98000000,71.32488000
1771219800000,68457.99000000,68493.43000000,68293.28000000,68340.84000000,99.99504000
1771220700000,68340.83000000,68434.29000000,68333.45000000,68385.29000000,53.74769000
1771221600000,68385.29000000,68441.73000000,68352.34000000,68360.38000000,55.59583000
1771222500000,68360.38000000,68394.57000000,68228.76000000,68348.37000000,79.74974000
1771223400000,68348.36000000,68527.80000000,68336.22000000,68474.59000000,64.74367000
1771224300000,68474.58000000,68476.57000000,68400.00000000,68450.80000000,40.47691000
1771225200000,68450.80000000,68630.89000000,68380.00000000,68611.54000000,112.83886000
1771226100000,68611.53000000,68672.59000000,68539.71000000,68575.14000000,72.03535000
1771227000000,68575.14000000,68646.00000000,68440.79000000,68499.12000000,88.14202000
1771227900000,68499.12000000,68611.22000000,68499.11000000,68587.90000000,89.18683000
1771228800000,68587.89000000,68669.77000000,68548.19000000,68549.91000000,63.37659000
1771229700000,68549.90000000,68746.76000000,68542.63000000,68735.38000000,84.81106000
1771230600000,68735.38000000,68770.00000000,68633.89000000,68766.18000000,69.90702000
1771231500000,68766.18000000,68798.70000000,68681.49000000,68762.85000000,83.72428000
1771232400000,68762.86000000,68959.97000000,68748.02000000,68886.01000000,130.53252000
1771233300000,68886.01000000,68974.35000000,68803.35000000,68964.62000000,65.70478000
1771234200000,68964.62000000,69060.77000000,68876.27000000,69029.54000000,156.53385000
