timestamp,open,high,low,close,volume
1757044800000,111311.78000000,112999.00000000,111144.51000000,112954.32000000,3481.17531000
1757059200000,112954.32000000,112985.00000000,112131.02000000,112354.00000000,1956.82884000
1757073600000,112354.00000000,113384.62000000,110286.91000000,110716.82000000,9805.88987000
1757088000000,110716.82000000,111627.51000000,110206.96000000,111614.54000000,2167.09419000
1757102400000,111614.54000000,111700.00000000,110375.60000000,110659.99000000,2510.84487000
1757116800000,110660.00000000,111307.70000000,110552.56000000,111082.22000000,800.18218000
1757131200000,111082.23000000,111082.23000000,110687.69000000,110825.60000000,687.98406000
1757145600000,110825.59000000,110968.00000000,110675.58000000,110781.02000000,621.90211000
1757160000000,110781.03000000,110999.83000000,110358.11000000,110384.15000000,886.00942000
1757174400000,110384.16000000,110402.00000000,109977.00000000,110038.41000000,1391.66059000
1757188800000,110038.42000000,110282.82000000,110034.44000000,110187.97000000,612.56061000
1757203200000,110187.98000000,110733.12000000,110180.00000000,110629.15000000,948.63792000
1757217600000,110629.15000000,110911.42000000,110463.10000000,110753.42000000,872.74711000
1757232000000,110753.41000000,111377.19000000,110720.01000000,111292.13000000,1214.41306000
1757246400000,111292.12000000,111412.00000000,111042.60000000,111329.99000000,837.52385000
1757260800000,111329.99000000,111371.35000000,110861.20000000,111259.99000000,940.48526000
1757275200000,111259.99000000,111600.00000000,111001.45000000,111137.34000000,867.49224000
1757289600000,111137.35000000,111372.00000000,110621.78000000,111052.11000000,1701.47085000
1757304000000,111052.11000000,111609.04000000,110899.69000000,111280.39000000,1330.12513000
1757318400000,111280.40000000,112186.98000000,111252.90000000,112052.43000000,2723.68786000
1757332800000,112052.43000000,112924.37000000,111877.64000000,112631.75000000,3018.22348000
1757347200000,112631.74000000,112670.06000000,111978.67000000,112097.31000000,1681.81458000
1757361600000,112097.31000000,112512.71000000,111896.00000000,112065.23000000,1127.08021000
1757376000000,112065.23000000,112104.41000000,111111.00000000,111708.00000000,2091.77038000
1757390400000,111708.01000000,113293.29000000,111624.12000000,112991.11000000,2906.59440000
1757404800000,112991.11000000,113176.51000000,112403.91000000,112433.59000000,1848.92022000
1757419200000,112433.59000000,112950.00000000,110766.66000000,110880.76000000,4662.13241000
1757433600000,110880.76000000,111388.04000000,110788.00000000,111301.53000000,2121.49527000
1757448000000,111301.53000000,111745.69000000,111090.07000000,111546.39000000,1748.36980000
1757462400000,111546.38000000,111586.26000000,110917.45000000,111545.88000000,1667.04272000
1757476800000,111545.88000000,112602.35000000,111372.42000000,112553.65000000,2477.25860000
1757491200000,112553.65000000,112859.80000000,112097.20000000,112299.99000000,2579.59736000
1757505600000,112300.00000000,114313.13000000,112299.99000000,113853.99000000,6630.72074000
1757520000000,113853.99000000,114074.46000000,113155.03000000,113574.52000000,2628.46871000
1757534400000,113574.53000000,114025.78000000,113528.01000000,113960.00000000,1534.33010000
1757548800000,113960.00000000,114434.23000000,113669.82000000,114400.01000000,1596.62879000
1757563200000,114400.01000000,114459.65000000,113957.20000000,114083.58000000,1954.14285000
1757577600000,114083.58000000,114200.00000000,113776.00000000,113999.99000000,1512.60333000
1757592000000,113999.99000000,114715.02000000,113430.00000000,114180.31000000,5143.69337000
1757606400000,114180.32000000,114605.54000000,114102.00000000,114419.99000000,1437.71411000
1757620800000,114420.00000000,115488.09000000,114246.04000000,115482.69000000,2031.94874000
1757635200000,115482.69000000,116331.81000000,115045.45000000,115194.14000000,3703.00155000
1757649600000,115194.14000000,115656.87000000,115086.70000000,115086.70000000,1630.41759000
1757664000000,115086.70000000,115273.12000000,114888.01000000,114913.45000000,1958.78975000
1757678400000,114913.45000000,115500.95000000,114740.99000000,115121.18000000,2042.13901000
1757692800000,115121.18000000,116665.63000000,115030.30000000,116632.51000000,3863.84437000
1757707200000,116632.51000000,116632.51000000,115752.68000000,116029.42000000,2125.91492000
1757721600000,116029.41000000,116298.78000000,115576.26000000,115957.00000000,2254.31226000
1757736000000,115957.00000000,115957.01000000,115657.81000000,115778.71000000,1062.20470000
1757750400000,115778.72000000,116166.71000000,115767.33000000,115974.11000000,1228.90503000
1757764800000,115974.11000000,116060.00000000,115603.98000000,115768.68000000,1373.33567000
1757779200000,115768.68000000,115817.37000000,115127.27000000,115797.12000000,1589.96184000
1757793600000,115797.12000000,115991.29000000,115797.11000000,115918.29000000,760.68444000
1757808000000,115918.29000000,116109.00000000,115651.99000000,115679.98000000,879.64203000
1757822400000,115679.99000000,115936.00000000,115449.59000000,115805.39000000,914.78349000
1757836800000,115805.39000000,116165.19000000,115748.78000000,115794.91000000,840.40714000
1757851200000,115794.92000000,115878.49000000,115141.80000000,115224.01000000,2036.51269000
1757865600000,115224.01000000,115657.50000000,115193.90000000,115634.99000000,869.12927000
1757880000000,115634.99000000,116087.35000000,115135.00000000,115268.01000000,1167.12735000
1757894400000,115268.01000000,115594.90000000,114825.00000000,115445.45000000,1291.49944000
1757908800000,115445.46000000,116757.99000000,115400.00000000,115806.62000000,2645.45158000
1757923200000,115806.62000000,115806.62000000,114625.87000000,115070.00000000,3497.27876000
1757937600000,115070.01000000,115099.00000000,114384.00000000,114842.90000000,2995.41636000
1757952000000,114842.90000000,115570.00000000,114600.00000000,115307.78000000,1872.69025000
1757966400000,115307.78000000,115605.07000000,115200.07000000,115349.71000000,910.17510000
1757980800000,115349.71000000,115520.00000000,114945.01000000,115307.25000000,864.47636000
1757995200000,115307.26000000,116009.62000000,114930.00000000,115840.00000000,1899.99942000
1758009600000,115839.99000000,115981.17000000,115206.15000000,115287.83000000,1345.53241000
1758024000000,115287.84000000,115905.89000000,114737.11000000,115905.88000000,2622.65829000
1758038400000,115905.88000000,116870.76000000,115608.28000000,116800.12000000,2955.38019000
1758052800000,116800.13000000,116964.27000000,116584.45000000,116788.96000000,1238.86273000
1758067200000,116788.96000000,117077.16000000,116371.81000000,116372.04000000,1657.75299000
1758081600000,116372.05000000,117286.73000000,116160.22000000,117162.48000000,2485.03317000
1758096000000,117162.48000000,117189.86000000,116253.27000000,116258.13000000,1655.08810000
1758110400000,116258.12000000,116516.93000000,115432.00000000,115875.32000000,2848.33061000
1758124800000,115875.33000000,116333.33000000,114720.81000000,115652.02000000,5738.81221000
1758139200000,115652.02000000,116990.68000000,115307.33000000,116447.59000000,2369.22832000
1758153600000,116447.60000000,117896.00000000,116092.76000000,117581.66000000,3081.68078000
1758168000000,117581.67000000,117750.00000000,116888.02000000,117086.01000000,1789.62789000
1758182400000,117086.01000000,117413.04000000,117010.59000000,117063.40000000,1165.75229000
1758196800000,117063.41000000,117843.83000000,116977.59000000,117583.56000000,2416.33194000
1758211200000,117583.56000000,117900.00000000,117196.33000000,117450.21000000,1828.62350000
1758225600000,117450.21000000,117657.17000000,116612.03000000,117073.53000000,1375.21725000
1758240000000,117073.53000000,117459.99000000,116871.61000000,116977.58000000,1326.38784000
1758254400000,116977.58000000,117100.00000000,116633.86000000,116909.97000000,1538.09106000
1758268800000,116909.98000000,117090.36000000,116300.00000000,116394.72000000,1243.82831000
1758283200000,116394.72000000,116529.08000000,115464.19000000,115884.03000000,2657.87565000
1758297600000,115884.03000000,116136.00000000,115112.58000000,115125.12000000,1413.65495000
1758312000000,115125.13000000,115657.28000000,115100.00000000,115632.38000000,812.25284000
1758326400000,115632.39000000,115730.41000000,115408.47000000,115445.00000000,717.06298000
1758340800000,115445.00000000,115985.20000000,115409.08000000,115968.56000000,759.46126000
1758355200000,115968.56000000,115968.57000000,115664.11000000,115894.06000000,793.04586000
1758369600000,115894.05000000,116121.81000000,115804.47000000,115986.69000000,836.91424000
1758384000000,115986.70000000,116079.46000000,115698.08000000,115702.00000000,898.20806000
1758398400000,115702.00000000,115944.70000000,115603.42000000,115685.63000000,670.23512000
1758412800000,115685.63000000,115732.94000000,115441.83000000,115669.41000000,919.05922000
1758427200000,115669.42000000,115815.98000000,115487.56000000,115815.97000000,806.93980000
1758441600000,115815.98000000,115819.06000000,115329.03000000,115603.45000000,786.85295000
1758456000000,115603.45000000,115747.23000000,115473.19000000,115531.61000000,671.32040000
1758470400000,115531.62000000,115665.52000000,115209.02000000,115480.05000000,781.11646000
1758484800000,115480.05000000,115545.43000000,115188.00000000,115232.29000000,546.23336000
1758499200000,115232.29000000,115379.25000000,114150.00000000,114649.89000000,3078.59053000
1758513600000,114649.89000000,114649.90000000,111800.00000000,112519.99000000,7290.80289000
1758528000000,112520.00000000,112976.02000000,112173.52000000,112876.97000000,3052.23045000
1758542400000,112876.97000000,113432.76000000,112380.00000000,112815.50000000,3313.50245000
1758556800000,112815.50000000,112888.00000000,111936.40000000,112122.90000000,2731.51753000
1758571200000,112122.90000000,112977.41000000,111975.28000000,112650.99000000,1315.06971000
1758585600000,112650.99000000,112833.09000000,111478.00000000,112339.99000000,2398.09582000
1758600000000,112339.99000000,113114.01000000,111876.15000000,113090.13000000,2504.81638000
1758614400000,113090.13000000,113281.50000000,112683.33000000,112975.99000000,1814.57634000
1758628800000,112975.99000000,113290.50000000,112496.61000000,112882.19000000,1948.83266000
1758643200000,112882.20000000,112958.58000000,111540.20000000,111655.29000000,2394.18192000
1758657600000,111655.29000000,112220.54000000,111458.73000000,111998.80000000,1240.81718000
1758672000000,111998.80000000,112500.00000000,111683.09000000,111683.09000000,2848.03309000
1758686400000,111683.10000000,112779.37000000,111042.66000000,112583.54000000,2905.68984000
1758700800000,112583.54000000,113162.17000000,112405.62000000,113029.46000000,1567.72874000
1758715200000,113029.45000000,113890.00000000,112808.00000000,113346.41000000,2535.05067000
1758729600000,113346.40000000,113940.00000000,113163.21000000,113420.01000000,1318.69585000
1758744000000,113420.00000000,113647.58000000,113204.71000000,113307.00000000,1194.06148000
1758758400000,113307.01000000,113510.23000000,112214.74000000,112546.21000000,3049.61418000
1758772800000,112546.22000000,112614.43000000,111450.42000000,111766.72000000,2930.20950000
1758787200000,111766.73000000,112246.46000000,111283.63000000,111348.00000000,2287.76235000
1758801600000,111347.99000000,111729.52000000,110629.99000000,111580.77000000,4734.75828000
1758816000000,111580.77000000,111672.58000000,108631.51000000,109360.00000000,6129.42446000
1758830400000,109360.00000000,109685.72000000,108765.00000000,108994.49000000,2099.38080000
1758844800000,108994.49000000,109798.84000000,108809.24000000,109580.01000000,2323.19574000
1758859200000,109580.00000000,109625.94000000,108913.00000000,109320.02000000,3055.89804000
1758873600000,109320.02000000,109690.98000000,108620.07000000,109133.50000000,2675.46214000
1758888000000,109133.50000000,109779.73000000,108764.76000000,109027.78000000,3241.92440000
1758902400000,109027.79000000,110300.00000000,109027.78000000,109172.20000000,2093.42859000
1758916800000,109172.21000000,109687.69000000,109087.57000000,109643.46000000,853.10700000
1758931200000,109643.46000000,109743.91000000,109324.42000000,109553.77000000,1041.65919000
1758945600000,109553.77000000,109742.27000000,109332.02000000,109411.20000000,908.84116000
1758960000000,109411.19000000,109477.69000000,109064.40000000,109310.21000000,1356.29029000
1758974400000,109310.22000000,109477.59000000,109193.00000000,109402.24000000,1151.38343000
1758988800000,109402.25000000,109440.00000000,109243.89000000,109424.20000000,590.81859000
1759003200000,109424.21000000,109699.98000000,109362.72000000,109635.85000000,452.79377000
1759017600000,109635.85000000,109787.75000000,109325.05000000,109436.00000000,822.14827000
1759032000000,109436.00000000,109537.80000000,109260.00000000,109513.06000000,569.05076000
1759046400000,109513.06000000,109585.39000000,109250.00000000,109369.02000000,862.93461000
1759060800000,109369.02000000,110037.93000000,109189.99000000,110037.93000000,1349.20291000
1759075200000,110037.92000000,110393.63000000,110008.54000000,110337.60000000,1215.77694000
1759089600000,110337.61000000,112350.00000000,110294.78000000,112163.95000000,2723.21811000
1759104000000,112163.96000000,112310.00000000,111588.07000000,111857.51000000,2297.47362000
1759118400000,111857.51000000,111904.34000000,111560.65000000,111865.95000000,1831.36016000
1759132800000,111865.96000000,112421.99000000,111865.95000000,112100.00000000,2126.24195000
1759147200000,112100.00000000,114231.56000000,111901.26000000,113815.57000000,5064.79852000
1759161600000,113815.57000000,114390.93000000,113449.74000000,114265.55000000,2716.40525000
1759176000000,114265.56000000,114400.00000000,114020.00000000,114311.96000000,1504.84055000
1759190400000,114311.97000000,114792.00000000,114040.35000000,114376.39000000,2494.38118000
1759204800000,114376.39000000,114376.40000000,113585.00000000,113699.23000000,2326.82117000
1759219200000,113699.24000000,113741.37000000,112656.27000000,113055.01000000,2869.29172000
1759233600000,113055.00000000,113677.23000000,112866.11000000,113106.16000000,2840.28661000
1759248000000,113106.15000000,114563.46000000,112800.00000000,114359.99000000,2535.88761000
1759262400000,114359.99000000,114754.87000000,113765.42000000,114048.93000000,1977.48804000
1759276800000,114048.94000000,114551.76000000,113966.67000000,114176.92000000,2042.57116000
1759291200000,114176.93000000,114740.00000000,114151.00000000,114539.02000000,1996.43364000
1759305600000,114539.02000000,116795.85000000,114484.43000000,116789.58000000,5217.93036000
1759320000000,116789.57000000,117649.99000000,116363.38000000,117423.73000000,4518.34600000
1759334400000,117423.73000000,118199.00000000,116724.56000000,117439.53000000,3814.32316000
1759348800000,117439.53000000,118649.10000000,117163.25000000,118594.99000000,2446.79084000
1759363200000,118594.99000000,119456.92000000,118368.05000000,118733.99000000,4187.34775000
1759377600000,118733.99000000,118930.29000000,118279.31000000,118489.76000000,1772.36438000
1759392000000,118489.76000000,118926.49000000,118354.61000000,118765.73000000,1460.00845000
1759406400000,118765.72000000,119910.79000000,118516.39000000,119910.78000000,5099.16626000
1759420800000,119910.78000000,121022.07000000,119359.63000000,120836.49000000,4869.11141000
1759435200000,120836.49000000,120914.00000000,120072.46000000,120529.35000000,2282.83678000
1759449600000,120529.35000000,120550.90000000,119820.00000000,120225.89000000,2268.65523000
1759464000000,120225.88000000,120324.53000000,119610.59000000,119640.21000000,2293.91523000
1759478400000,119640.22000000,120515.89000000,119248.30000000,120334.50000000,3467.40526000
1759492800000,120334.51000000,122366.00000000,119881.24000000,122258.05000000,4929.42106000
1759507200000,122258.04000000,123894.99000000,121466.25000000,122660.99000000,9447.66952000
1759521600000,122661.00000000,122734.92000000,121999.33000000,122232.00000000,1529.26170000
1759536000000,122232.21000000,122325.60000000,121684.97000000,122243.99000000,1730.57720000
1759550400000,122243.99000000,122800.00000000,122219.30000000,122324.08000000,1516.17531000
1759564800000,122324.08000000,122539.83000000,121962.81000000,121973.26000000,1268.73633000
1759579200000,121973.26000000,122509.52000000,121698.88000000,121791.31000000,1464.05666000
1759593600000,121791.31000000,121964.95000000,121510.00000000,121959.25000000,1443.23464000
1759608000000,121959.25000000,122410.00000000,121871.01000000,122391.00000000,785.38664000
1759622400000,122390.99000000,124362.28000000,122136.00000000,123776.22000000,4212.02615000
1759636800000,123776.23000000,125708.42000000,123734.00000000,124713.63000000,7342.54920300
1759651200000,124713.63000000,124838.37000000,122520.24000000,123464.64000000,4455.30964000
1759665600000,123464.64000000,123464.65000000,122675.00000000,122803.17000000,2233.09004000
1759680000000,122803.17000000,123464.00000000,122301.63000000,122591.79000000,2386.16050000
1759694400000,122591.80000000,123548.83000000,122473.62000000,123482.31000000,1413.96202000
1759708800000,123482.32000000,124358.46000000,123084.00000000,123839.09000000,3025.28443000
1759723200000,123839.09000000,124165.56000000,123280.49000000,123390.47000000,2210.62835000
1759737600000,123390.47000000,124531.66000000,123390.46000000,124215.00000000,2768.21181000
1759752000000,124215.00000000,125408.29000000,124178.00000000,125000.00000000,4567.69480000
1759766400000,125000.00000000,126199.63000000,124800.00000000,125410.81000000,4722.17235300
1759780800000,125410.80000000,125534.00000000,124511.15000000,124658.54000000,2200.63705000
1759795200000,124658.54000000,125082.27000000,124101.26000000,124329.74000000,1773.60979000
1759809600000,124329.74000000,124654.47000000,123567.60000000,123667.99000000,2455.22590000
1759824000000,123668.00000000,124509.60000000,123322.90000000,124453.38000000,2444.73415000
1759838400000,124453.37000000,125126.00000000,121172.89000000,121846.01000000,7360.01455000
1759852800000,121846.01000000,122084.14000000,120574.94000000,121637.17000000,5726.89600000
1759867200000,121637.18000000,122292.62000000,121258.08000000,121332.95000000,1873.51346000
1759881600000,121332.96000000,122229.66000000,121200.00000000,121374.75000000,2406.76826000
1759896000000,121374.76000000,121910.24000000,121066.14000000,121597.06000000,2670.85944000
1759910400000,121597.05000000,123200.00000000,121524.01000000,122884.14000000,3408.74044000
1759924800000,122884.14000000,123350.00000000,121649.68000000,122189.72000000,3373.36830000
1759939200000,122189.72000000,124197.25000000,122110.08000000,123450.00000000,3795.53021000
1759953600000,123450.01000000,123737.00000000,122794.40000000,123306.00000000,1357.35135000
1759968000000,123306.01000000,123348.32000000,121475.98000000,122038.01000000,2319.17839000
1759982400000,122038.01000000,122264.00000000,121724.71000000,121906.10000000,1451.14790000
1759996800000,121906.09000000,122833.02000000,121145.49000000,122737.57000000,2689.44106000
1760011200000,122737.56000000,123762.94000000,120673.99000000,121147.14000000,6566.06200000
1760025600000,121147.15000000,121481.90000000,119651.47000000,120951.72000000,6174.05969000
1760040000000,120951.72000000,121900.00000000,120838.00000000,121662.40000000,2359.47103000
1760054400000,121662.41000000,121874.13000000,120900.00000000,121026.01000000,2094.68145000
1760068800000,121026.00000000,121754.34000000,120855.41000000,120932.05000000,2566.54979000
1760083200000,120932.05000000,121777.07000000,120916.44000000,121554.55000000,1553.83694000
1760097600000,121554.55000000,122550.00000000,118500.00000000,119018.98000000,7767.59253000
1760112000000,119018.99000000,119456.28000000,115952.47000000,116661.50000000,8454.54427000
1760126400000,116661.50000000,117214.64000000,102000.00000000,112774.50000000,41734.73429000
1760140800000,112774.49000000,113322.39000000,111019.43000000,112300.01000000,11533.52669000
1760155200000,112300.00000000,112991.16000000,110090.29000000,110384.61000000,7142.76272000
1760169600000,110384.60000000,112359.67000000,110162.23000000,112280.00000000,5929.13992000
1760184000000,112280.01000000,112500.00000000,111793.20000000,111793.20000000,3681.24351000
1760198400000,111793.21000000,112185.53000000,110865.82000000,111178.31000000,3138.91159000
1760212800000,111178.30000000,111368.29000000,109561.59000000,110644.40000000,4022.93209000
1760227200000,110644.40000000,111368.14000000,109565.06000000,110676.00000000,4785.58424000
1760241600000,110676.00000000,112125.51000000,110617.10000000,111525.20000000,2731.29761000
1760256000000,111525.19000000,112133.33000000,111139.87000000,111848.36000000,2810.82095000
1760270400000,111848.35000000,113745.84000000,111177.75000000,113198.20000000,9020.41664000
1760284800000,113198.20000000,114700.00000000,113198.20000000,114342.28000000,6635.34892000
1760299200000,114342.28000000,115770.00000000,114217.75000000,114958.80000000,6271.83436000
1760313600000,114958.81000000,115963.81000000,114619.45000000,114821.12000000,4123.60858000
1760328000000,114821.13000000,115554.83000000,114398.24000000,115399.67000000,3437.01313000
1760342400000,115399.66000000,115438.17000000,113616.50000000,114180.00000000,4560.86246000
1760356800000,114180.00000000,115530.00000000,113800.01000000,114312.10000000,5538.12887000
1760371200000,114312.09000000,115891.30000000,114215.79000000,115792.84000000,3368.92301000
1760385600000,115792.84000000,115868.00000000,115005.44000000,115166.00000000,1528.70428000
1760400000000,115166.00000000,115409.96000000,113279.76000000,113500.00000000,3456.84461000
1760414400000,113500.00000000,113691.00000000,111355.01000000,111724.41000000,6286.29915000
1760428800000,111724.41000000,112140.00000000,110012.24000000,111313.98000000,5281.83478000
1760443200000,111313.98000000,112943.82000000,109866.00000000,112900.43000000,7186.98731000
1760457600000,112900.44000000,113544.53000000,111692.31000000,112613.70000000,7436.01163000
1760472000000,112613.69000000,113577.00000000,112230.46000000,113028.14000000,2222.35226000
1760486400000,113028.13000000,113612.35000000,111825.93000000,112024.29000000,3526.54912000
1760500800000,112024.30000000,112680.00000000,111746.76000000,112584.50000000,3442.20374000
1760515200000,112584.49000000,113520.88000000,111693.26000000,111905.73000000,3699.08334000
1760529600000,111905.72000000,112238.41000000,110400.00000000,110798.01000000,6590.50038000
1760544000000,110798.01000000,111557.70000000,110164.00000000,111271.73000000,3317.74779000
1760558400000,111271.73000000,111556.27000000,110500.00000000,110763.28000000,2410.40374000
1760572800000,110763.28000000,111867.17000000,110361.00000000,111329.48000000,2715.42468000
1760587200000,111329.48000000,111773.70000000,110553.19000000,110584.20000000,3097.14260000
1760601600000,110584.21000000,111728.70000000,109635.15000000,111404.72000000,5282.11808000
1760616000000,111404.73000000,111982.45000000,108361.69000000,108549.21000000,8252.81169000
1760630400000,108549.21000000,109254.00000000,107577.57000000,108197.66000000,8255.26892000
1760644800000,108197.67000000,108500.00000000,107427.00000000,108194.28000000,2254.40655000
1760659200000,108194.27000000,109240.00000000,107934.40000000,109176.74000000,2417.89309000
1760673600000,109176.74000000,109236.01000000,105542.09000000,105633.75000000,8020.07533000
1760688000000,105633.75000000,106651.22000000,103528.23000000,105683.72000000,13908.33322000
1760702400000,105683.71000000,106852.14000000,104533.21000000,106803.53000000,7847.34313000
1760716800000,106803.52000000,107575.60000000,106071.42000000,106454.72000000,3916.46744000
1760731200000,106457.24000000,107440.02000000,106342.47000000,106431.68000000,1810.55617000
1760745600000,106431.68000000,107306.06000000,106322.20000000,107070.40000000,2668.30340000
1760760000000,107070.41000000,107499.00000000,106439.38000000,106665.00000000,2976.33507000
1760774400000,106665.01000000,107222.00000000,106605.93000000,107208.60000000,2336.72819000
1760788800000,107208.61000000,107300.00000000,106739.33000000,106948.75000000,1425.61863000
1760803200000,106948.75000000,107091.87000000,106484.00000000,107080.14000000,911.25891000
1760817600000,107080.14000000,107339.03000000,106851.84000000,107185.01000000,804.94346000
1760832000000,107185.00000000,107367.16000000,106734.17000000,107275.78000000,1058.11210000
1760846400000,107275.79000000,107290.00000000,106558.61000000,106786.00000000,1247.19589000
1760860800000,106786.00000000,108260.50000000,106103.36000000,107783.47000000,5059.55867000
1760875200000,107783.47000000,108621.68000000,107355.02000000,108486.70000000,3636.47308000
1760889600000,108486.71000000,109450.07000000,108240.00000000,108908.43000000,2430.56297000
1760904000000,108908.43000000,109370.99000000,108471.10000000,108642.78000000,2048.76152000
1760918400000,108642.77000000,110427.86000000,107402.52000000,110145.44000000,3683.55508000
1760932800000,110145.45000000,111445.67000000,109951.96000000,111169.92000000,3967.97672000
1760947200000,111169.91000000,111679.25000000,110608.27000000,111016.75000000,3452.86704000
1760961600000,111016.75000000,111705.56000000,110588.23000000,111144.55000000,3006.20504000
1760976000000,111144.55000000,111303.05000000,109855.83000000,110803.22000000,3716.65669000
1760990400000,110803.22000000,111272.00000000,110418.25000000,110532.09000000,1366.18103000
1761004800000,110532.09000000,110532.09000000,109052.09000000,109059.22000000,2405.81342000
1761019200000,109059.23000000,109059.23000000,107473.72000000,108086.37000000,4930.32680000
1761033600000,108086.38000000,108811.47000000,107484.22000000,108580.01000000,2989.72657000
1761048000000,108580.00000000,113557.62000000,107922.06000000,113422.61000000,10002.10737000
1761062400000,113422.60000000,114000.00000000,111324.29000000,111780.39000000,10731.47816000
1761076800000,111780.40000000,111801.41000000,108045.81000000,108297.67000000,6168.56427000
1761091200000,108297.66000000,108678.21000000,107841.20000000,108216.02000000,4851.56459000
1761105600000,108216.03000000,108638.99000000,107610.00000000,108321.63000000,3883.15964000
1761120000000,108321.64000000,108358.76000000,106708.18000000,107555.05000000,4012.65986000
1761134400000,107555.04000000,109163.88000000,107443.01000000,108416.50000000,7925.67327000
1761148800000,108416.50000000,108796.42000000,107463.29000000,107870.35000000,4008.05438000
1761163200000,107870.35000000,108069.93000000,106666.69000000,107567.44000000,3929.67277000
1761177600000,107567.45000000,108720.39000000,107500.00000000,108377.96000000,2373.50317000
1761192000000,108377.96000000,110298.29000000,108350.36000000,109269.90000000,3314.78585000
1761206400000,109269.90000000,109903.83000000,109100.40000000,109253.89000000,2204.01103000
1761220800000,109253.88000000,110109.99000000,108685.72000000,109908.28000000,4284.59025000
1761235200000,109908.29000000,111293.61000000,109647.34000000,110200.00000000,3640.32069000
1761249600000,110200.01000000,110200.01000000,109341.28000000,110078.18000000,1755.88195000
1761264000000,110078.19000000,110829.67000000,109983.93000000,110441.46000000,1538.88446000
1761278400000,110441.46000000,111522.30000000,110332.00000000,111054.61000000,2705.19443000
1761292800000,111054.61000000,111482.99000000,110600.00000000,111066.29000000,1981.64658000
1761307200000,111066.29000000,112104.98000000,109700.01000000,110046.91000000,5533.12257000
1761321600000,110046.92000000,110945.39000000,109797.13000000,110615.07000000,1470.06782000
1761336000000,110615.07000000,111138.62000000,110478.00000000,111004.89000000,1776.25327000
1761350400000,111004.90000000,111226.67000000,110672.86000000,111029.99000000,829.34913000
1761364800000,111029.99000000,111820.87000000,111029.99000000,111489.60000000,1417.09029000
1761379200000,111489.59000000,111850.13000000,111375.81000000,111563.81000000,1378.18654000
1761393600000,111563.81000000,111943.19000000,111311.19000000,111385.18000000,1254.08497000
1761408000000,111385.18000000,111731.78000000,111164.39000000,111623.45000000,963.51944000
1761422400000,111623.46000000,111683.64000000,111342.25000000,111646.27000000,565.73827000
1761436800000,111646.27000000,111899.56000000,111260.45000000,111260.46000000,1026.78183000
1761451200000,111260.46000000,111724.96000000,111260.46000000,111723.98000000,665.50994000
1761465600000,111723.98000000,113466.23000000,111708.63000000,113286.09000000,2987.57218000
1761480000000,113286.09000000,114000.00000000,113279.85000000,113694.97000000,3506.31151000
1761494400000,113694.97000000,113793.93000000,113290.62000000,113585.99000000,1360.11589000
1761508800000,113585.98000000,115466.80000000,112901.00000000,114559.40000000,3908.18602000
1761523200000,114559.41000000,115445.39000000,114362.26000000,114958.51000000,3281.65267000
1761537600000,114958.52000000,116400.00000000,114938.01000000,115554.60000000,5478.94550000
1761552000000,115554.59000000,115607.48000000,114814.69000000,115362.02000000,3701.92326000
1761566400000,115362.02000000,115437.48000000,114503.99000000,114969.68000000,4493.43933000
1761580800000,114969.68000000,115790.00000000,114790.81000000,114942.64000000,2258.20754000
1761595200000,114942.64000000,114942.64000000,113830.01000000,114107.65000000,2236.06411000
1761609600000,114107.65000000,114547.20000000,113569.91000000,113908.24000000,2184.14279000
1761624000000,113908.25000000,114364.99000000,113483.30000000,114188.37000000,2190.67870000
1761638400000,114188.38000000,114673.68000000,114113.30000000,114357.73000000,1236.93368000
1761652800000,114357.72000000,116086.00000000,114138.06000000,114641.38000000,4008.51256000
1761667200000,114641.38000000,115591.41000000,113566.44000000,113689.99000000,2719.79536000
1761681600000,113689.00000000,113703.32000000,112211.00000000,112898.45000000,3183.35948000
1761696000000,112898.44000000,112975.75000000,112100.00000000,112523.49000000,2076.22141000
1761710400000,112523.49000000,113577.90000000,112505.58000000,113577.90000000,2036.63326000
1761724800000,113577.90000000,113624.12000000,112732.91000000,113132.36000000,1970.99326000
1761739200000,113132.35000000,113643.73000000,111401.50000000,111509.74000000,4606.39611000
1761753600000,111509.74000000,112030.23000000,109200.00000000,110640.00000000,7741.83881000
1761768000000,110640.00000000,111800.00000000,109733.22000000,110021.29000000,2647.63091000
1761782400000,110021.30000000,111011.99000000,109703.43000000,110751.47000000,2342.18582000
1761796800000,110751.48000000,111592.00000000,107925.06000000,111366.72000000,6581.76635000
1761811200000,111366.72000000,111467.01000000,109692.30000000,109717.29000000,2970.54213000
1761825600000,109717.19000000,109777.93000000,107328.00000000,107711.56000000,6544.11088000
1761840000000,107711.56000000,108214.85000000,106304.34000000,106536.39000000,4367.26208000
1761854400000,106536.39000000,108334.53000000,106316.17000000,108322.88000000,3182.96112000
1761868800000,108322.87000000,110042.16000000,108275.28000000,109227.86000000,4174.28130000
1761883200000,109227.87000000,110215.00000000,109114.88000000,109449.31000000,3598.46922000
1761897600000,109449.32000000,110550.00000000,109214.13000000,110415.61000000,2439.82294000
1761912000000,110415.62000000,111190.00000000,109366.91000000,110202.90000000,6113.31690000
1761926400000,110202.90000000,110300.00000000,108635.00000000,109828.78000000,3864.41061000
1761940800000,109828.78000000,109828.79000000,109329.15000000,109608.01000000,1327.90342000
1761955200000,109608.01000000,110315.54000000,109394.81000000,110226.37000000,1329.53082000
1761969600000,110226.38000000,110564.49000000,109933.86000000,110071.40000000,1273.91172000
1761984000000,110071.40000000,110270.90000000,109854.72000000,110137.59000000,1127.98746000
1761998400000,110137.59000000,110348.00000000,109702.66000000,110310.65000000,1527.00509000
1762012800000,110310.65000000,110529.99000000,110192.00000000,110299.99000000,1247.33562000
1762027200000,110300.00000000,110516.17000000,109858.44000000,110098.10000000,872.73360000
1762041600000,110098.10000000,110263.91000000,109879.39000000,110053.23000000,856.27323000
1762056000000,110053.22000000,111045.09000000,110030.06000000,110895.53000000,4429.20302000
1762070400000,110895.53000000,111229.78000000,110346.15000000,111196.99000000,2428.29839000
1762084800000,111196.99000000,111250.01000000,110096.32000000,110117.48000000,1689.37947000
1762099200000,110117.49000000,110331.00000000,109735.59000000,110180.84000000,1185.47603000
1762113600000,110180.85000000,110742.26000000,109471.34000000,110540.68000000,1518.37073000
1762128000000,110540.69000000,110750.00000000,107907.44000000,107937.45000000,3966.52950000
1762142400000,107937.45000000,108075.00000000,107006.05000000,107468.23000000,3863.52296000
1762156800000,107468.23000000,107920.92000000,106726.63000000,107787.42000000,3470.56341000
1762171200000,107787.42000000,108333.00000000,105511.00000000,105745.71000000,6164.15776000
1762185600000,105745.71000000,107783.20000000,105306.56000000,107090.00000000,7788.41484000
1762200000000,107090.00000000,107169.68000000,105755.59000000,106583.04000000,3427.99932000
1762214400000,106583.05000000,107298.74000000,105852.37000000,107158.79000000,4088.97853000
1762228800000,107158.79000000,107299.00000000,104200.00000000,104490.72000000,8029.86674000
1762243200000,104490.73000000,104699.07000000,103605.00000000,104584.76000000,5321.10046000
1762257600000,104584.75000000,104842.63000000,102915.05000000,103197.01000000,7422.89891000
1762272000000,103197.02000000,103500.05000000,100010.73000000,100542.64000000,13452.93585000
1762286400000,100542.64000000,101893.09000000,98944.36000000,101497.22000000,12219.09327000
1762300800000,101497.23000000,102272.23000000,98966.80000000,102130.00000000,11012.84461000
1762315200000,102130.00000000,102370.00000000,101500.00000000,101993.02000000,4661.84078000
1762329600000,101993.03000000,102203.48000000,101176.47000000,102070.61000000,3577.50149000
1762344000000,102070.62000000,103798.37000000,101916.77000000,103728.30000000,6345.91865000
1762358400000,103728.30000000,104529.41000000,103057.56000000,104008.09000000,5492.77185000
1762372800000,104008.09000000,104534.74000000,103305.05000000,103885.16000000,2687.89833000
1762387200000,103885.16000000,103933.33000000,102716.26000000,103636.03000000,3781.79437000
1762401600000,103636.92000000,104200.00000000,102910.66000000,103185.48000000,2970.86552000
1762416000000,103184.75000000,103440.00000000,102651.63000000,103227.58000000,2657.25315000
1762430400000,103227.59000000,103626.46000000,101630.00000000,102014.48000000,6680.54627000
1762444800000,102014.49000000,102393.51000000,100300.95000000,101388.81000000,6059.26390000
1762459200000,101388.82000000,101643.28000000,100541.17000000,101346.04000000,3664.89818000
1762473600000,101346.04000000,102500.00000000,100749.94000000,101916.29000000,3965.61372000
1762488000000,101916.30000000,102527.00000000,101582.92000000,102010.00000000,3062.61099000
1762502400000,102009.99000000,102050.00000000,99803.58000000,100411.89000000,6600.41114000
1762516800000,100411.89000000,101253.99000000,99260.86000000,100797.95000000,8633.01674000
1762531200000,100797.95000000,103395.25000000,100517.06000000,103395.25000000,6836.56812000
1762545600000,103395.92000000,104096.36000000,102958.00000000,103339.08000000,2961.28871000
1762560000000,103339.09000000,103406.22000000,102539.49000000,102592.76000000,2401.80651000
1762574400000,102592.76000000,102836.00000000,101902.64000000,102352.96000000,2041.96251000
1762588800000,102352.96000000,102687.72000000,101715.76000000,101857.10000000,1838.21057000
1762603200000,101857.10000000,102186.99000000,101454.00000000,101711.45000000,3063.13156000
1762617600000,101711.46000000,102219.39000000,101522.08000000,101989.65000000,2120.40711000
1762632000000,101989.65000000,102482.20000000,101957.94000000,102312.94000000,925.26159000
1762646400000,102312.95000000,102337.89000000,101400.00000000,101662.05000000,2156.33613000
1762660800000,101662.05000000,102130.61000000,101635.96000000,101944.59000000,1101.66332000
1762675200000,101944.60000000,102307.68000000,101500.00000000,102239.41000000,1825.56978000
1762689600000,102239.41000000,104168.00000000,102050.64000000,103762.17000000,4687.64884000
1762704000000,103762.18000000,104805.57000000,103316.23000000,104805.57000000,2824.51417000
1762718400000,104805.57000000,105495.62000000,104058.59000000,104722.96000000,3743.23872000
1762732800000,104722.95000000,106670.11000000,104265.02000000,106027.97000000,6501.34292000
1762747200000,106027.97000000,106539.40000000,105846.26000000,106461.45000000,2684.13909000
1762761600000,106461.46000000,106599.47000000,105836.00000000,106176.50000000,2356.44228000
1762776000000,106176.50000000,106589.89000000,104667.00000000,105079.99000000,5720.78074000
1762790400000,105079.99000000,106094.31000000,104784.36000000,105817.99000000,2756.40939000
1762804800000,105818.00000000,106299.22000000,105280.00000000,106011.13000000,2663.14231000
1762819200000,106011.13000000,107500.00000000,105500.00000000,106456.00000000,4935.02762000
1762833600000,106456.00000000,106546.00000000,104741.20000000,104783.98000000,3316.23424000
1762848000000,104783.99000000,105497.99000000,104762.23000000,105311.90000000,1804.62899000
1762862400000,105311.90000000,105500.00000000,103170.33000000,103455.99000000,8851.06900000
1762876800000,103455.99000000,103730.00000000,102840.22000000,103126.39000000,2547.95909000
1762891200000,103126.39000000,103224.29000000,102476.09000000,103058.99000000,2741.58824000
1762905600000,103059.00000000,103440.96000000,102687.72000000,103310.00000000,2672.05561000
1762920000000,103310.00000000,103654.38000000,103011.00000000,103112.66000000,2165.62446000
1762934400000,103112.65000000,105200.00000000,103112.24000000,105020.83000000,3543.70691000
1762948800000,105020.82000000,105333.33000000,101961.97000000,102173.51000000,5192.00313000
1762963200000,102173.51000000,102285.18000000,100813.59000000,101297.31000000,4869.26591000
1762977600000,101297.31000000,101999.35000000,101141.03000000,101654.37000000,2014.98304000
1762992000000,101654.37000000,102604.00000000,100922.55000000,102130.21000000,3586.47221000
1763006400000,102130.21000000,104085.01000000,101665.59000000,103475.66000000,4325.82278000
1763020800000,103475.66000000,103811.49000000,102553.63000000,102936.50000000,3138.63943000
1763035200000,102936.49000000,103483.83000000,101184.14000000,101382.64000000,6264.43277000
1763049600000,101382.63000000,101540.93000000,98147.40000000,98682.14000000,12921.08077000
1763064000000,98682.13000000,100501.31000000,98000.40000000,99692.02000000,5962.05975000
1763078400000,99692.03000000,99866.02000000,98700.00000000,99139.38000000,5839.81569000
1763092800000,99139.38000000,99178.58000000,95933.75000000,97151.98000000,11116.73192000
1763107200000,97151.97000000,97553.70000000,95711.00000000,96167.44000000,5255.60132000
1763121600000,96167.45000000,97322.35000000,94560.48000000,96796.14000000,14312.72078000
1763136000000,96796.14000000,97411.11000000,94800.55000000,95778.29000000,5605.64502000
1763150400000,95778.30000000,95940.00000000,94012.45000000,94594.00000000,5157.63008000
1763164800000,94594.00000000,96846.68000000,94558.49000000,96417.12000000,4376.79077000
1763179200000,96417.12000000,96570.65000000,95921.21000000,96333.86000000,2543.94362000
1763193600000,96333.87000000,96350.52000000,95630.00000000,95696.87000000,2336.22638000
1763208000000,95696.86000000,96471.22000000,95565.17000000,96260.00000000,1987.28578000
1763222400000,96259.99000000,96419.65000000,95731.32000000,96012.01000000,1880.65231000
1763236800000,96012.01000000,96012.01000000,95119.94000000,95596.24000000,1985.99505000
1763251200000,95596.23000000,95979.79000000,94841.62000000,95825.02000000,1896.67006000
1763265600000,95825.02000000,96192.00000000,95650.72000000,96099.99000000,1279.33932000
1763280000000,96099.98000000,96635.11000000,95500.00000000,95627.13000000,2585.38054000
1763294400000,95627.13000000,95900.00000000,94368.24000000,94573.46000000,2546.31874000
1763308800000,94573.46000000,95567.79000000,93770.48000000,94020.00000000,9045.25375000
1763323200000,94020.49000000,94739.74000000,93005.55000000,94261.44000000,6536.44269000
1763337600000,94261.45000000,95559.99000000,93767.27000000,95496.77000000,4124.53725000
1763352000000,95496.77000000,95880.00000000,94849.37000000,95653.77000000,3839.84656000
1763366400000,95653.78000000,96026.71000000,95309.68000000,95565.38000000,3415.65942000
1763380800000,95565.38000000,96043.00000000,93571.30000000,93959.67000000,8085.63652000
1763395200000,93959.68000000,94419.88000000,91588.00000000,91678.93000000,11700.57582000
1763409600000,91678.93000000,92399.48000000,91220.00000000,92215.14000000,8052.34249000
1763424000000,92215.14000000,92357.51000000,89700.00000000,90842.72000000,10647.23561000
1763438400000,90842.72000000,90851.66000000,89253.78000000,90512.10000000,9028.06735000
1763452800000,90512.10000000,91617.17000000,90509.79000000,91517.82000000,5777.46408000
1763467200000,91517.83000000,93049.91000000,90905.70000000,92910.10000000,7097.51563000
1763481600000,92910.10000000,93836.01000000,92579.23000000,93195.61000000,4917.36921000
1763496000000,93195.61000000,93423.74000000,92462.72000000,92960.83000000,2367.49581000
1763510400000,92960.83000000,92980.22000000,91660.49000000,91874.52000000,3065.15376000
1763524800000,91874.51000000,92028.92000000,90025.06000000,91863.64000000,5635.23952000
1763539200000,91863.64000000,91950.00000000,91072.41000000,91410.22000000,2540.86239000
1763553600000,91410.23000000,92384.61000000,89880.00000000,89951.70000000,6014.09197000
1763568000000,89951.70000000,90232.56000000,88630.71000000,88884.56000000,8787.19485000
1763582400000,88884.56000000,91594.00000000,88608.00000000,91554.96000000,6244.09511000
1763596800000,91554.96000000,92798.14000000,91185.26000000,92440.32000000,3929.05974000
1763611200000,92440.33000000,93160.00000000,91687.07000000,92320.18000000,3791.89000000
1763625600000,92320.18000000,92400.94000000,91440.55000000,91934.00000000,3200.83736000
1763640000000,91934.01000000,92541.92000000,89835.34000000,89869.88000000,6162.85424000
1763654400000,89869.88000000,89911.73000000,86100.00000000,86921.28000000,17595.68288000
1763668800000,86921.27000000,88250.00000000,86325.23000000,86637.23000000,5052.86651000
1763683200000,86637.22000000,87498.94000000,85360.00000000,85821.34000000,6428.51913000
1763697600000,85821.35000000,86459.53000000,82000.00000000,84049.39000000,14205.49105000
1763712000000,84049.38000000,84709.89000000,81648.00000000,82309.66000000,16184.92659000
1763726400000,82309.67000000,85496.00000000,80600.00000000,82932.47000000,23041.35364000
1763740800000,82932.46000000,85572.82000000,82333.00000000,84209.30000000,8107.54282000
1763755200000,84209.30000000,85416.66000000,83464.96000000,85129.43000000,4288.29356000
1763769600000,85129.42000000,85620.00000000,84212.39000000,84440.47000000,2923.21557000
1763784000000,84440.48000000,84799.54000000,83832.91000000,84580.06000000,2218.31844000
1763798400000,84580.06000000,84586.62000000,83500.00000000,84098.94000000,3342.45829000
1763812800000,84098.94000000,84755.83000000,83620.16000000,84284.01000000,2668.44444000
1763827200000,84284.01000000,84899.00000000,84219.62000000,84609.76000000,1351.08151000
1763841600000,84609.77000000,85260.00000000,84237.70000000,84739.74000000,1690.41438000
1763856000000,84739.75000000,86349.84000000,84667.57000000,86308.54000000,4004.15131000
1763870400000,86308.54000000,86860.00000000,85420.00000000,85782.19000000,2913.01357000
1763884800000,85782.18000000,86465.24000000,85768.22000000,86331.28000000,2087.40357000
1763899200000,86331.28000000,87244.51000000,86271.10000000,87087.44000000,3471.36676000
1763913600000,87087.44000000,87689.47000000,86502.47000000,87325.01000000,3711.95740000
1763928000000,87325.01000000,88127.64000000,86701.54000000,86830.00000000,3546.57157000
1763942400000,86830.00000000,88059.44000000,85946.65000000,87460.02000000,4318.16094000
1763956800000,87460.03000000,87837.57000000,86450.00000000,87050.39000000,3276.33960000
1763971200000,87050.39000000,87050.39000000,85696.56000000,86264.72000000,3484.50939000
1763985600000,86264.71000000,86741.50000000,85272.00000000,86616.44000000,4635.50962000
1764000000000,86616.44000000,88834.62000000,86616.43000000,88327.29000000,6003.91247000
1764014400000,88327.29000000,89228.00000000,88252.50000000,88300.01000000,2944.69593000
1764028800000,88300.01000000,88300.01000000,87457.53000000,87822.12000000,2506.39849000
1764043200000,87822.12000000,88519.99000000,87300.00000000,87384.81000000,3032.60485000
1764057600000,87384.81000000,87606.57000000,86666.00000000,87361.71000000,3402.11161000
1764072000000,87361.71000000,87792.20000000,86116.00000000,86988.94000000,4897.62850000
1764086400000,86988.93000000,88155.65000000,86182.49000000,86882.85000000,3228.35208000
1764100800000,86882.84000000,87889.38000000,86565.48000000,87369.96000000,2499.94557000
1764115200000,87369.97000000,88224.00000000,87069.97000000,87119.92000000,2235.27320000
1764129600000,87119.93000000,87970.00000000,86909.99000000,87935.05000000,1828.65169000
1764144000000,87935.05000000,87941.58000000,86670.36000000,87095.79000000,2199.53135000
1764158400000,87095.78000000,87693.21000000,86306.77000000,86978.00000000,4198.26229000
1764172800000,86977.99000000,90418.39000000,86956.61000000,89957.36000000,7510.43418000
1764187200000,89957.37000000,90656.08000000,89508.85000000,90484.02000000,3703.66968000
1764201600000,90484.01000000,91950.00000000,90089.91000000,91091.68000000,5743.81731000
1764216000000,91091.68000000,91554.49000000,90889.11000000,91408.34000000,2443.78349000
1764230400000,91408.34000000,91940.18000000,91221.17000000,91371.88000000,2353.99141000
