timestamp,open,high,low,close,volume
1764244800000,91371.87000000,91457.36000000,90438.43000000,90958.30000000,2921.51001000
1764259200000,90958.29000000,91843.59000000,90850.77000000,91528.21000000,2279.61546000
1764273600000,91528.22000000,91600.00000000,91114.52000000,91333.95000000,1090.79164000
1764288000000,91333.94000000,91417.99000000,90652.55000000,91208.85000000,1930.05393000
1764302400000,91208.85000000,91707.79000000,90867.43000000,90910.87000000,1873.92377000
1764316800000,90910.87000000,92030.00000000,90907.98000000,91437.64000000,3175.31997000
1764331200000,91437.64000000,93092.00000000,91380.94000000,92362.49000000,5046.61300000
1764345600000,92362.50000000,92376.00000000,90180.63000000,91157.44000000,5779.19663000
1764360000000,91157.44000000,91247.16000000,90705.57000000,90890.70000000,1025.75282000
1764374400000,90890.71000000,91119.99000000,90546.36000000,90680.26000000,940.81817000
1764388800000,90680.26000000,90931.56000000,90311.92000000,90567.67000000,1229.54953000
1764403200000,90567.66000000,90738.17000000,90376.37000000,90673.19000000,957.44805000
1764417600000,90673.20000000,91110.36000000,90530.93000000,91063.50000000,1148.02698000
1764432000000,91063.50000000,91165.65000000,90155.47000000,90640.78000000,2192.51887000
1764446400000,90640.77000000,91051.87000000,90400.21000000,90802.44000000,961.52131000
1764460800000,90802.44000000,91055.50000000,90471.00000000,90909.35000000,1115.17062000
1764475200000,90909.35000000,91037.72000000,90670.40000000,90968.16000000,549.91781000
1764489600000,90968.16000000,91632.00000000,90927.16000000,91048.78000000,2515.69204000
1764504000000,91048.79000000,92000.01000000,91009.00000000,91435.31000000,2629.14986000
1764518400000,91435.31000000,91850.00000000,91159.42000000,91460.79000000,1049.01646000
1764532800000,91460.79000000,91626.75000000,90336.90000000,90360.00000000,1828.79496000
1764547200000,90360.01000000,90417.00000000,86161.61000000,86346.13000000,10249.65966000
1764561600000,86346.13000000,86578.06000000,85604.00000000,86550.30000000,4937.16707000
1764576000000,86550.30000000,86938.01000000,86131.01000000,86149.15000000,3005.76787000
1764590400000,86146.59000000,86674.00000000,83822.76000000,84677.87000000,8124.37241000
1764604800000,84677.87000000,85555.00000000,84030.95000000,85024.50000000,4598.10295000
1764619200000,85024.50000000,86860.00000000,85007.69000000,86286.01000000,3593.94231000
1764633600000,86286.01000000,87350.00000000,86184.39000000,86976.99000000,3245.81604000
1764648000000,86977.00000000,87288.48000000,86818.14000000,87012.65000000,1733.23534000
1764662400000,87012.64000000,87628.78000000,86296.21000000,87368.92000000,3361.03567000
1764676800000,87368.92000000,91200.00000000,87032.75000000,90850.01000000,9300.50019000
1764691200000,90850.01000000,92307.65000000,90201.00000000,91903.39000000,6152.68006000
1764705600000,91903.38000000,92000.00000000,90720.87000000,91277.88000000,4416.96002000
1764720000000,91277.88000000,93087.09000000,90990.23000000,92628.91000000,4425.07634000
1764734400000,92628.91000000,93958.58000000,92625.00000000,92999.99000000,4546.45939000
1764748800000,93000.00000000,93389.62000000,92666.00000000,93005.68000000,2770.10259000
1764763200000,93005.68000000,93700.00000000,91697.00000000,92373.30000000,6523.23972000
1764777600000,92373.30000000,93500.00000000,91786.99000000,93024.99000000,3624.68485000
1764792000000,93025.00000000,94150.00000000,92825.56000000,93429.95000000,3822.96296000
1764806400000,93429.95000000,94080.00000000,92669.82000000,93543.04000000,3844.70020000
1764820800000,93543.03000000,93588.48000000,92775.00000000,93397.67000000,3070.50786000
1764835200000,93397.67000000,93621.31000000,92736.90000000,92948.31000000,1917.02375000
1764849600000,92948.32000000,93257.00000000,91801.00000000,92971.49000000,4296.15789000
1764864000000,92971.49000000,93174.55000000,90889.00000000,91975.44000000,4860.71120000
1764878400000,91975.43000000,92718.53000000,91688.92000000,92078.06000000,1814.83969000
1764892800000,92078.06000000,92692.36000000,91959.92000000,92142.75000000,1751.29187000
1764907200000,92142.75000000,92497.51000000,91813.37000000,92258.65000000,1387.19156000
1764921600000,92258.64000000,92258.65000000,90956.25000000,91351.43000000,2431.69816000
1764936000000,91351.44000000,91478.67000000,89874.70000000,90459.35000000,5344.16253000
1764950400000,90459.34000000,90498.59000000,88056.00000000,89629.26000000,6507.53794000
1764964800000,89629.27000000,89745.37000000,88901.60000000,89330.04000000,2371.09012000
1764979200000,89330.04000000,89806.43000000,89030.67000000,89688.35000000,1531.03301000
1764993600000,89688.35000000,89764.19000000,89459.19000000,89597.13000000,769.52350000
1765008000000,89597.14000000,89750.01000000,89217.59000000,89631.28000000,1504.70502000
1765022400000,89631.29000000,90289.97000000,89490.98000000,89758.77000000,2052.08066000
1765036800000,89758.77000000,89981.20000000,89077.60000000,89405.64000000,1483.59614000
1765051200000,89405.65000000,89615.34000000,88908.01000000,89236.79000000,1068.56183000
1765065600000,89236.80000000,89749.59000000,89176.52000000,89722.37000000,712.48717000
1765080000000,89722.37000000,89799.96000000,89200.00000000,89379.72000000,739.06202000
1765094400000,89379.73000000,89538.70000000,89050.01000000,89149.18000000,786.60016000
1765108800000,89149.18000000,89707.54000000,87719.28000000,89554.52000000,3916.92116000
1765123200000,89554.52000000,91760.00000000,89115.85000000,91425.52000000,3838.31073000
1765137600000,91425.51000000,91510.40000000,88995.33000000,90395.31000000,3027.73061000
1765152000000,90395.32000000,91700.00000000,89860.00000000,91068.29000000,2453.60415000
1765166400000,91068.30000000,91868.76000000,91023.06000000,91565.46000000,1592.48822000
1765180800000,91565.46000000,92287.15000000,91486.46000000,91968.29000000,1953.05465000
1765195200000,91968.29000000,92122.08000000,89612.00000000,89961.37000000,5223.15445000
1765209600000,89961.36000000,90527.30000000,89679.79000000,90124.48000000,2589.84253000
1765224000000,90124.49000000,91374.00000000,90124.49000000,90634.34000000,1981.49487000
1765238400000,90634.35000000,90846.26000000,89795.84000000,90405.01000000,2355.41188000
1765252800000,90405.02000000,90528.67000000,89500.00000000,90496.80000000,1867.61874000
1765267200000,90496.80000000,90600.00000000,89912.48000000,90384.55000000,1562.48442000
1765281600000,90384.54000000,92876.92000000,90004.73000000,92707.51000000,4917.67396000
1765296000000,92707.50000000,94588.99000000,92693.50000000,93800.83000000,7304.45224000
1765310400000,93800.83000000,93857.47000000,92254.92000000,92678.80000000,3232.78890000
1765324800000,92678.81000000,92786.35000000,91976.00000000,92410.62000000,1996.99930000
1765339200000,92410.62000000,92782.92000000,92386.83000000,92782.91000000,1363.84988000
1765353600000,92782.91000000,93291.50000000,91763.69000000,92120.45000000,2623.05995000
1765368000000,92120.45000000,92226.00000000,91563.15000000,92063.69000000,2523.14963000
1765382400000,92063.69000000,93243.59000000,91684.39000000,92957.67000000,5420.48480000
1765396800000,92957.67000000,94476.00000000,91878.00000000,92015.37000000,5071.13727000
1765411200000,92015.38000000,92080.32000000,89389.63000000,89880.01000000,4081.14690000
1765425600000,89880.00000000,90480.14000000,89694.81000000,90272.75000000,2245.33099000
1765440000000,90272.76000000,90504.19000000,89971.11000000,90242.35000000,1503.95888000
1765454400000,90242.36000000,90653.33000000,89260.63000000,89872.51000000,3541.05902000
1765468800000,89872.51000000,91538.26000000,89333.00000000,90839.81000000,3643.99089000
1765483200000,90839.81000000,93555.00000000,90797.76000000,92513.38000000,4957.10090000
1765497600000,92513.38000000,92754.00000000,91448.31000000,92283.40000000,2164.71329000
1765512000000,92283.40000000,92720.00000000,92078.91000000,92425.34000000,1494.20203000
1765526400000,92425.33000000,92650.01000000,92044.80000000,92418.19000000,1624.00539000
1765540800000,92418.19000000,92660.74000000,89780.00000000,89935.14000000,5560.13281000
1765555200000,89935.13000000,90666.00000000,89480.00000000,90198.22000000,4659.32825000
1765569600000,90198.23000000,90404.13000000,89898.61000000,90268.42000000,1176.80992000
1765584000000,90268.43000000,90469.71000000,90120.00000000,90345.54000000,648.76329000
1765598400000,90345.55000000,90410.50000000,90268.91000000,90329.97000000,451.53525000
1765612800000,90329.98000000,90634.55000000,90290.00000000,90330.36000000,1525.87319000
1765627200000,90330.36000000,90470.30000000,89932.99000000,90092.16000000,1906.98893000
1765641600000,90092.17000000,90268.13000000,89981.00000000,90178.16000000,675.23738000
1765656000000,90178.17000000,90280.76000000,89766.39000000,90240.01000000,687.30984000
1765670400000,90240.00000000,90472.40000000,90117.05000000,90258.98000000,710.94131000
1765684800000,90258.99000000,90329.24000000,90050.74000000,90245.60000000,689.83584000
1765699200000,90245.60000000,90280.01000000,88687.27000000,89360.00000000,2036.12797000
1765713600000,89360.01000000,89666.00000000,88882.66000000,89022.91000000,1729.70637000
1765728000000,89022.92000000,89398.71000000,88497.02000000,88644.88000000,1685.20822000
1765742400000,88644.88000000,88827.71000000,87577.36000000,88172.17000000,2565.12033000
1765756800000,88172.16000000,90052.64000000,88074.37000000,89282.60000000,2699.66065000
1765771200000,89282.60000000,89918.48000000,89272.88000000,89753.42000000,1316.93789000
1765785600000,89753.43000000,89986.68000000,89572.05000000,89641.28000000,1524.38986000
1765800000000,89641.28000000,89876.42000000,86621.91000000,87033.22000000,5888.02922000
1765814400000,87033.21000000,87220.00000000,85146.64000000,86149.96000000,5789.22914000
1765828800000,86149.96000000,86472.70000000,85530.01000000,86432.08000000,2560.44514000
1765843200000,86432.08000000,86535.22000000,85386.00000000,85875.92000000,2272.85750000
1765857600000,85875.91000000,86615.38000000,85266.00000000,86021.51000000,2433.06768000
1765872000000,86021.51000000,87330.00000000,85930.97000000,87261.45000000,2417.24589000
1765886400000,87261.46000000,88175.98000000,86107.43000000,87977.43000000,6730.13202000
1765900800000,87977.44000000,88050.17000000,87061.23000000,87585.77000000,3497.75820000
1765915200000,87585.76000000,87931.48000000,87343.75000000,87863.42000000,1104.98888000
1765929600000,87863.43000000,87950.00000000,87150.01000000,87213.59000000,1179.65134000
1765944000000,87213.60000000,87398.54000000,86209.11000000,87045.59000000,2094.81095000
1765958400000,87045.59000000,87137.42000000,86238.91000000,86983.26000000,1681.23270000
1765972800000,86983.26000000,90365.85000000,86817.27000000,87233.44000000,8132.27731000
1765987200000,87233.44000000,87769.23000000,85314.00000000,86018.53000000,5045.61646000
1766001600000,86018.53000000,86431.14000000,85644.09000000,86243.22000000,1700.52853000
1766016000000,86243.23000000,86863.75000000,85863.93000000,86618.34000000,1716.00096000
1766030400000,86618.35000000,86901.40000000,86384.61000000,86833.84000000,1551.20199000
1766044800000,86833.83000000,87453.63000000,86685.14000000,87300.74000000,1894.81711000
1766059200000,87300.50000000,89477.61000000,87109.76000000,88513.44000000,7315.08784000
1766073600000,88513.43000000,88533.61000000,84481.31000000,84483.79000000,9332.10895000
1766088000000,84483.80000000,85835.90000000,84450.01000000,85516.41000000,3596.20078000
1766102400000,85516.41000000,87568.99000000,85110.24000000,86891.39000000,3311.66901000
1766116800000,86891.39000000,88449.06000000,86647.51000000,87953.40000000,3713.59538000
1766131200000,87953.39000000,88385.06000000,87742.60000000,88198.70000000,1797.82182000
1766145600000,88198.70000000,89399.97000000,87514.59000000,87951.87000000,5988.71834000
1766160000000,87951.86000000,88882.55000000,86846.16000000,87845.92000000,4584.61046000
1766174400000,87845.92000000,88426.85000000,87614.79000000,88136.94000000,1860.23503000
1766188800000,88136.95000000,88339.27000000,87961.60000000,88214.98000000,984.44715000
1766203200000,88214.98000000,88573.07000000,88123.07000000,88275.41000000,797.87192000
1766217600000,88275.41000000,88428.00000000,88107.35000000,88277.66000000,821.72303000
1766232000000,88277.66000000,88343.73000000,87795.76000000,88178.71000000,1315.67537000
1766246400000,88178.72000000,88418.73000000,88103.54000000,88232.92000000,574.10491000
1766260800000,88232.92000000,88443.44000000,88154.06000000,88360.90000000,629.30956000
1766275200000,88360.91000000,88433.64000000,87869.35000000,88070.64000000,991.41687000
1766289600000,88070.64000000,88201.59000000,88050.00000000,88174.79000000,455.57319000
1766304000000,88174.79000000,89081.77000000,88141.87000000,88601.57000000,1439.81605000
1766318400000,88601.57000000,88920.01000000,87600.04000000,88067.95000000,2206.50881000
1766332800000,88067.96000000,88600.00000000,87950.00000000,88484.01000000,1240.46771000
1766347200000,88484.01000000,88823.52000000,88091.96000000,88658.86000000,799.08995000
1766361600000,88658.87000000,89627.24000000,87900.00000000,88774.12000000,2619.97992000
1766376000000,88774.13000000,89200.00000000,88712.11000000,89170.10000000,1290.70342000
1766390400000,89170.10000000,90118.00000000,89093.44000000,89945.43000000,2622.90199000
1766404800000,89945.43000000,90588.23000000,89196.42000000,89726.92000000,3942.72215000
1766419200000,89726.93000000,90127.00000000,87965.76000000,88052.43000000,2609.54930000
1766433600000,88052.42000000,88833.33000000,87911.79000000,88620.79000000,1587.36292000
1766448000000,88620.79000000,88940.00000000,87800.00000000,88170.00000000,1505.70483000
1766462400000,88170.00000000,88368.10000000,87051.52000000,87574.79000000,1996.43062000
1766476800000,87574.78000000,87890.00000000,87297.69000000,87856.65000000,1432.37853000
1766491200000,87856.66000000,87963.03000000,86601.90000000,87443.45000000,3407.99312000
1766505600000,87443.45000000,88275.40000000,87162.39000000,87752.87000000,3220.82979000
1766520000000,87752.88000000,88372.35000000,87180.00000000,87486.00000000,2346.99215000
1766534400000,87486.00000000,87839.66000000,86863.88000000,87336.23000000,1598.88886000
1766548800000,87336.23000000,87458.54000000,86796.65000000,86911.53000000,1349.63742000
1766563200000,86911.53000000,87359.59000000,86724.05000000,87203.94000000,1188.37005000
1766577600000,87203.94000000,87478.59000000,86420.00000000,87049.99000000,2300.52897000
1766592000000,87050.00000000,87670.00000000,86917.25000000,87566.06000000,1746.44928000
1766606400000,87566.07000000,88049.89000000,87516.77000000,87669.45000000,956.96862000
1766620800000,87669.44000000,87967.50000000,87508.52000000,87840.42000000,652.86225000
1766635200000,87840.42000000,87862.20000000,87661.17000000,87837.59000000,568.68423000
1766649600000,87837.59000000,87888.00000000,87251.60000000,87519.44000000,1203.75216000
1766664000000,87519.45000000,88592.74000000,87398.78000000,88371.27000000,1933.47252000
1766678400000,88371.27000000,88478.00000000,87993.21000000,88151.18000000,1039.54656000
1766692800000,88151.19000000,88167.65000000,86934.72000000,87225.27000000,1698.26463000
1766707200000,87225.27000000,89440.00000000,86891.70000000,88844.87000000,4964.62578000
1766721600000,88844.88000000,89567.75000000,88347.45000000,88470.75000000,3154.47608000
1766736000000,88470.75000000,88918.59000000,88414.81000000,88533.42000000,1250.32549000
1766750400000,88533.43000000,89050.00000000,86655.08000000,87137.81000000,5932.37434000
1766764800000,87137.81000000,87580.29000000,86818.18000000,87501.83000000,1940.76351000
1766779200000,87501.83000000,87792.70000000,87321.40000000,87369.56000000,1102.04985000
1766793600000,87369.56000000,87532.00000000,87253.05000000,87514.22000000,675.35016000
1766808000000,87514.23000000,87702.00000000,87417.93000000,87539.26000000,515.35353000
1766822400000,87539.26000000,87677.00000000,87370.73000000,87475.98000000,1077.75463000
1766836800000,87475.99000000,87589.99000000,87308.05000000,87551.25000000,749.39054000
1766851200000,87551.26000000,87591.00000000,87442.08000000,87569.39000000,566.59122000
1766865600000,87569.39000000,87984.00000000,87499.99000000,87877.01000000,885.11148000
1766880000000,87877.00000000,87961.37000000,87705.97000000,87740.01000000,672.08653000
1766894400000,87740.00000000,87837.99000000,87614.79000000,87730.85000000,442.23022000
1766908800000,87730.86000000,88010.00000000,87720.00000000,87883.25000000,760.04376000
1766923200000,87883.25000000,88088.75000000,87794.86000000,87836.27000000,821.25662000
1766937600000,87836.27000000,87931.59000000,87500.26000000,87520.75000000,881.83702000
1766952000000,87520.75000000,88049.53000000,87435.00000000,87952.71000000,868.83870000
1766966400000,87952.71000000,90169.06000000,87813.17000000,90123.55000000,4759.05691000
1766980800000,90123.55000000,90406.08000000,89507.03000000,89617.71000000,3502.98691000
1766995200000,89617.71000000,89825.01000000,87567.65000000,87567.66000000,4608.77018000
1767009600000,87567.65000000,88190.71000000,86806.50000000,87691.62000000,4178.35066000
1767024000000,87691.62000000,87996.22000000,87312.34000000,87366.23000000,1457.68333000
1767038400000,87366.23000000,87597.59000000,87071.49000000,87237.13000000,1388.13776000
1767052800000,87237.13000000,87423.65000000,86845.66000000,87379.00000000,1520.57005000
1767067200000,87378.99000000,87600.00000000,87157.07000000,87502.85000000,1077.59137000
1767081600000,87502.85000000,88224.76000000,87502.84000000,87903.89000000,2468.25039000
1767096000000,87903.89000000,89159.52000000,87834.01000000,89016.35000000,3882.44573000
1767110400000,89016.36000000,89400.00000000,87960.20000000,88226.16000000,2912.38545000
1767124800000,88226.15000000,88573.65000000,87886.46000000,88485.49000000,1244.66702000
1767139200000,88485.50000000,88819.80000000,88172.15000000,88453.04000000,1131.98072000
1767153600000,88453.04000000,88638.76000000,88325.06000000,88613.12000000,972.41187000
1767168000000,88613.11000000,89046.60000000,88393.52000000,89011.52000000,1674.66744000
1767182400000,89011.51000000,89200.00000000,87766.59000000,87953.97000000,3261.85615000
1767196800000,87953.97000000,88053.49000000,87400.41000000,87541.85000000,2936.14316000
1767211200000,87541.85000000,87879.04000000,87250.00000000,87648.22000000,1581.56113000
1767225600000,87648.21000000,88088.10000000,87632.74000000,87846.02000000,833.74412000
1767240000000,87846.01000000,87854.81000000,87550.43000000,87631.88000000,1108.52485000
1767254400000,87631.88000000,88024.64000000,87631.87000000,88024.64000000,819.82493000
1767268800000,88024.64000000,88113.45000000,87810.66000000,88032.18000000,1005.89204000
1767283200000,88032.17000000,88500.00000000,87879.03000000,88391.15000000,1140.33499000
1767297600000,88391.16000000,88919.45000000,88240.00000000,88839.04000000,1371.25040000
1767312000000,88839.05000000,89120.01000000,88379.88000000,88950.65000000,1615.06136000
1767326400000,88950.64000000,89079.44000000,88576.56000000,88857.61000000,1190.31720000
1767340800000,88857.60000000,89942.44000000,88758.94000000,89502.95000000,3334.56621000
1767355200000,89502.94000000,90135.00000000,88459.96000000,89418.11000000,4573.84370000
1767369600000,89418.10000000,90961.81000000,89205.92000000,89897.23000000,5155.47201000
1767384000000,89897.23000000,90400.00000000,89636.77000000,89995.13000000,1527.71253000
1767398400000,89995.14000000,90418.32000000,89966.48000000,90321.22000000,1026.19409000
1767412800000,90321.23000000,90480.62000000,89314.01000000,89577.13000000,1777.41680000
1767427200000,89577.13000000,89982.11000000,89420.75000000,89752.74000000,1301.10920000
1767441600000,89752.75000000,90249.99000000,89664.93000000,89969.31000000,1115.15116000
1767456000000,89969.31000000,90219.67000000,89918.59000000,90123.77000000,516.07827000
1767470400000,90123.76000000,90741.16000000,90017.23000000,90628.01000000,1321.51764000
1767484800000,90628.01000000,91610.17000000,90628.00000000,91236.78000000,2719.43418000
1767499200000,91236.78000000,91810.00000000,91183.15000000,91532.00000000,1833.66412000
1767513600000,91532.00000000,91620.50000000,91174.46000000,91300.00000000,2596.25909000
1767528000000,91300.01000000,91419.22000000,91014.10000000,91334.94000000,1316.31831000
1767542400000,91334.94000000,91455.90000000,90863.47000000,91138.07000000,1140.52954000
1767556800000,91138.06000000,91590.00000000,91132.00000000,91529.73000000,820.32446000
1767571200000,91529.74000000,93388.00000000,91514.81000000,92878.22000000,5548.56251000
1767585600000,92878.22000000,92947.87000000,92155.00000000,92520.63000000,1838.86690000
1767600000000,92520.63000000,93151.00000000,92320.17000000,93134.26000000,2498.18846000
1767614400000,93134.25000000,94000.00000000,92407.13000000,93957.73000000,4224.09624000
1767628800000,93957.74000000,94500.00000000,93250.00000000,94303.40000000,4190.38211000
1767643200000,94303.40000000,94789.08000000,93800.00000000,93859.71000000,2373.49962000
1767657600000,93859.71000000,94161.86000000,93529.18000000,93769.24000000,1527.94713000
1767672000000,93769.25000000,94000.00000000,93137.98000000,93255.08000000,2037.39443000
1767686400000,93255.08000000,93895.00000000,93167.29000000,93840.00000000,1360.24604000
1767700800000,93839.99000000,94444.44000000,93352.01000000,93648.99000000,3747.64759000
1767715200000,93649.00000000,93775.60000000,91262.94000000,92104.50000000,6154.50415000
1767729600000,92104.49000000,93845.03000000,92098.29000000,93747.97000000,3718.67895000
1767744000000,93747.97000000,93747.97000000,92236.07000000,92815.83000000,2673.21579000
1767758400000,92815.83000000,92930.35000000,92500.00000000,92879.13000000,1043.57297000
1767772800000,92879.14000000,92961.53000000,91600.00000000,92087.21000000,2601.79745000
1767787200000,92087.21000000,92299.40000000,91024.00000000,91349.96000000,3623.32777000
1767801600000,91349.95000000,91790.00000000,90675.52000000,91186.07000000,2653.80915000
1767816000000,91186.07000000,91489.60000000,90778.32000000,91364.16000000,1680.76712000
1767830400000,91364.16000000,91687.99000000,90616.36000000,90813.40000000,1794.84191000
1767844800000,90813.40000000,91188.00000000,89641.84000000,90548.02000000,3107.77644000
1767859200000,90548.02000000,90917.22000000,89777.25000000,90226.77000000,2431.28077000
1767873600000,90226.77000000,90847.52000000,89311.00000000,90781.57000000,4384.25882000
1767888000000,90781.57000000,91469.00000000,90312.89000000,90937.41000000,2656.58930000
1767902400000,90937.42000000,91493.00000000,90568.11000000,91099.99000000,1758.04393000
1767916800000,91100.00000000,91632.10000000,90850.00000000,91220.23000000,1573.86844000
1767931200000,91220.24000000,91236.72000000,90738.34000000,90741.84000000,1493.55612000
1767945600000,90741.85000000,90843.77000000,89694.66000000,90463.11000000,2586.72373000
1767960000000,90463.12000000,92082.55000000,89850.00000000,91176.47000000,5694.36060000
1767974400000,91176.48000000,91783.32000000,90190.00000000,90332.15000000,2962.09045000
1767988800000,90332.14000000,90732.01000000,90113.87000000,90641.28000000,1279.68005000
1768003200000,90641.27000000,90782.23000000,90527.99000000,90626.14000000,528.98968000
1768017600000,90626.15000000,90682.70000000,90408.23000000,90678.50000000,491.62648000
1768032000000,90678.50000000,90832.00000000,90618.28000000,90723.86000000,647.39632000
1768046400000,90723.87000000,90788.78000000,90538.46000000,90665.75000000,414.48163000
1768060800000,90665.76000000,90746.00000000,90504.55000000,90626.54000000,530.14761000
1768075200000,90626.54000000,90659.03000000,90404.00000000,90504.70000000,491.47550000
1768089600000,90504.70000000,90737.95000000,90451.10000000,90733.50000000,463.88039000
1768104000000,90733.49000000,90850.00000000,90585.34000000,90710.79000000,546.84342000
1768118400000,90710.80000000,90816.00000000,90610.27000000,90754.99000000,694.37617000
1768132800000,90754.99000000,91191.50000000,90708.25000000,90875.79000000,1144.02813000
1768147200000,90875.79000000,91283.89000000,90673.30000000,90690.80000000,961.40735000
1768161600000,90690.81000000,91041.79000000,90236.00000000,91013.65000000,1666.60048000
1768176000000,91013.66000000,92519.95000000,90700.29000000,91808.12000000,3786.46912000
1768190400000,91808.12000000,92290.81000000,91381.36000000,91408.09000000,1706.23351000
1768204800000,91408.09000000,91630.13000000,90370.00000000,90620.96000000,2761.14204000
1768219200000,90620.95000000,91665.00000000,90128.44000000,91665.00000000,2904.06995000
1768233600000,91664.99000000,92332.00000000,91000.53000000,91861.27000000,3629.97324000
1768248000000,91861.27000000,92046.23000000,90938.20000000,91296.20000000,1400.19482000
1768262400000,91296.20000000,91546.08000000,91042.66000000,91408.91000000,1312.52459000
1768276800000,91408.90000000,92275.38000000,91350.71000000,91942.00000000,2568.59009000
1768291200000,91941.99000000,92672.11000000,91924.27000000,92000.74000000,2545.21662000
1768305600000,92000.73000000,93450.00000000,91787.61000000,93449.99000000,4336.89557000
1768320000000,93449.99000000,94231.82000000,93078.31000000,94226.84000000,4752.59807000
1768334400000,94226.85000000,96495.00000000,94062.00000000,95414.00000000,7505.68988000
1768348800000,95413.99000000,95722.01000000,95116.03000000,95720.99000000,2381.89992000
1768363200000,95720.99000000,95799.22000000,94559.28000000,95205.10000000,2873.63420000
1768377600000,95205.11000000,95315.15000000,94737.95000000,94792.99000000,1756.03488000
1768392000000,94793.00000000,97084.68000000,94680.67000000,96764.57000000,6031.62524000
1768406400000,96764.57000000,97777.00000000,96246.56000000,97267.42000000,6680.63165000
1768420800000,97267.42000000,97924.49000000,96772.02000000,96951.78000000,3128.06839000
1768435200000,96951.78000000,97000.00000000,95777.00000000,95985.10000000,2821.68199000
1768449600000,95985.11000000,96760.15000000,95952.89000000,96630.48000000,2056.29256000
1768464000000,96630.47000000,97193.34000000,96289.98000000,96581.08000000,2793.34386000
1768478400000,96581.07000000,97165.03000000,95435.91000000,96737.04000000,4818.18164000
1768492800000,96737.04000000,97163.00000000,95183.13000000,95516.01000000,7868.89039000
1768507200000,95516.01000000,95871.00000000,95134.48000000,95604.80000000,1367.42325000
1768521600000,95604.81000000,95855.12000000,95321.58000000,95354.69000000,1207.14110000
1768536000000,95354.69000000,95816.83000000,95133.03000000,95653.16000000,2294.92600000
1768550400000,95653.16000000,95871.47000000,95261.43000000,95429.09000000,1614.38797000
1768564800000,95429.09000000,95809.08000000,94293.46000000,94585.98000000,3014.13280000
1768579200000,94585.99000000,95215.74000000,94508.00000000,95002.09000000,1854.59442000
1768593600000,95002.09000000,95600.00000000,94682.00000000,95550.94000000,1182.53231000
1768608000000,95550.94000000,95578.20000000,95200.00000000,95372.95000000,520.98136000
1768622400000,95372.94000000,95373.64000000,95041.70000000,95101.67000000,558.53587000
1768636800000,95101.67000000,95323.86000000,95021.67000000,95323.86000000,614.83515000
1768651200000,95323.85000000,95639.45000000,95198.81000000,95573.64000000,1450.99515000
1768665600000,95573.65000000,95576.14000000,95212.25000000,95291.38000000,636.49063000
1768680000000,95291.37000000,95412.86000000,95050.00000000,95147.77000000,498.96321000
1768694400000,95147.77000000,95250.00000000,94876.33000000,95200.29000000,721.03445000
1768708800000,95200.29000000,95260.00000000,95028.27000000,95028.27000000,705.29271000
1768723200000,95028.27000000,95295.39000000,95021.44000000,95168.06000000,960.00602000
1768737600000,95168.06000000,95376.24000000,94910.00000000,95119.28000000,1177.17902000
1768752000000,95119.27000000,95521.71000000,95073.02000000,95380.99000000,921.46243000
1768766400000,95380.99000000,95531.12000000,93615.40000000,93673.14000000,2410.20356000
1768780800000,93673.14000000,93673.14000000,91910.20000000,92690.09000000,6141.54249000
1768795200000,92690.08000000,92861.41000000,92385.07000000,92841.62000000,1712.23708000
1768809600000,92841.62000000,93368.44000000,92702.56000000,93191.96000000,1908.98628000
1768824000000,93191.96000000,93226.44000000,92700.00000000,93068.62000000,1798.82427000
1768838400000,93068.62000000,93420.00000000,92930.00000000,93105.85000000,1153.18382000
1768852800000,93105.85000000,93342.36000000,92158.48000000,92631.00000000,1580.75353000
1768867200000,92630.99000000,92870.00000000,92264.70000000,92434.92000000,1260.14088000
1768881600000,92434.93000000,92470.37000000,90771.78000000,91177.98000000,4648.13308000
1768896000000,91177.99000000,91442.88000000,90693.00000000,91218.99000000,2254.13020000
1768910400000,91218.99000000,91371.11000000,89859.06000000,90684.95000000,5038.30665000
1768924800000,90684.95000000,90974.49000000,89292.48000000,89725.76000000,4114.75823000
1768939200000,89725.77000000,89854.20000000,87895.98000000,88427.66000000,4691.85706000
1768953600000,88427.66000000,89598.80000000,88250.00000000,89432.33000000,2980.55061000
1768968000000,89432.33000000,90120.44000000,89093.28000000,89213.95000000,2049.62852000
1768982400000,89213.96000000,89493.46000000,88700.00000000,88789.99000000,2010.92900000
1768996800000,88789.99000000,90574.00000000,88196.72000000,90288.04000000,4684.20136000
1769011200000,90288.04000000,90450.00000000,87263.53000000,90355.56000000,6425.20187000
1769025600000,90355.56000000,90377.00000000,89344.98000000,89454.73000000,2466.99236000
1769040000000,89454.73000000,90359.99000000,89454.72000000,89899.51000000,1561.80923000
1769054400000,89899.51000000,90215.79000000,89802.00000000,89818.79000000,1213.67268000
1769068800000,89818.79000000,90150.00000000,89760.00000000,89941.26000000,1125.90639000
1769083200000,89941.26000000,90340.00000000,88515.37000000,89000.01000000,3512.25665000
1769097600000,89000.00000000,89924.46000000,88676.95000000,89777.90000000,2304.40726000
1769112000000,89777.89000000,89946.13000000,89140.13000000,89559.67000000,1107.45271000
1769126400000,89559.68000000,89979.97000000,89450.48000000,89924.78000000,1144.14106000
1769140800000,89924.78000000,90088.94000000,89400.00000000,89549.45000000,1729.71757000
1769155200000,89549.45000000,89632.18000000,88860.44000000,89202.48000000,1992.68771000
1769169600000,89202.47000000,89865.53000000,88578.36000000,89761.61000000,2836.93325000
1769184000000,89761.61000000,91224.99000000,89489.00000000,89982.79000000,4430.77605000
1769198400000,89982.79000000,90156.06000000,89200.68000000,89600.26000000,1784.23355000
1769212800000,89600.26000000,89957.39000000,89424.39000000,89770.02000000,760.97660000
1769227200000,89770.03000000,89853.38000000,89572.81000000,89620.10000000,954.94709000
1769241600000,89620.11000000,89686.43000000,89577.97000000,89595.40000000,513.59579000
1769256000000,89595.41000000,89595.41000000,89171.75000000,89275.77000000,1016.91516000
1769270400000,89275.77000000,89461.40000000,89162.08000000,89331.36000000,560.08706000
1769284800000,89331.36000000,89489.84000000,89215.59000000,89225.34000000,420.04567000
1769299200000,89225.34000000,89319.13000000,88838.72000000,88960.35000000,949.82753000
1769313600000,88960.36000000,89090.13000000,88635.84000000,88659.99000000,1365.03813000
1769328000000,88659.99000000,88760.00000000,88136.00000000,88570.17000000,1276.76207000
1769342400000,88570.17000000,88971.89000000,88340.75000000,88446.50000000,1271.25718000
1769356800000,88446.51000000,88448.85000000,86194.85000000,86495.16000000,6164.82689000
1769371200000,86495.17000000,87013.79000000,86074.72000000,86670.36000000,3398.50839000
1769385600000,86670.36000000,87973.11000000,86509.63000000,87282.05000000,4005.56746000
1769400000000,87282.04000000,88074.48000000,87244.27000000,88000.64000000,3558.66159000
1769414400000,88000.64000000,88424.45000000,87600.69000000,87855.00000000,1820.37120000
1769428800000,87855.01000000,88860.00000000,87325.03000000,87641.41000000,4437.30175000
1769443200000,87641.41000000,88537.95000000,87035.51000000,88013.19000000,2334.22752000
1769457600000,88013.19000000,88659.09000000,87542.05000000,88347.08000000,1610.38501000
1769472000000,88347.08000000,88898.00000000,88194.82000000,88788.00000000,1649.23753000
1769486400000,88787.99000000,89010.00000000,88278.03000000,88320.41000000,1448.31937000
1769500800000,88320.41000000,88397.85000000,87743.52000000,87992.74000000,1462.63908000
1769515200000,87992.74000000,88474.23000000,87578.67000000,88047.46000000,2499.94350000
1769529600000,88047.46000000,88819.89000000,87304.33000000,88408.77000000,3647.91175000
1769544000000,88408.78000000,89523.16000000,88373.49000000,89250.00000000,2417.35302000
1769558400000,89249.99000000,89497.96000000,88985.00000000,89126.67000000,1094.38637000
1769572800000,89126.68000000,89400.00000000,88840.00000000,89134.35000000,1349.92307000
1769587200000,89134.35000000,90156.72000000,88833.65000000,90080.00000000,2787.07391000
1769601600000,90079.99000000,90488.00000000,88904.61000000,89479.66000000,4428.88675000
1769616000000,89479.66000000,90600.00000000,89006.36000000,89402.58000000,3310.08413000
1769630400000,89402.57000000,89896.00000000,88878.01000000,89299.99000000,1361.83079000
1769644800000,89300.00000000,89348.00000000,87704.00000000,88053.71000000,2923.10988000
1769659200000,88053.71000000,88430.05000000,87901.23000000,88352.97000000,1476.91111000
1769673600000,88352.96000000,88500.00000000,87750.01000000,87846.50000000,2299.04104000
1769688000000,87846.50000000,88182.29000000,84366.56000000,84934.02000000,10107.55386000
1769702400000,84934.02000000,85638.30000000,83383.33000000,84012.11000000,10787.89043000
1769716800000,84012.11000000,84737.69000000,83824.90000000,84650.16000000,2836.87569000
1769731200000,84650.16000000,84735.75000000,81118.00000000,82676.43000000,12245.12313000
1769745600000,82676.42000000,83332.20000000,82056.08000000,82816.98000000,4789.41822000
1769760000000,82816.98000000,83314.85000000,82160.00000000,83151.36000000,3255.07609000
1769774400000,83151.36000000,83797.99000000,82382.01000000,82883.94000000,4751.88055000
1769788800000,82882.84000000,84621.16000000,81871.37000000,84242.99000000,6116.25601000
1769803200000,84243.00000000,84523.11000000,83539.20000000,84260.49000000,4038.09393000
1769817600000,84260.50000000,84270.02000000,83815.02000000,84022.69000000,1727.33956000
1769832000000,84022.70000000,84146.22000000,83404.67000000,83546.81000000,1349.94572000
1769846400000,83546.82000000,83629.08000000,82560.75000000,83020.00000000,2408.78889000
1769860800000,83020.00000000,83140.00000000,80825.76000000,81302.15000000,6811.82932000
1769875200000,81302.16000000,82200.00000000,75719.90000000,77750.01000000,22029.61555000
1769889600000,77750.01000000,79240.00000000,77092.34000000,78741.09000000,5164.37229000
1769904000000,78741.10000000,79424.00000000,78284.00000000,78868.28000000,4258.38184000
1769918400000,78868.29000000,79119.30000000,77967.69000000,78343.00000000,2563.15420000
1769932800000,78343.00000000,79220.72000000,78148.10000000,78743.56000000,2450.30839000
1769947200000,78743.57000000,78768.68000000,76761.98000000,77593.40000000,4807.63006000
1769961600000,77593.40000000,78443.10000000,77000.01000000,77174.78000000,2883.53084000
1769976000000,77174.77000000,77779.63000000,75700.00000000,76968.21000000,8432.47635000
1769990400000,76968.22000000,78231.26000000,74604.00000000,76292.98000000,11449.76567000
1770004800000,76292.98000000,76958.00000000,74911.14000000,76660.79000000,9568.39849000
1770019200000,76660.78000000,77970.62000000,76628.28000000,77759.99000000,5651.50758000
1770033600000,77760.00000000,79360.00000000,77564.62000000,78850.06000000,7522.81805000
1770048000000,78850.06000000,79288.28000000,78283.27000000,78341.50000000,5462.07718000
1770062400000,78341.50000000,78962.78000000,77888.00000000,78738.61000000,2619.02319000
1770076800000,78738.60000000,79186.81000000,77644.09000000,78753.32000000,4012.52848000
1770091200000,78753.32000000,78999.99000000,77950.00000000,78794.67000000,2886.84787000
1770105600000,78794.67000000,79084.29000000,77950.00000000,78079.50000000,2794.97467000
1770120000000,78079.50000000,78458.89000000,77055.54000000,78132.33000000,5543.61818000
1770134400000,78132.34000000,78134.53000000,72945.50000000,74935.00000000,18839.63770000
1770148800000,74935.00000000,76960.00000000,74586.54000000,75770.21000000,5042.50199000
1770163200000,75770.21000000,76971.52000000,75467.22000000,76698.17000000,3573.68321000
1770177600000,76698.17000000,76830.69000000,76105.30000000,76514.30000000,2837.05050000
1770192000000,76514.30000000,76607.69000000,75666.00000000,76017.25000000,2912.66082000
1770206400000,76017.25000000,76260.85000000,73794.11000000,74136.36000000,8952.94529000
1770220800000,74136.48000000,74249.83000000,72169.00000000,73923.29000000,13944.22381000
1770235200000,73923.30000000,74144.00000000,71888.00000000,73165.83000000,6154.79637000
1770249600000,73165.84000000,73341.18000000,71152.78000000,71223.25000000,8356.43633000
1770264000000,71223.25000000,71622.82000000,70140.00000000,70756.85000000,13229.00492000
1770278400000,70756.86000000,71978.58000000,69922.00000000,70318.35000000,9382.74194000
1770292800000,70318.35000000,70872.04000000,66720.15000000,67489.07000000,25214.85527000
1770307200000,67489.08000000,68681.81000000,65200.00000000,65265.65000000,21297.23210000
1770321600000,65265.66000000,65700.00000000,62345.00000000,62909.86000000,28818.55843000
1770336000000,62909.87000000,66010.00000000,60000.00000000,64168.33000000,28980.40325000
1770350400000,64168.33000000,66826.50000000,63914.62000000,64856.00000000,13204.36329000
1770364800000,64856.00000000,66755.13000000,64500.00000000,66631.32000000,9652.84585000
1770379200000,66631.32000000,69192.00000000,66114.49000000,68626.00000000,17606.82465000
1770393600000,68625.99000000,71500.00000000,68428.19000000,70731.46000000,17283.69927000
1770408000000,70731.45000000,71751.33000000,69837.35000000,70580.26000000,5811.07900000
1770422400000,70580.26000000,70928.75000000,69718.00000000,70918.99000000,4687.77364000
1770436800000,70918.99000000,71690.07000000,67300.00000000,68087.14000000,13271.32166000
1770451200000,68087.13000000,68790.00000000,67582.48000000,67972.65000000,8689.01558000
1770465600000,67972.65000000,69999.99000000,67901.89000000,69151.50000000,9290.84055000
1770480000000,69151.50000000,69898.00000000,68531.50000000,69373.61000000,6393.31777000
1770494400000,69373.61000000,69728.83000000,68787.34000000,69289.38000000,1923.21116000
1770508800000,69289.37000000,69696.57000000,68888.00000000,69099.99000000,2026.40929000
1770523200000,69100.00000000,69719.07000000,68952.01000000,69710.69000000,2878.17149000
1770537600000,69710.69000000,71220.00000000,69514.15000000,70999.98000000,5309.31519000
1770552000000,70999.99000000,71554.95000000,70707.39000000,71188.99000000,3659.21760000
1770566400000,71188.99000000,71538.05000000,70251.33000000,71422.97000000,2720.17356000
1770580800000,71422.96000000,72271.41000000,70000.00000000,70330.38000000,4827.24455000
1770595200000,70330.38000000,71453.53000000,70068.18000000,71307.56000000,4021.31441000
1770609600000,71307.56000000,71359.37000000,70311.70000000,70422.59000000,2930.60540000
1770624000000,70422.59000000,70608.83000000,68420.58000000,68928.72000000,6108.89766000
1770638400000,68928.71000000,69884.82000000,68308.00000000,69563.37000000,6863.78788000
1770652800000,69563.37000000,71075.31000000,69100.00000000,70957.01000000,6239.20348000
1770667200000,70957.01000000,71126.00000000,69823.52000000,70138.00000000,2988.91959000
1770681600000,70138.00000000,70527.59000000,69208.61000000,69511.83000000,2469.62773000
1770696000000,69511.83000000,69906.50000000,68682.00000000,68919.66000000,3133.48778000
1770710400000,68919.66000000,69417.70000000,68459.89000000,68535.01000000,3589.46371000
1770724800000,68535.02000000,69591.20000000,67800.00000000,69293.37000000,5843.11364000
1770739200000,69293.37000000,69993.65000000,68604.63000000,69062.01000000,3997.49855000
1770753600000,69062.00000000,69136.91000000,68362.00000000,68841.29000000,1340.57931000
1770768000000,68841.28000000,69292.88000000,68011.11000000,68187.99000000,1918.23444000
1770782400000,68188.00000000,68325.00000000,66557.99000000,67032.72000000,5175.02607000
1770796800000,67032.71000000,67134.42000000,66369.49000000,67053.03000000,3914.08731000
1770811200000,67053.03000000,68834.34000000,65756.00000000,66519.73000000,9148.58414000
1770825600000,66519.72000000,67860.44000000,65876.00000000,67586.67000000,5004.87150000
1770840000000,67586.66000000,68369.77000000,66787.70000000,67082.52000000,3557.44256000
1770854400000,67082.52000000,68047.48000000,67055.53000000,67580.99000000,2100.97039000
1770868800000,67581.00000000,67682.69000000,66670.45000000,67217.72000000,2710.60187000
1770883200000,67217.71000000,68299.00000000,66891.60000000,68076.01000000,3668.05630000
1770897600000,68076.01000000,68410.52000000,67014.98000000,67134.74000000,4824.24216000
1770912000000,67134.74000000,67232.04000000,65118.00000000,65788.36000000,7933.48282000
1770926400000,65788.36000000,66488.90000000,65215.06000000,66272.17000000,3034.38929000
1770940800000,66272.17000000,66814.00000000,65872.46000000,66553.08000000,2583.39216000
1770955200000,66553.09000000,66671.62000000,66002.98000000,66208.96000000,2428.41994000
1770969600000,66208.96000000,67226.66000000,66191.52000000,67171.42000000,2201.58479000
1770984000000,67171.41000000,69309.80000000,66867.47000000,68692.12000000,6886.55091000
1770998400000,68692.12000000,69482.97000000,68540.83000000,68938.91000000,4320.62247000
1771012800000,68938.91000000,69079.40000000,68683.32000000,68853.96000000,1823.97928000
1771027200000,68853.97000000,69137.50000000,68768.56000000,68981.99000000,1291.93003000
1771041600000,68982.00000000,69343.00000000,68730.13000000,69219.26000000,2188.37379000
1771056000000,69219.27000000,70560.01000000,69218.71000000,70505.74000000,3530.97709000
1771070400000,70505.74000000,70533.67000000,69064.60000000,69778.28000000,7103.62124000
1771084800000,69778.28000000,69930.90000000,69283.02000000,69873.99000000,2295.28058000
1771099200000,69873.99000000,70250.46000000,69668.05000000,69822.95000000,1704.60120000
1771113600000,69822.94000000,69990.02000000,69251.50000000,69954.50000000,1764.94129000
1771128000000,69954.50000000,70926.42000000,69459.35000000,70828.42000000,4747.14422000
1771142400000,70828.43000000,70983.00000000,70182.31000000,70295.22000000,2073.25418000
1771156800000,70295.22000000,70418.48000000,68772.20000000,69099.99000000,3852.56524000
1771171200000,69100.00000000,69100.00000000,68000.00000000,68286.63000000,8139.52235000
1771185600000,68286.64000000,69078.49000000,68120.00000000,68832.58000000,1712.62480000
1771200000000,68832.59000000,69065.50000000,68143.22000000,68424.82000000,1757.09824000
1771214400000,68424.82000000,68900.00000000,68228.76000000,68587.90000000,1421.86090000
1771228800000,68587.89000000,69060.77000000,68338.90000000,68812.83000000,1609.09509000
1771243200000,68812.84000000,70126.67000000,67294.11000000,67539.52000000,6563.57157000
1771257600000,67539.53000000,68245.34000000,67513.94000000,67913.43000000,2266.56859000
1771272000000,67913.44000000,68978.88000000,67827.11000000,68892.43000000,1897.57095000
1771286400000,68892.43000000,69241.50000000,68387.20000000,68474.90000000,1970.09630000
1771300800000,68474.90000000,68707.49000000,67892.00000000,68388.12000000,1507.90265000
1771315200000,68388.12000000,68479.17000000,67690.00000000,67854.60000000,1702.22977000
1771329600000,67854.60000000,68360.50000000,66621.06000000,67392.05000000,5962.49538000
1771344000000,67392.06000000,68235.39000000,66881.08000000,67793.32000000,4203.96684000
1771358400000,67793.32000000,67928.08000000,67394.00000000,67503.52000000,1142.37827000
1771372800000,67503.52000000,67705.65000000,66892.03000000,67629.11000000,1226.88759000
1771387200000,67629.10000000,68219.81000000,67500.10000000,68106.44000000,1433.81961000
1771401600000,68106.44000000,68476.22000000,67076.90000000,67369.75000000,1922.15458000
1771416000000,67369.75000000,68347.72000000,66717.30000000,67694.01000000,4330.13695000
1771430400000,67694.01000000,67706.94000000,65870.00000000,66177.14000000,4311.92393000
