timestamp,open,high,low,close,volume
1768820400000,93064.88000000,93074.49000000,92969.94000000,92998.43000000,87.62836000
1768821300000,92998.44000000,93157.48000000,92998.43000000,93129.95000000,85.30281000
1768822200000,93129.94000000,93275.84000000,93101.93000000,93232.60000000,65.96600000
1768823100000,93232.61000000,93317.29000000,93180.00000000,93191.96000000,66.43369000
1768824000000,93191.96000000,93191.97000000,93033.98000000,93060.04000000,83.02923000
1768824900000,93060.04000000,93146.10000000,92979.48000000,93017.99000000,314.87790000
1768825800000,93017.99000000,93226.44000000,93017.99000000,93159.03000000,100.10042000
1768826700000,93159.02000000,93192.63000000,93033.49000000,93070.60000000,88.83371000
1768827600000,93070.60000000,93070.61000000,92967.18000000,92991.52000000,71.07522000
1768828500000,92991.51000000,93018.16000000,92807.34000000,92950.00000000,118.77617000
1768829400000,92950.00000000,93151.37000000,92950.00000000,93069.99000000,94.89296000
1768830300000,93069.99000000,93128.51000000,93008.32000000,93031.86000000,42.14169000
1768831200000,93031.85000000,93039.60000000,92802.92000000,92882.62000000,96.67729000
1768832100000,92882.61000000,92986.64000000,92812.77000000,92871.24000000,97.07061000
1768833000000,92871.24000000,92986.05000000,92700.00000000,92800.00000000,152.27546000
1768833900000,92800.01000000,92910.00000000,92751.78000000,92812.43000000,71.87159000
1768834800000,92812.43000000,93032.38000000,92812.43000000,93032.38000000,178.35767000
1768835700000,93032.37000000,93053.90000000,92883.97000000,92920.67000000,99.60118000
1768836600000,92920.67000000,93050.00000000,92912.67000000,92986.74000000,82.29899000
1768837500000,92986.74000000,93081.00000000,92980.45000000,93068.62000000,106.94418000
1768838400000,93068.62000000,93149.49000000,93030.35000000,93046.44000000,102.10629000
1768839300000,93046.44000000,93184.52000000,92994.00000000,93166.93000000,95.35888000
1768840200000,93166.93000000,93250.31000000,93166.92000000,93216.72000000,71.61284000
1768841100000,93216.72000000,93420.00000000,93150.00000000,93301.86000000,110.92405000
1768842000000,93301.85000000,93385.31000000,93150.00000000,93350.00000000,134.70642000
1768842900000,93350.01000000,93389.45000000,93275.83000000,93301.34000000,69.66458000
1768843800000,93301.34000000,93301.35000000,93158.41000000,93196.39000000,66.75125000
1768844700000,93196.38000000,93256.69000000,93170.65000000,93242.99000000,86.48023000
1768845600000,93242.99000000,93259.39000000,93100.00000000,93100.01000000,60.64275000
1768846500000,93100.00000000,93122.57000000,92961.62000000,92981.46000000,81.35001000
1768847400000,92981.46000000,93130.04000000,92930.00000000,93120.09000000,60.10626000
1768848300000,93120.10000000,93129.99000000,93030.78000000,93065.84000000,33.68912000
1768849200000,93065.83000000,93097.48000000,93000.00000000,93082.91000000,49.50814000
1768850100000,93082.91000000,93149.49000000,93047.85000000,93073.98000000,60.69342000
1768851000000,93073.98000000,93140.10000000,93036.20000000,93140.10000000,34.65084000
1768851900000,93140.11000000,93154.32000000,93081.17000000,93105.85000000,34.93874000
1768852800000,93105.85000000,93221.86000000,93105.85000000,93166.47000000,49.44681000
1768853700000,93166.47000000,93274.82000000,93162.57000000,93245.08000000,44.08861000
1768854600000,93245.08000000,93251.56000000,93131.60000000,93131.60000000,57.40754000
1768855500000,93131.60000000,93149.89000000,93084.15000000,93141.94000000,27.54499000
1768856400000,93141.95000000,93342.36000000,93064.40000000,93098.37000000,121.61271000
1768857300000,93098.37000000,93098.38000000,93000.03000000,93039.99000000,38.63775000
1768858200000,93040.00000000,93071.51000000,93007.40000000,93053.89000000,31.47906000
1768859100000,93053.90000000,93053.90000000,93002.85000000,93003.42000000,48.90350000
1768860000000,93003.41000000,93037.28000000,92700.00000000,92850.19000000,114.18803000
1768860900000,92848.17000000,93060.00000000,92848.17000000,92983.85000000,74.09386000
1768861800000,92983.84000000,92983.85000000,92787.43000000,92819.61000000,87.77626000
1768862700000,92819.61000000,92841.81000000,92565.78000000,92565.78000000,97.95112000
1768863600000,92565.78000000,92741.88000000,92218.19000000,92442.23000000,397.53030000
1768864500000,92442.23000000,92555.58000000,92158.48000000,92539.47000000,223.88524000
1768865400000,92539.48000000,92750.00000000,92531.00000000,92653.11000000,108.22139000
1768866300000,92653.11000000,92733.02000000,92588.44000000,92631.00000000,57.98636000
1768867200000,92630.99000000,92870.00000000,92582.01000000,92702.46000000,99.38461000
1768868100000,92702.46000000,92702.46000000,92370.25000000,92465.63000000,117.95193000
1768869000000,92465.63000000,92748.12000000,92454.24000000,92723.45000000,52.94453000
1768869900000,92723.45000000,92749.99000000,92622.12000000,92717.90000000,54.71952000
1768870800000,92717.90000000,92800.01000000,92525.80000000,92726.47000000,74.07844000
1768871700000,92726.47000000,92867.28000000,92661.61000000,92857.18000000,62.40407000
1768872600000,92857.17000000,92857.17000000,92671.54000000,92707.19000000,53.67354000
1768873500000,92707.19000000,92836.28000000,92693.87000000,92716.48000000,61.54894000
1768874400000,92716.47000000,92729.94000000,92450.00000000,92480.80000000,93.81248000
1768875300000,92480.80000000,92539.22000000,92370.68000000,92494.59000000,95.60605000
1768876200000,92494.59000000,92671.55000000,92494.59000000,92614.36000000,57.15443000
1768877100000,92614.35000000,92697.23000000,92511.74000000,92552.16000000,107.79222000
1768878000000,92552.15000000,92650.00000000,92397.03000000,92429.23000000,72.44613000
1768878900000,92429.23000000,92500.00000000,92370.62000000,92377.67000000,94.20970000
1768879800000,92377.67000000,92413.86000000,92264.70000000,92413.85000000,107.44501000
1768880700000,92413.86000000,92497.46000000,92369.26000000,92434.92000000,54.96928000
1768881600000,92434.93000000,92470.37000000,92314.46000000,92314.46000000,65.98526000
1768882500000,92314.46000000,92314.46000000,92202.37000000,92311.77000000,109.78455000
1768883400000,92311.77000000,92415.60000000,92213.26000000,92230.00000000,55.84810000
1768884300000,92230.01000000,92266.16000000,92000.01000000,92062.61000000,132.33828000
1768885200000,92062.62000000,92084.80000000,91357.28000000,91412.07000000,772.23427000
1768886100000,91412.06000000,91747.05000000,91294.11000000,91730.32000000,327.17669000
1768887000000,91730.33000000,91790.68000000,91529.07000000,91640.29000000,211.79987000
1768887900000,91640.29000000,91805.04000000,91620.08000000,91624.18000000,235.01673000
1768888800000,91624.19000000,91625.31000000,91454.38000000,91457.40000000,171.49261000
1768889700000,91457.40000000,91505.03000000,90858.52000000,91275.91000000,978.84575000
1768890600000,91275.90000000,91280.64000000,90828.11000000,91127.82000000,292.07261000
1768891500000,91127.81000000,91139.66000000,90771.78000000,90929.98000000,388.47484000
1768892400000,90929.98000000,91151.64000000,90862.83000000,91037.98000000,311.28076000
1768893300000,91037.98000000,91086.54000000,90941.30000000,91059.12000000,200.56310000
1768894200000,91059.12000000,91220.07000000,91000.00000000,91191.01000000,169.54724000
1768895100000,91191.00000000,91319.05000000,91150.00000000,91177.98000000,225.67242000
1768896000000,91177.99000000,91178.57000000,90820.00000000,91004.59000000,300.51403000
1768896900000,91004.60000000,91255.70000000,90911.53000000,91203.32000000,275.01434000
1768897800000,91203.33000000,91203.33000000,90693.00000000,90855.29000000,311.11520000
1768898700000,90855.29000000,91129.89000000,90800.00000000,91116.00000000,197.15293000
1768899600000,91116.00000000,91116.00000000,90980.78000000,91058.34000000,96.45948000
1768900500000,91058.35000000,91082.46000000,90933.46000000,91046.04000000,99.82922000
1768901400000,91046.04000000,91055.80000000,90899.00000000,91015.01000000,87.28793000
1768902300000,91015.02000000,91066.15000000,90949.84000000,91036.25000000,98.37606000
1768903200000,91036.25000000,91172.36000000,90998.08000000,91172.35000000,165.74306000
1768904100000,91172.36000000,91282.80000000,91162.00000000,91282.79000000,100.21192000
1768905000000,91282.80000000,91294.11000000,91148.00000000,91233.86000000,87.57576000
1768905900000,91233.86000000,91283.30000000,91213.52000000,91269.58000000,61.62712000
1768906800000,91269.57000000,91442.88000000,91256.38000000,91357.08000000,116.69519000
1768907700000,91357.07000000,91436.53000000,91322.48000000,91401.12000000,69.31470000
1768908600000,91401.12000000,91401.12000000,91260.01000000,91336.00000000,67.69788000
1768909500000,91336.00000000,91340.31000000,91214.36000000,91218.99000000,119.51538000
1768910400000,91218.99000000,91318.94000000,91185.75000000,91284.12000000,89.64273000
1768911300000,91284.12000000,91305.44000000,91027.74000000,91148.82000000,248.50485000
1768912200000,91148.83000000,91236.78000000,91148.82000000,91169.24000000,108.96014000
1768913100000,91169.24000000,91280.32000000,91169.23000000,91280.31000000,81.72968000
1768914000000,91280.31000000,91289.64000000,90886.69000000,90920.83000000,233.59660000
1768914900000,90920.83000000,91057.30000000,90881.45000000,90881.45000000,132.21217000
1768915800000,90881.45000000,91110.44000000,90777.00000000,91024.79000000,214.99332000
1768916700000,91024.80000000,91066.15000000,90926.85000000,90958.88000000,141.96683000
1768917600000,90958.89000000,91142.14000000,90958.88000000,91096.48000000,152.19005000
1768918500000,91096.48000000,91096.48000000,90727.93000000,90990.11000000,218.67416000
1768919400000,90990.10000000,91371.11000000,90676.61000000,91066.14000000,435.53815000
1768920300000,91066.15000000,91069.20000000,90272.53000000,90531.15000000,1002.76618000
1768921200000,90531.15000000,90600.00000000,89859.06000000,90304.51000000,1073.40124000
1768922100000,90304.51000000,90738.63000000,90023.36000000,90625.99000000,471.56119000
1768923000000,90625.99000000,90808.04000000,90527.42000000,90551.22000000,230.99500000
1768923900000,90551.23000000,90684.95000000,90360.00000000,90684.95000000,201.57436000
1768924800000,90684.95000000,90855.29000000,90517.47000000,90757.25000000,221.66361000
1768925700000,90757.25000000,90974.49000000,90559.56000000,90624.58000000,190.86934000
1768926600000,90624.58000000,90642.10000000,90096.30000000,90128.04000000,279.64186000
1768927500000,90128.03000000,90252.08000000,90023.99000000,90165.51000000,203.23793000
1768928400000,90165.50000000,90499.67000000,90064.25000000,90456.09000000,250.04488000
1768929300000,90456.08000000,90505.68000000,90193.11000000,90207.17000000,153.32667000
1768930200000,90207.17000000,90207.18000000,89688.00000000,89688.01000000,626.45854000
1768931100000,89688.01000000,89842.84000000,89431.10000000,89775.46000000,522.87431000
1768932000000,89775.47000000,89908.03000000,89720.00000000,89908.03000000,193.45222000
1768932900000,89908.02000000,89958.00000000,89651.38000000,89733.13000000,204.13365000
1768933800000,89733.12000000,89756.43000000,89450.00000000,89512.65000000,275.42793000
1768934700000,89512.65000000,89629.67000000,89395.07000000,89501.00000000,212.27499000
1768935600000,89501.00000000,89795.45000000,89439.23000000,89575.80000000,202.18418000
1768936500000,89575.80000000,89686.00000000,89483.40000000,89483.41000000,156.45478000
1768937400000,89483.41000000,89550.00000000,89292.48000000,89444.68000000,282.91318000
1768938300000,89444.68000000,89788.00000000,89367.78000000,89725.76000000,139.80016000
1768939200000,89725.77000000,89725.77000000,89400.00000000,89400.01000000,154.58604000
1768940100000,89400.01000000,89838.88000000,89400.01000000,89768.57000000,194.30715000
1768941000000,89768.57000000,89801.21000000,89605.68000000,89651.46000000,145.48174000
1768941900000,89651.45000000,89854.20000000,89532.00000000,89733.99000000,240.64700000
1768942800000,89734.00000000,89829.11000000,89622.28000000,89803.79000000,164.11618000
1768943700000,89803.78000000,89803.78000000,89586.45000000,89626.97000000,80.17980000
1768944600000,89626.96000000,89626.96000000,89472.54000000,89538.90000000,127.76359000
1768945500000,89538.90000000,89584.83000000,89428.00000000,89476.01000000,73.50988000
1768946400000,89476.01000000,89635.12000000,89451.50000000,89635.11000000,101.21608000
1768947300000,89635.12000000,89645.56000000,89472.54000000,89510.67000000,66.40986000
1768948200000,89510.67000000,89527.32000000,87900.00000000,88579.02000000,1593.44889000
1768949100000,88579.03000000,88669.90000000,88198.00000000,88509.18000000,333.02286000
1768950000000,88509.18000000,88509.18000000,88079.11000000,88212.01000000,555.79422000
1768950900000,88212.01000000,88276.41000000,87895.98000000,88120.02000000,422.89018000
1768951800000,88120.01000000,88521.37000000,88120.01000000,88492.58000000,274.05080000
1768952700000,88492.57000000,88534.21000000,88342.52000000,88427.66000000,164.43279000
1768953600000,88427.66000000,88611.11000000,88382.01000000,88419.03000000,167.37792000
1768954500000,88419.02000000,88617.75000000,88250.00000000,88561.23000000,235.75473000
1768955400000,88561.24000000,88933.91000000,88509.66000000,88851.18000000,491.02408000
1768956300000,88851.18000000,88982.00000000,88825.36000000,88936.01000000,158.77451000
1768957200000,88936.01000000,89113.33000000,88850.00000000,89092.91000000,182.11680000
1768958100000,89092.90000000,89138.29000000,88926.20000000,89078.34000000,129.79954000
1768959000000,89078.34000000,89130.58000000,88984.72000000,89037.37000000,122.48733000
1768959900000,89037.37000000,89165.20000000,88984.72000000,89020.91000000,67.71771000
1768960800000,89020.91000000,89381.86000000,89020.91000000,89271.69000000,453.50477000
1768961700000,89271.70000000,89311.16000000,89101.00000000,89117.04000000,101.96710000
1768962600000,89117.05000000,89184.95000000,89000.00000000,89089.99000000,106.66065000
1768963500000,89089.99000000,89180.00000000,89034.19000000,89048.57000000,222.80784000
1768964400000,89048.56000000,89246.43000000,89046.00000000,89225.34000000,165.24042000
1768965300000,89225.34000000,89290.39000000,89150.00000000,89278.93000000,135.94007000
1768966200000,89278.93000000,89598.80000000,89234.18000000,89554.48000000,172.54708000
1768967100000,89554.47000000,89554.47000000,89400.16000000,89432.33000000,66.83006000
1768968000000,89432.33000000,89489.87000000,89362.55000000,89362.55000000,120.78728000
1768968900000,89362.55000000,89500.00000000,89354.72000000,89500.00000000,32.73399000
1768969800000,89499.99000000,89579.24000000,89405.99000000,89579.23000000,69.31755000
1768970700000,89579.23000000,89630.00000000,89448.88000000,89448.89000000,77.44894000
1768971600000,89448.89000000,89583.73000000,89437.25000000,89583.72000000,47.35392000
1768972500000,89583.72000000,89630.00000000,89531.40000000,89598.28000000,73.50515000
1768973400000,89598.29000000,89935.19000000,89598.28000000,89928.79000000,160.11602000
1768974300000,89928.79000000,90120.44000000,89904.22000000,89950.04000000,273.60871000
1768975200000,89950.03000000,89950.04000000,89800.00000000,89908.02000000,116.31059000
1768976100000,89908.02000000,89917.57000000,89817.96000000,89885.39000000,106.59480000
1768977000000,89885.38000000,89885.39000000,89598.28000000,89616.78000000,77.08022000
1768977900000,89616.77000000,89649.63000000,89491.96000000,89649.62000000,69.02053000
1768978800000,89649.63000000,89767.29000000,89500.00000000,89527.11000000,131.02773000
1768979700000,89527.11000000,89678.98000000,89527.11000000,89628.97000000,58.43616000
1768980600000,89628.96000000,89628.96000000,89176.47000000,89228.16000000,359.05190000
1768981500000,89228.17000000,89265.52000000,89093.28000000,89213.95000000,277.23503000
1768982400000,89213.96000000,89300.00000000,89142.00000000,89163.12000000,250.45151000
1768983300000,89163.12000000,89385.40000000,89163.11000000,89256.88000000,220.47381000
1768984200000,89256.89000000,89295.85000000,89000.00000000,89035.36000000,119.64073000
1768985100000,89035.35000000,89246.43000000,89035.30000000,89197.35000000,132.56377000
1768986000000,89197.36000000,89304.89000000,89174.61000000,89296.44000000,58.86140000
1768986900000,89296.44000000,89454.11000000,89296.43000000,89409.42000000,73.74901000
1768987800000,89409.43000000,89493.46000000,89350.69000000,89414.67000000,85.36746000
1768988700000,89414.67000000,89431.29000000,89080.00000000,89112.30000000,89.92188000
1768989600000,89112.30000000,89343.47000000,89080.00000000,89303.77000000,93.27414000
1768990500000,89303.77000000,89391.00000000,89283.36000000,89338.12000000,74.24140000
1768991400000,89338.12000000,89395.08000000,89241.48000000,89310.63000000,84.00017000
1768992300000,89310.63000000,89321.97000000,89240.00000000,89248.99000000,76.84794000
1768993200000,89248.99000000,89308.45000000,89158.60000000,89308.44000000,66.50470000
1768994100000,89308.45000000,89382.00000000,89283.55000000,89325.55000000,52.87397000
1768995000000,89325.54000000,89340.75000000,89236.49000000,89281.49000000,85.86112000
1768995900000,89281.50000000,89296.69000000,88700.00000000,88789.99000000,446.29599000
1768996800000,88789.99000000,88849.39000000,88196.72000000,88384.03000000,769.96693000
1768997700000,88384.03000000,88479.88000000,88210.64000000,88356.73000000,212.65996000
1768998600000,88356.74000000,88671.90000000,88292.22000000,88626.57000000,181.53333000
1768999500000,88626.58000000,88763.77000000,88528.95000000,88736.31000000,107.19074000
1769000400000,88736.31000000,89000.00000000,88675.25000000,88943.00000000,134.17430000
1769001300000,88943.00000000,88965.10000000,88765.57000000,88850.12000000,138.46000000
1769002200000,88850.12000000,89020.32000000,88682.63000000,88715.45000000,215.58034000
1769003100000,88715.46000000,88870.35000000,88558.67000000,88672.64000000,247.61789000
1769004000000,88672.64000000,89702.85000000,88611.15000000,89578.80000000,492.94216000
1769004900000,89578.80000000,89698.66000000,89331.07000000,89594.54000000,392.12125000
1769005800000,89594.54000000,89993.88000000,89482.80000000,89670.01000000,426.28164000
1769006700000,89670.00000000,89942.85000000,89368.76000000,89805.43000000,291.41228000
1769007600000,89805.43000000,90368.00000000,89759.59000000,90344.43000000,386.67953000
1769008500000,90344.42000000,90574.00000000,89992.46000000,90013.52000000,345.32022000
1769009400000,90013.52000000,90196.40000000,89850.00000000,90113.20000000,189.02099000
1769010300000,90113.19000000,90377.00000000,89970.75000000,90288.04000000,153.23980000
1769011200000,90288.04000000,90360.00000000,89742.57000000,89742.57000000,203.07419000
1769012100000,89742.58000000,89820.30000000,89270.12000000,89584.10000000,313.31148000
1769013000000,89584.10000000,89584.11000000,88120.01000000,88157.41000000,678.63345000
1769013900000,88157.41000000,88673.54000000,87590.00000000,87602.40000000,880.90654000
1769014800000,87602.39000000,88115.86000000,87272.27000000,87323.05000000,800.21139000
1769015700000,87323.04000000,87876.75000000,87263.53000000,87780.00000000,401.22065000
1769016600000,87780.01000000,88156.47000000,87500.00000000,87925.56000000,324.77956000
1769017500000,87925.57000000,88057.87000000,87835.90000000,87932.38000000,291.86415000
1769018400000,87932.37000000,88081.34000000,87585.05000000,87905.80000000,210.27416000
1769019300000,87905.81000000,88050.00000000,87843.95000000,88015.67000000,132.54196000
1769020200000,88015.91000000,88244.17000000,87946.79000000,88124.56000000,208.00572000
1769021100000,88124.56000000,88657.23000000,88116.36000000,88485.43000000,192.56377000
1769022000000,88485.43000000,88643.98000000,88280.55000000,88400.01000000,183.10360000
1769022900000,88400.02000000,89737.05000000,88369.18000000,89646.66000000,452.08722000
1769023800000,89646.66000000,90175.14000000,89509.50000000,90039.21000000,674.93027000
1769024700000,90039.92000000,90450.00000000,89900.00000000,90355.56000000,477.69376000
1769025600000,90355.56000000,90377.00000000,89731.00000000,89912.70000000,257.39563000
1769026500000,89912.71000000,89917.99000000,89392.00000000,89743.32000000,286.90507000
1769027400000,89743.32000000,90023.70000000,89600.25000000,89904.01000000,165.65073000
1769028300000,89904.00000000,90228.92000000,89896.22000000,90214.01000000,389.38384000
1769029200000,90214.02000000,90214.02000000,89950.36000000,90105.01000000,158.35934000
1769030100000,90105.00000000,90339.58000000,90050.00000000,90072.26000000,104.58755000
1769031000000,90072.25000000,90261.84000000,90071.57000000,90258.82000000,94.57977000
1769031900000,90258.83000000,90274.75000000,90150.88000000,90249.18000000,71.17732000
1769032800000,90249.18000000,90377.00000000,90204.21000000,90217.74000000,139.56034000
1769033700000,90217.73000000,90229.22000000,89946.08000000,89992.91000000,110.40741000
1769034600000,89992.92000000,90103.94000000,89908.02000000,89962.36000000,66.57495000
1769035500000,89962.37000000,90010.13000000,89752.38000000,89763.51000000,97.72621000
1769036400000,89763.51000000,90212.89000000,89712.80000000,90190.48000000,149.34673000
1769037300000,90190.48000000,90190.48000000,89881.65000000,90030.34000000,111.13591000
1769038200000,90030.34000000,90030.34000000,89547.88000000,89547.89000000,118.12811000
1769039100000,89547.89000000,89620.00000000,89344.98000000,89454.73000000,146.07345000
1769040000000,89454.73000000,89735.97000000,89454.72000000,89710.40000000,118.37141000
1769040900000,89710.40000000,89900.00000000,89600.25000000,89839.15000000,133.28307000
1769041800000,89839.14000000,90010.62000000,89839.14000000,89939.99000000,81.77968000
1769042700000,89939.99000000,90032.50000000,89867.85000000,89908.49000000,60.78709000
1769043600000,89908.50000000,90116.01000000,89826.38000000,90006.25000000,106.43078000
1769044500000,90006.25000000,90198.51000000,90000.00000000,90135.07000000,102.31071000
1769045400000,90135.06000000,90194.00000000,89924.77000000,89992.84000000,71.70708000
1769046300000,89992.84000000,90173.98000000,89952.41000000,90113.19000000,60.87872000
1769047200000,90113.20000000,90183.97000000,90036.00000000,90183.96000000,87.73195000
1769048100000,90183.97000000,90359.99000000,90148.71000000,90291.83000000,163.45213000
1769049000000,90291.82000000,90291.82000000,90052.23000000,90115.45000000,55.07276000
1769049900000,90115.46000000,90115.46000000,89851.03000000,89938.30000000,130.30262000
1769050800000,89938.30000000,90166.67000000,89938.30000000,90100.60000000,151.66005000
1769051700000,90100.60000000,90100.60000000,89841.59000000,89936.49000000,80.45987000
1769052600000,89936.49000000,89936.49000000,89702.84000000,89839.29000000,123.25587000
1769053500000,89839.28000000,89899.99000000,89816.38000000,89899.51000000,34.32544000
1769054400000,89899.51000000,89982.47000000,89829.23000000,89876.77000000,96.88561000
1769055300000,89876.76000000,89987.75000000,89826.67000000,89975.96000000,64.21583000
1769056200000,89975.95000000,90023.19000000,89900.98000000,89998.60000000,52.65565000
1769057100000,89998.59000000,90076.77000000,89978.30000000,89998.91000000,113.25313000
1769058000000,89998.91000000,90075.80000000,89988.14000000,90045.97000000,37.80782000
1769058900000,90045.97000000,90051.65000000,89966.31000000,89977.81000000,39.09221000
1769059800000,89977.81000000,90045.65000000,89928.09000000,90010.62000000,71.22546000
1769060700000,90010.61000000,90044.00000000,89930.12000000,90026.30000000,53.47898000
1769061600000,90026.30000000,90130.00000000,89900.00000000,90037.83000000,85.72391000
1769062500000,90037.82000000,90086.00000000,89984.40000000,90004.63000000,46.74280000
1769063400000,90004.63000000,90199.00000000,89998.57000000,90157.99000000,78.70887000
1769064300000,90158.00000000,90215.79000000,90150.89000000,90172.11000000,62.93454000
1769065200000,90172.12000000,90196.99000000,90053.19000000,90062.21000000,70.69055000
1769066100000,90062.20000000,90086.06000000,89930.00000000,89971.71000000,71.79539000
1769067000000,89971.72000000,89983.27000000,89900.05000000,89943.22000000,149.37589000
1769067900000,89943.22000000,89956.84000000,89802.00000000,89818.79000000,119.08604000
1769068800000,89818.79000000,89968.28000000,89770.00000000,89770.01000000,76.32565000
1769069700000,89770.00000000,89939.49000000,89760.00000000,89876.05000000,49.07684000
1769070600000,89876.05000000,89900.00000000,89777.41000000,89821.16000000,72.13714000
1769071500000,89821.16000000,89959.77000000,89802.76000000,89920.16000000,43.96984000
1769072400000,89920.16000000,90060.00000000,89883.80000000,90043.69000000,62.47698000
1769073300000,90043.70000000,90073.85000000,89954.85000000,89993.25000000,62.10589000
1769074200000,89993.24000000,90113.43000000,89950.33000000,90103.24000000,68.95277000
1769075100000,90103.24000000,90113.00000000,90020.38000000,90033.02000000,41.86107000
1769076000000,90033.02000000,90049.99000000,89960.00000000,90031.11000000,54.60653000
1769076900000,90031.11000000,90099.13000000,89980.00000000,90029.37000000,137.36611000
1769077800000,90029.37000000,90066.62000000,90011.17000000,90058.50000000,57.27139000
1769078700000,90058.49000000,90101.83000000,90020.37000000,90078.77000000,58.51428000
1769079600000,90078.76000000,90150.00000000,89940.02000000,89987.17000000,84.96423000
1769080500000,89987.17000000,90027.35000000,89911.99000000,89952.81000000,71.29108000
1769081400000,89952.81000000,90027.66000000,89897.87000000,89983.47000000,101.59941000
1769082300000,89983.47000000,90080.57000000,89909.51000000,89941.26000000,83.38718000
1769083200000,89941.26000000,90049.70000000,89873.09000000,90008.46000000,113.05787000
1769084100000,90008.46000000,90044.16000000,89988.00000000,90020.02000000,50.22468000
1769085000000,90020.02000000,90099.99000000,89989.34000000,90037.83000000,46.53166000
1769085900000,90037.82000000,90054.29000000,89988.30000000,90021.09000000,40.60491000
1769086800000,90021.09000000,90053.12000000,90000.00000000,90053.07000000,39.97235000
1769087700000,90053.08000000,90200.00000000,90053.03000000,90197.16000000,113.10858000
1769088600000,90197.17000000,90340.00000000,89553.34000000,89622.76000000,421.74510000
1769089500000,89622.76000000,89733.84000000,89478.92000000,89619.81000000,226.15824000
1769090400000,89619.81000000,89702.85000000,89415.62000000,89702.84000000,184.52953000
1769091300000,89702.85000000,89702.85000000,89361.31000000,89574.08000000,149.47818000
1769092200000,89574.09000000,89742.67000000,89146.90000000,89486.10000000,422.19645000
1769093100000,89486.11000000,89511.63000000,89039.78000000,89088.59000000,375.83229000
1769094000000,89088.60000000,89383.15000000,89007.51000000,89258.84000000,258.25255000
1769094900000,89258.84000000,89369.77000000,88620.75000000,88658.05000000,470.58469000
1769095800000,88658.05000000,89180.49000000,88515.37000000,89150.07000000,381.56219000
1769096700000,89150.07000000,89445.24000000,88945.30000000,89000.01000000,218.41738000
1769097600000,89000.00000000,89200.00000000,88765.00000000,88843.79000000,230.68602000
1769098500000,88843.79000000,89195.63000000,88676.95000000,88992.10000000,202.76584000
1769099400000,88992.10000000,89130.89000000,88774.31000000,88972.45000000,243.24154000
1769100300000,88972.44000000,89270.00000000,88900.00000000,89054.06000000,144.17975000
1769101200000,89054.07000000,89439.98000000,89024.55000000,89228.33000000,200.79741000
1769102100000,89228.33000000,89431.17000000,89058.99000000,89148.33000000,119.41162000
1769103000000,89148.33000000,89289.83000000,89083.19000000,89230.71000000,85.74921000
1769103900000,89230.71000000,89616.04000000,89230.71000000,89550.01000000,130.55591000
1769104800000,89550.00000000,89615.38000000,89384.61000000,89474.03000000,134.19070000
1769105700000,89474.03000000,89797.50000000,89463.56000000,89616.04000000,164.70516000
1769106600000,89616.03000000,89767.34000000,89593.21000000,89668.60000000,75.11648000
1769107500000,89668.61000000,89715.61000000,89301.90000000,89333.94000000,83.14319000
1769108400000,89333.93000000,89460.00000000,89114.48000000,89399.12000000,143.60296000
1769109300000,89399.11000000,89577.96000000,89303.00000000,89504.99000000,74.77704000
1769110200000,89504.99000000,89880.00000000,89485.92000000,89845.71000000,112.96282000
1769111100000,89845.71000000,89924.46000000,89624.13000000,89777.90000000,158.52161000
1769112000000,89777.89000000,89924.00000000,89697.99000000,89924.00000000,122.14617000
1769112900000,89923.99000000,89946.13000000,89564.44000000,89574.44000000,72.74936000
1769113800000,89574.44000000,89713.26000000,89468.75000000,89507.70000000,68.21446000
1769114700000,89507.70000000,89552.86000000,89398.87000000,89409.72000000,75.71703000
1769115600000,89409.73000000,89625.40000000,89384.00000000,89540.01000000,61.51952000
1769116500000,89540.01000000,89669.21000000,89540.00000000,89571.54000000,68.93792000
1769117400000,89571.54000000,89600.00000000,89392.01000000,89392.01000000,68.59455000
1769118300000,89392.00000000,89392.00000000,89238.32000000,89268.66000000,73.72608000
1769119200000,89268.66000000,89566.00000000,89140.13000000,89490.70000000,113.00019000
1769120100000,89490.71000000,89520.00000000,89359.48000000,89422.77000000,64.06410000
1769121000000,89422.78000000,89422.78000000,89167.43000000,89265.50000000,74.15074000
1769121900000,89265.50000000,89375.54000000,89265.50000000,89346.99000000,43.76773000
1769122800000,89346.99000000,89375.78000000,89170.74000000,89302.40000000,62.87777000
1769123700000,89302.40000000,89509.97000000,89296.43000000,89440.00000000,56.52717000
1769124600000,89440.01000000,89583.62000000,89404.76000000,89505.70000000,46.82212000
1769125500000,89505.70000000,89559.68000000,89501.17000000,89559.67000000,34.63780000
1769126400000,89559.68000000,89559.68000000,89450.48000000,89537.00000000,41.47779000
1769127300000,89537.00000000,89638.84000000,89535.13000000,89615.71000000,88.53988000
1769128200000,89615.70000000,89623.85000000,89512.00000000,89552.51000000,46.21598000
1769129100000,89552.51000000,89609.04000000,89520.00000000,89520.01000000,49.56478000
1769130000000,89520.01000000,89677.35000000,89520.01000000,89607.82000000,77.56609000
1769130900000,89607.82000000,89693.17000000,89607.82000000,89693.16000000,45.82468000
1769131800000,89693.17000000,89866.64000000,89641.42000000,89827.81000000,103.04698000
1769132700000,89827.81000000,89939.39000000,89772.92000000,89939.38000000,55.13451000
1769133600000,89939.39000000,89979.97000000,89797.74000000,89950.34000000,185.95406000
1769134500000,89950.33000000,89950.34000000,89740.18000000,89769.13000000,76.55300000
1769135400000,89769.14000000,89832.34000000,89757.06000000,89788.70000000,71.10510000
1769136300000,89788.71000000,89817.78000000,89655.41000000,89663.48000000,42.07393000
1769137200000,89663.47000000,89805.44000000,89646.18000000,89805.44000000,63.71484000
1769138100000,89805.44000000,89908.03000000,89805.43000000,89897.74000000,72.11473000
1769139000000,89897.75000000,89924.78000000,89805.43000000,89894.28000000,52.06683000
1769139900000,89894.29000000,89924.78000000,89853.81000000,89924.78000000,73.18788000
1769140800000,89924.78000000,90076.92000000,89871.73000000,90076.90000000,174.65713000
1769141700000,90076.90000000,90088.94000000,89957.55000000,89985.48000000,112.07956000
1769142600000,89985.48000000,90038.58000000,89910.00000000,89983.04000000,66.08143000
1769143500000,89983.04000000,90036.57000000,89965.42000000,89965.42000000,78.10451000
1769144400000,89965.43000000,89969.02000000,89851.04000000,89886.16000000,78.56857000
1769145300000,89886.17000000,89886.17000000,89528.88000000,89646.22000000,130.74893000
1769146200000,89646.22000000,89702.85000000,89618.22000000,89643.52000000,53.13131000
1769147100000,89643.53000000,89678.52000000,89473.99000000,89616.03000000,98.43849000
1769148000000,89616.04000000,89799.36000000,89552.73000000,89733.50000000,162.03107000
1769148900000,89733.51000000,89758.88000000,89400.00000000,89473.16000000,102.84879000
1769149800000,89473.16000000,89661.96000000,89473.16000000,89655.74000000,90.01623000
1769150700000,89655.73000000,89658.81000000,89497.66000000,89509.59000000,95.27028000
1769151600000,89509.59000000,89573.24000000,89474.00000000,89550.59000000,135.03142000
1769152500000,89550.59000000,89686.40000000,89550.59000000,89642.22000000,70.27044000
1769153400000,89642.22000000,89685.43000000,89542.97000000,89580.98000000,137.25377000
1769154300000,89580.97000000,89622.00000000,89447.52000000,89549.45000000,145.18564000
1769155200000,89549.45000000,89632.18000000,89490.00000000,89552.21000000,85.23281000
1769156100000,89552.21000000,89569.03000000,89327.33000000,89332.78000000,128.52161000
1769157000000,89332.79000000,89398.99000000,89133.35000000,89359.76000000,226.71993000
1769157900000,89359.77000000,89424.95000000,89183.99000000,89221.46000000,103.71798000
1769158800000,89221.46000000,89388.71000000,89206.00000000,89238.57000000,79.83678000
1769159700000,89238.56000000,89238.57000000,89010.77000000,89165.65000000,166.80784000
1769160600000,89165.65000000,89182.81000000,88908.83000000,89009.73000000,200.30988000
1769161500000,89009.74000000,89010.01000000,88897.81000000,88977.72000000,185.41258000
1769162400000,88977.72000000,89083.29000000,88860.44000000,89049.83000000,79.78224000
1769163300000,89049.84000000,89132.58000000,89000.46000000,89103.00000000,59.89308000
1769164200000,89102.99000000,89133.38000000,88977.31000000,89127.97000000,90.52575000
1769165100000,89127.96000000,89160.74000000,89020.10000000,89046.49000000,104.26685000
1769166000000,89046.49000000,89244.86000000,89000.00000000,89222.89000000,172.87999000
1769166900000,89222.88000000,89275.96000000,89204.84000000,89219.99000000,129.41518000
1769167800000,89219.99000000,89355.51000000,89219.99000000,89249.20000000,117.67911000
1769168700000,89249.20000000,89274.69000000,89164.97000000,89202.48000000,61.68610000
1769169600000,89202.47000000,89248.60000000,89160.01000000,89160.01000000,50.93924000
1769170500000,89160.01000000,89182.98000000,89125.18000000,89163.52000000,48.04799000
1769171400000,89163.51000000,89241.27000000,89099.20000000,89241.26000000,45.33963000
1769172300000,89241.27000000,89383.09000000,89241.26000000,89267.83000000,75.39228000
1769173200000,89267.83000000,89419.88000000,89237.65000000,89407.15000000,105.10216000
1769174100000,89407.15000000,89426.92000000,89256.59000000,89257.43000000,95.78898000
1769175000000,89257.43000000,89355.21000000,89247.44000000,89355.20000000,45.77988000
1769175900000,89355.21000000,89450.18000000,89310.32000000,89350.81000000,51.09208000
1769176800000,89350.80000000,89472.55000000,89254.23000000,89459.29000000,86.17337000
1769177700000,89459.29000000,89702.85000000,89430.21000000,89685.93000000,241.30274000
1769178600000,89685.92000000,89733.71000000,88663.65000000,88965.48000000,633.74605000
1769179500000,88965.49000000,89133.38000000,88684.08000000,89017.85000000,279.54460000
1769180400000,89017.85000000,89189.90000000,88763.76000000,88821.92000000,224.68151000
1769181300000,88821.91000000,89279.02000000,88578.36000000,88979.61000000,296.11633000
1769182200000,88979.61000000,89284.47000000,88933.79000000,89259.98000000,182.27379000
1769183100000,89259.97000000,89865.53000000,89259.95000000,89761.61000000,375.61262000
1769184000000,89761.61000000,89969.16000000,89637.89000000,89752.27000000,322.66382000
1769184900000,89752.27000000,89762.18000000,89518.00000000,89575.45000000,168.34599000
1769185800000,89575.46000000,90422.00000000,89489.00000000,90269.66000000,422.75513000
1769186700000,90269.65000000,90490.06000000,90122.76000000,90124.85000000,352.96012000
1769187600000,90124.86000000,90200.00000000,89978.40000000,90199.99000000,154.24870000
1769188500000,90199.99000000,90981.99000000,90199.99000000,90981.99000000,402.41101000
1769189400000,90981.98000000,91224.99000000,90769.23000000,90831.33000000,466.33567000
1769190300000,90831.33000000,91054.50000000,90565.60000000,90600.00000000,323.60294000
1769191200000,90600.00000000,91039.75000000,90449.42000000,90743.61000000,272.70373000
1769192100000,90743.62000000,90958.42000000,90640.36000000,90871.84000000,125.87485000
1769193000000,90871.83000000,91025.00000000,90718.89000000,90738.00000000,179.20217000
1769193900000,90737.99000000,90738.00000000,90505.86000000,90530.45000000,120.67341000
1769194800000,90530.44000000,90534.59000000,90224.94000000,90278.00000000,242.87822000
1769195700000,90278.00000000,90286.01000000,89756.41000000,89845.83000000,520.97386000
1769196600000,89845.82000000,89886.45000000,89612.01000000,89879.79000000,243.46245000
1769197500000,89879.80000000,90020.00000000,89728.92000000,89982.79000000,111.68398000
1769198400000,89982.79000000,90156.06000000,89856.80000000,90119.01000000,147.41591000
1769199300000,90119.02000000,90135.20000000,89812.70000000,89814.37000000,102.44544000
1769200200000,89814.38000000,89814.38000000,89263.64000000,89422.27000000,335.17421000
1769201100000,89422.26000000,89569.58000000,89200.68000000,89503.68000000,332.69160000
1769202000000,89503.67000000,89691.18000000,89437.77000000,89605.43000000,142.61398000
1769202900000,89605.43000000,89680.00000000,89477.84000000,89600.26000000,46.30724000
1769203800000,89600.25000000,89617.94000000,89402.25000000,89438.01000000,39.26106000
1769204700000,89438.02000000,89476.00000000,89317.00000000,89349.99000000,80.25482000
1769205600000,89349.99000000,89752.45000000,89335.35000000,89622.50000000,153.10284000
1769206500000,89622.50000000,89743.07000000,89591.10000000,89712.22000000,70.72940000
1769207400000,89712.23000000,89737.11000000,89587.03000000,89587.03000000,120.18530000
1769208300000,89587.03000000,89647.58000000,89554.83000000,89624.61000000,62.17768000
1769209200000,89624.60000000,89624.60000000,89520.88000000,89576.22000000,39.03443000
1769210100000,89576.22000000,89594.00000000,89505.29000000,89562.00000000,36.22456000
1769211000000,89562.00000000,89578.36000000,89517.09000000,89517.10000000,30.76386000
1769211900000,89517.09000000,89631.00000000,89472.13000000,89600.26000000,45.85122000
1769212800000,89600.26000000,89625.41000000,89509.50000000,89509.51000000,21.90740000
1769213700000,89509.50000000,89570.91000000,89457.87000000,89457.87000000,24.51084000
1769214600000,89457.87000000,89547.08000000,89452.78000000,89481.82000000,52.89132000
1769215500000,89481.82000000,89484.35000000,89424.39000000,89452.83000000,31.47780000
1769216400000,89452.83000000,89516.69000000,89450.58000000,89515.93000000,30.45153000
1769217300000,89515.93000000,89588.72000000,89498.26000000,89574.23000000,32.04997000
1769218200000,89574.22000000,89574.22000000,89469.11000000,89540.39000000,29.65752000
1769219100000,89540.40000000,89550.25000000,89514.63000000,89550.24000000,26.68513000
1769220000000,89550.24000000,89664.01000000,89550.24000000,89621.67000000,39.62519000
1769220900000,89621.66000000,89675.00000000,89601.31000000,89617.41000000,25.14697000
1769221800000,89617.41000000,89686.57000000,89607.18000000,89686.57000000,28.22890000
1769222700000,89686.56000000,89722.57000000,89657.31000000,89702.85000000,49.98626000
1769223600000,89702.85000000,89885.56000000,89670.88000000,89873.32000000,85.83388000
1769224500000,89873.32000000,89957.39000000,89786.80000000,89936.25000000,122.40033000
1769225400000,89936.26000000,89936.26000000,89791.44000000,89834.34000000,54.26966000
1769226300000,89834.34000000,89836.32000000,89740.00000000,89770.02000000,105.85390000
1769227200000,89770.03000000,89831.62000000,89763.42000000,89803.43000000,52.24819000
1769228100000,89803.42000000,89813.30000000,89709.08000000,89723.13000000,40.37084000
1769229000000,89723.14000000,89770.89000000,89723.13000000,89759.67000000,47.45477000
1769229900000,89759.67000000,89853.38000000,89742.87000000,89829.35000000,27.91288000
1769230800000,89829.36000000,89849.78000000,89790.00000000,89829.10000000,44.40787000
1769231700000,89829.10000000,89848.64000000,89813.16000000,89816.12000000,15.93686000
1769232600000,89816.12000000,89816.13000000,89754.08000000,89761.89000000,26.17402000
1769233500000,89761.90000000,89782.55000000,89751.21000000,89775.20000000,25.50871000
1769234400000,89775.20000000,89784.88000000,89723.57000000,89744.49000000,144.70345000
1769235300000,89744.49000000,89744.49000000,89602.22000000,89649.99000000,157.46485000
1769236200000,89649.99000000,89677.51000000,89642.70000000,89671.76000000,56.51842000
1769237100000,89671.75000000,89673.91000000,89649.32000000,89649.32000000,61.55314000
1769238000000,89649.33000000,89657.77000000,89630.00000000,89657.77000000,27.32463000
1769238900000,89657.77000000,89657.77000000,89572.81000000,89604.88000000,114.51992000
1769239800000,89604.89000000,89657.77000000,89600.00000000,89657.76000000,26.92023000
1769240700000,89657.76000000,89692.31000000,89601.28000000,89620.10000000,85.92831000
1769241600000,89620.11000000,89641.44000000,89583.02000000,89615.86000000,76.83525000
1769242500000,89615.87000000,89615.87000000,89615.85000000,89615.86000000,13.76787000
1769243400000,89615.85000000,89663.22000000,89615.85000000,89663.22000000,36.68226000
1769244300000,89663.21000000,89686.43000000,89634.19000000,89660.88000000,63.00551000
1769245200000,89660.88000000,89660.88000000,89620.00000000,89640.45000000,22.37648000
1769246100000,89640.45000000,89640.45000000,89610.20000000,89620.68000000,20.24079000
1769247000000,89620.69000000,89620.69000000,89600.00000000,89613.66000000,67.20172000
1769247900000,89613.66000000,89613.66000000,89600.00000000,89600.00000000,16.79438000
1769248800000,89600.01000000,89654.79000000,89600.00000000,89629.18000000,26.19038000
1769249700000,89629.18000000,89629.19000000,89620.42000000,89620.42000000,9.21191000
1769250600000,89620.43000000,89626.71000000,89577.97000000,89602.24000000,28.52407000
1769251500000,89602.23000000,89632.57000000,89602.23000000,89626.80000000,18.66250000
1769252400000,89626.79000000,89626.80000000,89610.04000000,89610.05000000,22.97882000
1769253300000,89610.04000000,89654.85000000,89610.04000000,89633.87000000,36.65687000
1769254200000,89633.87000000,89676.26000000,89622.48000000,89654.25000000,32.69698000
1769255100000,89654.24000000,89654.25000000,89595.40000000,89595.40000000,21.77000000
1769256000000,89595.41000000,89595.41000000,89541.55000000,89541.56000000,39.84299000
1769256900000,89541.56000000,89560.39000000,89541.56000000,89549.99000000,24.94594000
1769257800000,89549.99000000,89583.40000000,89486.87000000,89535.99000000,69.44825000
1769258700000,89536.00000000,89537.82000000,89523.13000000,89537.82000000,44.83827000
1769259600000,89537.82000000,89537.82000000,89527.24000000,89535.59000000,24.72971000
1769260500000,89535.58000000,89540.44000000,89532.29000000,89532.30000000,53.38858000
1769261400000,89532.29000000,89536.77000000,89521.10000000,89536.76000000,20.08414000
1769262300000,89536.77000000,89536.77000000,89368.21000000,89368.22000000,58.50647000
1769263200000,89368.22000000,89491.35000000,89171.75000000,89473.86000000,191.91416000
1769264100000,89473.87000000,89473.87000000,89433.08000000,89472.83000000,40.16471000
1769265000000,89472.84000000,89512.05000000,89443.25000000,89500.01000000,50.51000000
1769265900000,89500.01000000,89500.01000000,89450.01000000,89450.03000000,64.07077000
1769266800000,89450.03000000,89492.14000000,89432.36000000,89470.53000000,152.52953000
1769267700000,89470.52000000,89470.53000000,89390.00000000,89394.43000000,108.91175000
1769268600000,89394.42000000,89429.75000000,89332.51000000,89347.13000000,38.09207000
1769269500000,89347.14000000,89353.40000000,89263.64000000,89275.77000000,34.93782000
1769270400000,89275.77000000,89369.79000000,89190.97000000,89247.79000000,120.67144000
1769271300000,89247.79000000,89268.62000000,89162.08000000,89260.00000000,44.14675000
1769272200000,89260.00000000,89264.00000000,89189.92000000,89219.99000000,26.91840000
1769273100000,89219.99000000,89316.37000000,89183.56000000,89290.01000000,43.32370000
1769274000000,89290.01000000,89395.08000000,89252.93000000,89371.88000000,44.84456000
1769274900000,89371.89000000,89414.38000000,89341.38000000,89406.69000000,24.58142000
1769275800000,89406.69000000,89406.69000000,89333.53000000,89333.53000000,43.84514000
1769276700000,89333.53000000,89406.51000000,89316.71000000,89406.50000000,21.87296000
1769277600000,89406.50000000,89416.00000000,89382.05000000,89415.99000000,24.17975000
1769278500000,89416.00000000,89430.00000000,89398.27000000,89426.69000000,21.59484000
1769279400000,89426.70000000,89461.40000000,89412.73000000,89412.73000000,25.08367000
1769280300000,89412.74000000,89427.31000000,89395.22000000,89395.23000000,13.54627000
1769281200000,89395.22000000,89395.23000000,89316.98000000,89316.98000000,13.69114000
1769282100000,89316.99000000,89316.99000000,89276.58000000,89296.03000000,23.08061000
1769283000000,89296.03000000,89334.99000000,89292.86000000,89334.98000000,43.00096000
1769283900000,89334.98000000,89358.00000000,89316.15000000,89331.36000000,25.70545000
1769284800000,89331.36000000,89382.00000000,89331.35000000,89373.53000000,19.22049000
1769285700000,89373.54000000,89399.99000000,89373.53000000,89399.99000000,10.54563000
1769286600000,89399.99000000,89399.99000000,89381.84000000,89383.65000000,9.14471000
1769287500000,89383.66000000,89383.66000000,89380.00000000,89380.01000000,7.52263000
1769288400000,89380.00000000,89380.01000000,89270.00000000,89287.83000000,33.55480000
1769289300000,89287.83000000,89342.01000000,89285.59000000,89331.53000000,19.37912000
1769290200000,89331.54000000,89373.31000000,89314.82000000,89370.37000000,19.45574000
1769291100000,89370.37000000,89386.61000000,89333.81000000,89386.61000000,27.10880000
1769292000000,89386.61000000,89488.24000000,89386.60000000,89471.51000000,39.47077000
1769292900000,89471.51000000,89489.84000000,89401.37000000,89401.37000000,32.91541000
1769293800000,89401.37000000,89401.38000000,89304.85000000,89304.85000000,19.95104000
1769294700000,89304.85000000,89430.00000000,89304.85000000,89430.00000000,44.69782000
1769295600000,89429.99000000,89474.65000000,89304.00000000,89351.79000000,48.10764000
1769296500000,89351.80000000,89389.77000000,89325.27000000,89389.76000000,19.81925000
1769297400000,89389.77000000,89389.77000000,89316.38000000,89316.38000000,23.72638000
1769298300000,89316.38000000,89334.57000000,89215.59000000,89225.34000000,45.42544000
1769299200000,89225.34000000,89270.31000000,89223.48000000,89265.39000000,27.19126000
1769300100000,89265.39000000,89298.26000000,89183.49000000,89183.50000000,35.16066000
1769301000000,89183.50000000,89272.00000000,89183.49000000,89272.00000000,39.50238000
1769301900000,89271.99000000,89315.18000000,89267.78000000,89315.18000000,19.78847000
1769302800000,89315.18000000,89319.13000000,89246.75000000,89253.18000000,34.59656000
1769303700000,89253.18000000,89266.84000000,89200.00000000,89200.00000000,37.69064000
1769304600000,89200.00000000,89200.01000000,89102.58000000,89140.00000000,61.27433000
1769305500000,89140.00000000,89196.53000000,89140.00000000,89176.31000000,47.12279000
1769306400000,89176.31000000,89268.36000000,89168.17000000,89243.20000000,33.69994000
1769307300000,89243.20000000,89243.20000000,89129.62000000,89140.08000000,70.99666000
1769308200000,89140.08000000,89198.31000000,89140.08000000,89145.41000000,31.50483000
1769309100000,89145.40000000,89173.96000000,89139.04000000,89139.04000000,38.45297000
1769310000000,89139.04000000,89176.72000000,89131.23000000,89145.61000000,34.81101000
1769310900000,89145.60000000,89145.61000000,88990.00000000,89035.32000000,112.79151000
1769311800000,89035.32000000,89035.32000000,88841.26000000,88928.47000000,246.56477000
1769312700000,88928.47000000,88984.73000000,88838.72000000,88960.35000000,78.67875000
1769313600000,88960.36000000,89026.24000000,88941.03000000,88977.85000000,61.58847000
1769314500000,88977.84000000,89000.00000000,88956.36000000,88958.39000000,168.67656000
1769315400000,88958.40000000,89090.13000000,88958.39000000,89068.04000000,55.12193000
1769316300000,89068.05000000,89086.68000000,89000.00000000,89006.96000000,64.47076000
1769317200000,89006.97000000,89045.44000000,88990.00000000,89040.45000000,43.76535000
1769318100000,89040.44000000,89044.58000000,88989.99000000,88990.00000000,58.95054000
1769319000000,88990.01000000,88990.01000000,88870.45000000,88892.46000000,69.29886000
1769319900000,88892.45000000,88999.52000000,88892.45000000,88990.90000000,32.93688000
1769320800000,88990.89000000,88990.90000000,88699.98000000,88710.28000000,284.03833000
1769321700000,88710.28000000,88834.17000000,88649.98000000,88788.80000000,154.39238000
1769322600000,88788.80000000,88878.78000000,88695.49000000,88849.59000000,91.21755000
1769323500000,88849.58000000,88866.33000000,88831.35000000,88831.36000000,37.77569000
1769324400000,88831.36000000,88831.36000000,88730.95000000,88730.95000000,91.67575000
1769325300000,88730.95000000,88785.70000000,88730.95000000,88785.69000000,34.55959000
1769326200000,88785.69000000,88785.70000000,88722.26000000,88722.26000000,43.20874000
1769327100000,88722.27000000,88722.27000000,88635.84000000,88659.99000000,73.36075000
1769328000000,88659.99000000,88760.00000000,88635.85000000,88725.16000000,40.45297000
1769328900000,88725.17000000,88725.17000000,88682.54000000,88682.54000000,43.46953000
1769329800000,88682.54000000,88682.55000000,88178.13000000,88317.02000000,265.45587000
1769330700000,88317.03000000,88344.00000000,88136.00000000,88300.01000000,112.55020000
1769331600000,88300.00000000,88397.00000000,88238.50000000,88360.00000000,105.18176000
1769332500000,88359.99000000,88464.46000000,88334.42000000,88464.45000000,56.43267000
1769333400000,88464.45000000,88488.00000000,88337.63000000,88487.99000000,81.75201000
1769334300000,88488.00000000,88488.00000000,88379.78000000,88398.38000000,45.23223000
1769335200000,88398.38000000,88524.01000000,88398.37000000,88479.88000000,54.57079000
1769336100000,88479.88000000,88626.57000000,88479.87000000,88625.70000000,166.73126000
1769337000000,88625.69000000,88632.63000000,88531.00000000,88615.43000000,54.08901000
1769337900000,88615.43000000,88671.27000000,88544.64000000,88659.51000000,79.19541000
1769338800000,88659.52000000,88659.52000000,88571.87000000,88606.76000000,48.75930000
1769339700000,88606.76000000,88670.15000000,88606.76000000,88670.15000000,36.28365000
1769340600000,88670.14000000,88710.00000000,88595.85000000,88609.24000000,43.87274000
1769341500000,88609.23000000,88628.23000000,88536.11000000,88570.17000000,42.73267000
1769342400000,88570.17000000,88649.88000000,88450.00000000,88638.88000000,84.80057000
1769343300000,88638.88000000,88764.70000000,88541.84000000,88690.00000000,128.76784000
1769344200000,88690.00000000,88763.95000000,88672.72000000,88758.56000000,49.97598000
1769345100000,88758.56000000,88800.00000000,88711.28000000,88791.99000000,65.55374000
1769346000000,88791.98000000,88847.49000000,88742.52000000,88742.52000000,61.68043000
1769346900000,88742.53000000,88833.55000000,88697.45000000,88697.45000000,50.25082000
1769347800000,88697.45000000,88848.20000000,88650.98000000,88846.57000000,64.80845000
1769348700000,88846.58000000,88971.89000000,88832.89000000,88921.00000000,101.32030000
1769349600000,88920.99000000,88938.94000000,88801.34000000,88883.67000000,71.02178000
1769350500000,88883.67000000,88928.46000000,88624.99000000,88719.99000000,112.60146000
1769351400000,88720.00000000,88737.40000000,88624.55000000,88684.64000000,76.32616000
1769352300000,88684.65000000,88710.11000000,88628.49000000,88710.10000000,33.62675000
1769353200000,88710.10000000,88760.35000000,88680.12000000,88744.02000000,37.37995000
1769354100000,88744.03000000,88749.24000000,88617.87000000,88742.64000000,136.12610000
1769355000000,88742.63000000,88742.64000000,88661.35000000,88682.81000000,42.08663000
1769355900000,88682.80000000,88682.81000000,88340.75000000,88446.50000000,154.93022000
1769356800000,88446.51000000,88448.85000000,87878.00000000,87904.72000000,663.46867000
1769357700000,87904.72000000,88119.27000000,87560.00000000,88038.12000000,770.22892000
1769358600000,88038.12000000,88146.75000000,87751.01000000,87930.95000000,296.96992000
1769359500000,87931.07000000,88122.72000000,87797.04000000,88077.26000000,148.17958000
1769360400000,88077.25000000,88108.24000000,87848.51000000,87863.05000000,114.43708000
1769361300000,87863.05000000,88020.20000000,87767.18000000,87888.60000000,160.33503000
1769362200000,87888.59000000,87998.35000000,87772.24000000,87998.35000000,105.25311000
1769363100000,87998.34000000,87998.35000000,87826.17000000,87892.17000000,87.35940000
1769364000000,87892.16000000,87983.29000000,87507.00000000,87700.58000000,262.32796000
1769364900000,87700.58000000,87894.00000000,87407.99000000,87528.53000000,382.22908000
1769365800000,87528.53000000,87596.06000000,86827.10000000,87079.93000000,934.77917000
1769366700000,87079.93000000,87477.57000000,87009.39000000,87420.01000000,314.18414000
1769367600000,87420.01000000,87508.15000000,87219.71000000,87290.36000000,190.28258000
1769368500000,87290.37000000,87316.43000000,86428.57000000,86482.18000000,890.31866000
1769369400000,86482.18000000,86826.72000000,86288.00000000,86706.64000000,408.93382000
1769370300000,86706.64000000,86706.64000000,86194.85000000,86495.16000000,435.53977000
1769371200000,86495.17000000,86718.75000000,86368.96000000,86440.00000000,222.12503000
1769372100000,86440.00000000,86532.12000000,86267.12000000,86490.16000000,184.01280000
1769373000000,86490.17000000,86515.52000000,86222.02000000,86332.69000000,159.91256000
1769373900000,86332.69000000,86654.61000000,86270.00000000,86654.61000000,187.50871000
1769374800000,86654.60000000,86934.14000000,86630.83000000,86934.13000000,211.48446000
1769375700000,86934.13000000,87013.79000000,86828.60000000,86972.89000000,116.67698000
1769376600000,86972.90000000,86979.99000000,86400.00000000,86541.02000000,180.26622000
1769377500000,86541.02000000,86661.99000000,86500.00000000,86568.50000000,157.89388000
1769378400000,86568.51000000,86595.39000000,86334.84000000,86511.76000000,247.83420000
1769379300000,86511.75000000,86528.72000000,86250.00000000,86319.08000000,171.60377000
1769380200000,86319.08000000,86694.78000000,86217.32000000,86634.60000000,256.95239000
1769381100000,86634.60000000,86634.61000000,86291.04000000,86521.39000000,172.97542000
1769382000000,86521.39000000,86576.35000000,86074.72000000,86383.24000000,420.06837000
1769382900000,86383.24000000,86754.57000000,86220.19000000,86490.82000000,325.92940000
1769383800000,86490.82000000,86586.75000000,86260.00000000,86423.04000000,192.03409000
1769384700000,86423.04000000,86791.91000000,86423.03000000,86670.36000000,191.23011000
1769385600000,86670.36000000,87079.32000000,86633.93000000,87051.28000000,231.48985000
1769386500000,87051.28000000,87167.84000000,86782.25000000,86843.23000000,220.74171000
1769387400000,86843.23000000,86866.10000000,86600.01000000,86632.44000000,100.96808000
1769388300000,86632.45000000,86979.99000000,86509.63000000,86854.86000000,234.96798000
1769389200000,86854.86000000,87450.00000000,86815.37000000,87269.30000000,311.07610000
1769390100000,87269.31000000,87775.00000000,87269.30000000,87649.99000000,303.11690000
1769391000000,87649.99000000,87753.42000000,87581.24000000,87686.83000000,222.89998000
1769391900000,87686.84000000,87809.99000000,87509.30000000,87698.73000000,281.01572000
1769392800000,87698.74000000,87698.74000000,87435.18000000,87509.31000000,189.96440000
1769393700000,87509.30000000,87950.00000000,87505.01000000,87915.62000000,281.13079000
1769394600000,87915.62000000,87973.11000000,87615.64000000,87625.22000000,291.71763000
1769395500000,87625.22000000,87689.73000000,87492.66000000,87563.38000000,252.82224000
1769396400000,87563.39000000,87691.41000000,87491.88000000,87572.90000000,225.57579000
1769397300000,87572.89000000,87595.62000000,87435.18000000,87446.17000000,298.79194000
1769398200000,87446.17000000,87476.00000000,87288.88000000,87359.12000000,273.19541000
1769399100000,87359.11000000,87376.02000000,87062.76000000,87282.05000000,286.09294000
1769400000000,87282.04000000,87538.46000000,87244.27000000,87466.02000000,257.79415000
1769400900000,87466.02000000,87860.00000000,87463.64000000,87859.46000000,458.53031000
1769401800000,87859.46000000,87953.00000000,87765.00000000,87769.79000000,266.54371000
1769402700000,87769.79000000,87851.46000000,87714.53000000,87737.06000000,126.63011000
1769403600000,87737.06000000,87812.32000000,87673.12000000,87693.44000000,102.99054000
1769404500000,87693.45000000,87867.07000000,87693.44000000,87865.01000000,129.55075000
1769405400000,87865.00000000,87919.25000000,87760.18000000,87838.47000000,249.00527000
1769406300000,87838.47000000,87956.27000000,87774.33000000,87826.01000000,283.57708000
1769407200000,87826.01000000,87923.07000000,87764.00000000,87764.00000000,277.01440000
1769408100000,87764.01000000,87993.31000000,87764.00000000,87929.35000000,335.67904000
1769409000000,87929.36000000,87981.68000000,87850.50000000,87962.51000000,123.68491000
1769409900000,87962.51000000,88031.73000000,87851.37000000,87937.44000000,179.25144000
1769410800000,87937.45000000,88008.50000000,87842.08000000,88008.49000000,159.91378000
1769411700000,88008.50000000,88074.48000000,87776.87000000,87788.20000000,183.33496000
1769412600000,87788.20000000,88021.74000000,87701.72000000,87923.92000000,236.53187000
1769413500000,87923.93000000,88050.00000000,87868.00000000,88000.64000000,188.62927000
1769414400000,88000.64000000,88181.60000000,87920.01000000,87920.02000000,228.75193000
1769415300000,87920.02000000,88424.45000000,87846.89000000,88200.01000000,344.70125000
1769416200000,88200.00000000,88222.93000000,88028.45000000,88056.19000000,104.87062000
1769417100000,88056.19000000,88092.45000000,87959.25000000,87975.39000000,112.22343000
1769418000000,87975.39000000,88000.00000000,87737.23000000,87822.74000000,182.42144000
1769418900000,87822.75000000,87848.36000000,87730.33000000,87801.85000000,81.91845000
1769419800000,87801.86000000,87813.62000000,87673.30000000,87766.51000000,141.83556000
1769420700000,87766.52000000,87812.50000000,87600.69000000,87663.12000000,137.10929000
1769421600000,87663.12000000,87912.00000000,87660.00000000,87842.47000000,95.44112000
1769422500000,87842.48000000,87934.90000000,87795.84000000,87912.74000000,56.08044000
1769423400000,87912.73000000,87950.00000000,87858.80000000,87889.55000000,47.82446000
1769424300000,87889.55000000,87950.00000000,87889.54000000,87897.55000000,43.13528000
1769425200000,87897.55000000,87980.00000000,87897.54000000,87973.00000000,47.78225000
1769426100000,87973.00000000,87977.71000000,87794.67000000,87794.68000000,84.19456000
1769427000000,87794.67000000,87879.58000000,87765.99000000,87848.75000000,71.56416000
1769427900000,87848.76000000,87855.99000000,87800.00000000,87855.00000000,40.51696000
1769428800000,87855.01000000,87971.99000000,87740.40000000,87882.35000000,88.44512000
1769429700000,87882.34000000,87936.00000000,87844.17000000,87889.11000000,62.28304000
1769430600000,87889.12000000,87891.00000000,87735.38000000,87767.98000000,97.12332000
1769431500000,87767.99000000,87837.63000000,87763.05000000,87799.45000000,41.00503000
1769432400000,87799.44000000,87865.00000000,87681.40000000,87829.84000000,118.86871000
1769433300000,87829.84000000,87937.29000000,87807.06000000,87893.02000000,143.69925000
1769434200000,87893.01000000,88048.00000000,87869.86000000,88011.89000000,202.62552000
1769435100000,88011.89000000,88011.89000000,87933.88000000,87960.01000000,91.33643000
1769436000000,87960.01000000,88008.01000000,87654.36000000,87688.02000000,331.81512000
