timestamp,open,high,low,close,volume
1746259200000,96322.68000000,96421.91000000,95852.29000000,95942.02000000,2622.43769000
1746273600000,95942.01000000,96509.44000000,95880.65000000,96418.68000000,1447.96366000
1746288000000,96418.68000000,96428.33000000,95869.68000000,96354.34000000,899.94616000
1746302400000,96354.34000000,96441.49000000,95753.01000000,95856.42000000,1185.40197000
1746316800000,95856.42000000,96304.48000000,95588.00000000,95722.23000000,1523.29654000
1746331200000,95722.22000000,96142.86000000,95692.70000000,95879.99000000,1780.05807000
1746345600000,95879.99000000,95923.54000000,95286.78000000,95423.20000000,2146.96220000
1746360000000,95423.19000000,95690.48000000,95209.07000000,95467.60000000,1981.94879000
1746374400000,95467.60000000,95640.98000000,95239.33000000,95584.07000000,863.77274000
1746388800000,95584.07000000,95758.08000000,94151.38000000,94277.62000000,2740.34508000
1746403200000,94277.61000000,94808.40000000,93514.10000000,94031.47000000,4140.14024000
1746417600000,94031.47000000,94825.46000000,94020.66000000,94761.91000000,2335.74375000
1746432000000,94761.91000000,94798.01000000,93888.00000000,94038.18000000,2541.09717000
1746446400000,94038.19000000,94531.74000000,93613.66000000,93770.31000000,4184.72517000
1746460800000,93770.32000000,94900.00000000,93759.63000000,94347.17000000,2339.27872000
1746475200000,94347.16000000,95199.00000000,93876.00000000,94733.68000000,1710.19684000
1746489600000,94733.68000000,94926.99000000,94012.78000000,94454.01000000,1586.43370000
1746504000000,94454.01000000,94638.01000000,94308.63000000,94400.99000000,1310.52658000
1746518400000,94400.98000000,94400.99000000,93720.63000000,93812.54000000,2666.58253000
1746532800000,93812.53000000,94733.38000000,93377.00000000,94558.95000000,3922.63869000
1746547200000,94558.94000000,95157.00000000,94216.00000000,94963.50000000,2336.80706000
1746561600000,94963.50000000,96920.65000000,94452.75000000,96834.02000000,4299.65657000
1746576000000,96834.02000000,97732.00000000,96208.10000000,96506.90000000,5180.41253000
1746590400000,96506.90000000,97013.53000000,96310.89000000,96994.82000000,2170.95622000
1746604800000,96994.82000000,97111.00000000,96833.33000000,97047.43000000,1298.75814000
1746619200000,97047.43000000,97478.27000000,96713.14000000,96923.91000000,2791.58426000
1746633600000,96923.91000000,96961.04000000,95784.61000000,96180.01000000,3605.87038000
1746648000000,96180.00000000,97390.00000000,96076.92000000,97030.50000000,1597.25701000
1746662400000,97030.50000000,99222.22000000,96876.29000000,99152.79000000,6410.02899000
1746676800000,99152.79000000,99419.00000000,98723.25000000,99252.34000000,4129.30669000
1746691200000,99252.34000000,99888.00000000,99209.04000000,99409.14000000,3702.67483000
1746705600000,99409.15000000,101525.03000000,99090.66000000,100758.08000000,7963.43171000
1746720000000,100758.08000000,101707.02000000,100596.00000000,101299.99000000,5099.76086000
1746734400000,101300.00000000,104145.76000000,101285.71000000,103261.60000000,7656.82539000
1746748800000,103261.61000000,103268.44000000,102364.00000000,102451.04000000,3733.85340000
1746763200000,102451.04000000,104361.30000000,102374.03000000,103628.77000000,5971.49947000
1746777600000,103628.76000000,103930.00000000,102421.00000000,102958.31000000,8403.08937000
1746792000000,102958.31000000,103793.66000000,102411.99000000,102895.99000000,5841.22214000
1746806400000,102895.99000000,103370.54000000,102315.14000000,103189.17000000,2349.89886000
1746820800000,103189.17000000,103408.00000000,102727.25000000,102971.99000000,1317.83583000
1746835200000,102971.99000000,103265.82000000,102818.76000000,103226.24000000,1788.89448000
1746849600000,103226.25000000,104100.00000000,103034.50000000,103759.71000000,2472.72488000
1746864000000,103759.71000000,104079.37000000,103366.00000000,103434.94000000,2876.26620000
1746878400000,103434.94000000,103825.40000000,103100.00000000,103138.77000000,1933.54411000
1746892800000,103138.76000000,103619.68000000,103005.33000000,103191.35000000,2330.41287000
1746907200000,103191.35000000,104984.57000000,103068.87000000,104809.53000000,3922.94357000
1746921600000,104809.53000000,104972.00000000,103466.05000000,104007.03000000,3855.57081000
1746936000000,104007.03000000,104400.00000000,103345.06000000,103385.47000000,2952.77072000
1746950400000,103385.46000000,104777.00000000,103380.95000000,104652.01000000,2472.65506000
1746964800000,104652.01000000,104888.00000000,103775.91000000,104150.00000000,4500.51294000
1746979200000,104150.00000000,104832.82000000,103750.00000000,104420.00000000,2312.17239000
1746993600000,104420.00000000,104578.62000000,103569.77000000,104118.00000000,1893.44005000
1747008000000,104118.00000000,105086.42000000,103702.15000000,104100.13000000,4046.32885000
1747022400000,104100.13000000,105819.45000000,103750.00000000,104467.99000000,6956.58682000
1747036800000,104467.99000000,104736.45000000,103625.00000000,103762.90000000,4195.60245000
1747051200000,103762.89000000,104629.96000000,102388.00000000,102527.26000000,7882.24448000
1747065600000,102527.27000000,103088.88000000,100718.37000000,101860.00000000,6054.64243000
1747080000000,101859.99000000,103127.92000000,101770.20000000,102791.32000000,2137.37289000
1747094400000,102791.32000000,102791.32000000,101429.70000000,101719.40000000,3352.34144000
1747108800000,101719.40000000,102943.28000000,101610.56000000,102665.50000000,3546.89229000
1747123200000,102665.50000000,103822.03000000,102540.18000000,103729.20000000,2797.46591000
1747137600000,103729.20000000,103966.00000000,102811.32000000,103682.55000000,4451.38278000
1747152000000,103682.54000000,104976.25000000,103532.18000000,104792.22000000,5053.45199000
1747166400000,104792.21000000,104928.00000000,103869.01000000,104103.72000000,2051.88968000
1747180800000,104103.72000000,104115.86000000,103453.26000000,103587.44000000,3010.71837000
1747195200000,103587.44000000,103971.00000000,103381.02000000,103716.55000000,2102.25399000
1747209600000,103716.55000000,104145.00000000,102875.22000000,103944.93000000,3535.76301000
1747224000000,103944.93000000,104356.95000000,102833.55000000,103514.24000000,5202.04446000
1747238400000,103514.24000000,103720.44000000,102602.05000000,103321.72000000,1856.97684000
1747252800000,103321.73000000,103667.52000000,103304.66000000,103507.82000000,745.15143000
1747267200000,103507.83000000,103866.51000000,102720.00000000,102753.63000000,1797.79721000
1747281600000,102753.62000000,102962.38000000,101724.17000000,101779.99000000,2353.66229000
1747296000000,101779.99000000,102441.00000000,101500.00000000,102371.61000000,2612.10704000
1747310400000,102371.62000000,103291.99000000,101383.07000000,103251.35000000,4312.54952000
1747324800000,103251.36000000,104192.70000000,102552.35000000,103157.26000000,4442.22626000
1747339200000,103157.26000000,103980.84000000,102708.46000000,103763.71000000,2480.64372000
1747353600000,103763.71000000,104466.01000000,103467.91000000,104023.49000000,3294.14952000
1747368000000,104023.49000000,104190.48000000,103694.18000000,103710.17000000,2338.96041000
1747382400000,103710.17000000,103900.00000000,103100.49000000,103651.71000000,3118.57852000
1747396800000,103651.72000000,104286.00000000,103343.07000000,104183.33000000,3503.77985000
1747411200000,104183.32000000,104550.33000000,103587.00000000,104032.60000000,2352.84073000
1747425600000,104032.60000000,104032.60000000,103397.50000000,103463.90000000,1075.57121000
1747440000000,103463.90000000,103600.00000000,102612.50000000,103508.48000000,2858.83928000
1747454400000,103508.48000000,103709.86000000,103285.71000000,103451.14000000,1318.92723000
1747468800000,103451.13000000,103568.58000000,102753.67000000,102994.17000000,2720.30154000
1747483200000,102994.18000000,103180.00000000,102640.02000000,102939.53000000,1272.66735000
1747497600000,102939.52000000,103350.00000000,102761.90000000,103158.60000000,1287.96690000
1747512000000,103158.60000000,103477.87000000,102900.72000000,103126.65000000,1792.19392000
1747526400000,103126.65000000,103409.98000000,103105.09000000,103295.70000000,913.96520000
1747540800000,103295.70000000,103988.00000000,103295.69000000,103919.39000000,1414.68073000
1747555200000,103919.39000000,104088.20000000,103800.00000000,103800.54000000,1574.15623000
1747569600000,103800.55000000,105680.00000000,103701.40000000,105518.00000000,4982.50382000
1747584000000,105518.00000000,105980.00000000,103851.01000000,103883.97000000,5395.35549000
1747598400000,103883.98000000,106660.00000000,103285.71000000,106454.26000000,7319.32579000
1747612800000,106454.27000000,107108.62000000,103534.47000000,103605.88000000,5830.41410000
1747627200000,103605.90000000,103779.99000000,102000.00000000,103226.29000000,7899.03768000
1747641600000,103226.29000000,103425.53000000,102782.60000000,102963.41000000,2683.33916000
1747656000000,102963.40000000,104968.75000000,102126.16000000,104786.41000000,6071.83103000
1747670400000,104786.42000000,105561.76000000,104491.53000000,105517.70000000,4503.35567000
1747684800000,105517.64000000,105829.99000000,105016.27000000,105573.74000000,3272.05760000
1747699200000,105573.73000000,106853.27000000,105533.01000000,105761.92000000,5750.55327000
1747713600000,105761.92000000,106399.00000000,104928.44000000,105021.71000000,3035.55334000
1747728000000,105021.70000000,105416.66000000,104847.16000000,105203.76000000,2326.54242000
1747742400000,105203.75000000,105391.27000000,104184.72000000,105333.68000000,3799.70194000
1747756800000,105333.67000000,107238.37000000,105090.90000000,107026.47000000,5057.29953000
1747771200000,107026.47000000,107320.00000000,105935.83000000,106849.99000000,3735.83225000
1747785600000,106850.00000000,107206.94000000,106186.79000000,106843.59000000,2584.02606000
1747800000000,106843.60000000,107985.05000000,106454.54000000,106527.16000000,5791.25242000
1747814400000,106527.17000000,106797.98000000,106100.01000000,106546.44000000,2982.12972000
1747828800000,106546.43000000,109458.00000000,106329.47000000,108973.35000000,11705.49449000
1747843200000,108973.34000000,109845.00000000,106117.67000000,108603.79000000,14958.19983000
1747857600000,108603.79000000,110797.38000000,107725.00000000,109643.99000000,7509.93782500
1747872000000,109643.99000000,111880.00000000,109177.37000000,111780.84000000,9017.73168000
1747886400000,111780.84000000,111795.04000000,110461.87000000,111045.45000000,7103.40338000
1747900800000,111045.45000000,111326.20000000,110272.72000000,110981.97000000,4014.18788000
1747915200000,110981.98000000,111626.43000000,110550.00000000,111290.86000000,6086.26018000
1747929600000,111290.85000000,111980.00000000,110916.40000000,111188.00000000,3260.63270000
1747944000000,111188.00000000,111717.34000000,110763.27000000,111696.21000000,2148.55731000
1747958400000,111696.22000000,111800.00000000,111000.13000000,111100.01000000,2834.29482000
1747972800000,111100.00000000,111181.82000000,110407.89000000,110715.42000000,3226.51500000
1747987200000,110715.41000000,111381.61000000,108888.00000000,109076.35000000,4204.18634000
1748001600000,109076.36000000,109992.75000000,107316.00000000,108940.00000000,13163.25808000
1748016000000,108940.00000000,109809.53000000,108001.00000000,108716.07000000,4951.18081000
1748030400000,108714.01000000,108727.28000000,106800.00000000,107318.30000000,3358.28804000
1748044800000,107318.30000000,108367.54000000,106875.41000000,108366.30000000,2321.32073000
1748059200000,108366.31000000,108582.33000000,107566.37000000,107587.75000000,1982.27366000
1748073600000,107587.75000000,109506.03000000,107587.74000000,109208.56000000,5417.04518000
1748088000000,109208.57000000,109282.81000000,108540.00000000,108929.70000000,2666.17903000
1748102400000,108929.71000000,109200.00000000,108682.36000000,108960.00000000,1015.55537000
1748116800000,108960.00000000,109125.00000000,107500.00000000,107761.91000000,3380.15732000
1748131200000,107761.90000000,108257.14000000,107206.00000000,108095.75000000,2495.88081000
1748145600000,108095.76000000,108288.69000000,107454.54000000,107681.81000000,1293.71165000
1748160000000,107681.82000000,107700.65000000,106708.98000000,107260.00000000,3399.35699000
1748174400000,107259.99000000,107743.34000000,106600.64000000,106967.97000000,5093.14772000
1748188800000,106967.97000000,107940.95000000,106640.52000000,107717.01000000,2103.88371000
1748203200000,107717.02000000,109299.99000000,107176.00000000,109004.19000000,3324.06607000
1748217600000,109004.20000000,109844.91000000,108670.58000000,109623.53000000,3090.79640000
1748232000000,109623.54000000,110228.11000000,109365.29000000,110094.62000000,2472.40910000
1748246400000,110094.62000000,110173.92000000,109556.69000000,109772.72000000,1654.27634000
1748260800000,109772.73000000,110420.74000000,109494.74000000,110009.82000000,3113.22041000
1748275200000,110009.83000000,110422.22000000,108858.28000000,109130.44000000,3037.99696000
1748289600000,109130.44000000,109888.89000000,108940.00000000,109434.79000000,1280.41672000
1748304000000,109434.78000000,109666.00000000,107516.57000000,108892.16000000,4704.30730000
1748318400000,108892.15000000,109636.37000000,108550.00000000,109547.16000000,3340.15950000
1748332800000,109540.00000000,109899.00000000,109428.98000000,109585.49000000,1886.45358000
1748347200000,109585.49000000,110718.00000000,108670.29000000,110140.11000000,6777.89203000
1748361600000,110140.11000000,110499.64000000,109574.46000000,109877.87000000,2624.04806000
1748376000000,109877.87000000,109897.49000000,108600.00000000,108938.17000000,1943.79588000
1748390400000,108938.17000000,109284.70000000,108400.00000000,108863.64000000,2003.85357000
1748404800000,108863.64000000,109089.68000000,108624.43000000,108816.44000000,1391.51979000
1748419200000,108816.44000000,109130.44000000,108258.01000000,108870.38000000,1891.22828000
1748433600000,108870.39000000,109053.39000000,107045.45000000,107107.31000000,5751.05895000
1748448000000,107107.31000000,107842.29000000,106938.24000000,106946.01000000,2757.68701000
1748462400000,106946.00000000,108043.95000000,106769.43000000,107781.78000000,1838.44069000
1748476800000,107781.78000000,108484.61000000,107421.12000000,108044.88000000,3012.04609000
1748491200000,108044.87000000,108106.94000000,106948.01000000,107880.72000000,2287.08404000
1748505600000,107880.73000000,108891.91000000,107681.81000000,108779.84000000,2525.30968000
1748520000000,108779.83000000,108797.25000000,106474.00000000,107019.89000000,5170.87467000
1748534400000,107019.90000000,107168.23000000,105639.30000000,105731.74000000,4682.29852000
1748548800000,105731.74000000,106470.69000000,105322.86000000,105589.75000000,2157.08816000
1748563200000,105589.75000000,106214.93000000,104600.50000000,106024.33000000,4390.94984000
1748577600000,106024.33000000,106313.12000000,104727.72000000,105028.02000000,4187.15493000
1748592000000,105028.03000000,105981.75000000,104606.01000000,105880.51000000,3463.58178000
1748606400000,105880.50000000,106000.00000000,105047.61000000,105543.00000000,4176.35736000
1748620800000,105543.00000000,105560.98000000,103706.71000000,104640.50000000,5203.39187000
1748635200000,104640.49000000,104878.05000000,103621.00000000,103985.48000000,2285.06221000
1748649600000,103985.47000000,104292.69000000,103068.55000000,103684.01000000,3246.32605000
1748664000000,103684.00000000,103911.10000000,103487.99000000,103747.02000000,1424.77118000
1748678400000,103747.03000000,103809.51000000,103285.71000000,103498.18000000,1462.02815000
1748692800000,103498.17000000,104846.15000000,103480.11000000,104556.08000000,2862.31641000
1748707200000,104556.08000000,104780.49000000,104261.39000000,104698.02000000,1237.73843000
1748721600000,104698.03000000,104900.00000000,104473.20000000,104591.88000000,1056.17900000
1748736000000,104591.88000000,104647.11000000,103924.52000000,104381.03000000,1332.51766000
1748750400000,104381.03000000,104729.99000000,104195.12000000,104275.95000000,935.26236000
1748764800000,104275.95000000,104459.07000000,103752.49000000,104082.68000000,1515.57248000
1748779200000,104082.67000000,104809.53000000,103783.01000000,104715.10000000,1868.98228000
1748793600000,104715.10000000,105299.21000000,104319.79000000,105121.94000000,2430.98984000
1748808000000,105121.95000000,105866.91000000,104893.72000000,105642.93000000,1626.37544000
1748822400000,105642.93000000,105735.42000000,104571.42000000,104829.27000000,1887.57513000
1748836800000,104829.27000000,105438.87000000,104610.13000000,105387.67000000,1324.62784000
1748851200000,105387.67000000,105935.63000000,103941.00000000,104047.64000000,3133.90977000
1748865600000,104047.63000000,104679.25000000,103659.88000000,104438.79000000,3457.54510000
1748880000000,104438.79000000,104731.95000000,104030.01000000,104425.63000000,1581.04916000
1748894400000,104425.64000000,105931.44000000,104425.64000000,105857.99000000,2069.28113000
1748908800000,105858.00000000,106500.00000000,105340.18000000,105482.02000000,2370.68744000
1748923200000,105482.03000000,105513.02000000,105116.20000000,105170.75000000,1808.44990000
1748937600000,105170.76000000,105349.94000000,104872.50000000,105287.24000000,1581.41246000
1748952000000,105287.24000000,106794.67000000,105031.60000000,106610.66000000,3944.17196000
1748966400000,106610.66000000,106666.67000000,105592.17000000,106238.81000000,2007.43502000
1748980800000,106238.81000000,106254.92000000,105266.02000000,105376.89000000,1547.36956000
1748995200000,105376.90000000,105839.63000000,105132.27000000,105519.27000000,1468.56182000
1749009600000,105519.26000000,105611.96000000,105250.00000000,105320.75000000,2243.32025000
1749024000000,105320.75000000,106000.00000000,105080.26000000,105084.36000000,3840.76425000
1749038400000,105084.36000000,105542.00000000,104179.00000000,105298.27000000,3906.47888000
1749052800000,105298.26000000,105483.14000000,104865.25000000,104913.52000000,1452.09412000
1749067200000,104913.52000000,105045.79000000,104407.16000000,104696.86000000,1123.67550000
1749081600000,104696.86000000,105240.84000000,104651.16000000,105047.15000000,1126.54275000
1749096000000,105047.15000000,105226.14000000,104380.00000000,104518.05000000,1593.69610000
1749110400000,104518.05000000,104920.00000000,104424.52000000,104827.80000000,1061.75675000
1749124800000,104827.79000000,105909.71000000,103900.00000000,104531.49000000,5067.78387000
1749139200000,104531.50000000,104598.87000000,101596.62000000,101914.77000000,6187.53160000
1749153600000,101914.76000000,102171.44000000,100372.26000000,101508.68000000,7284.19047000
1749168000000,101508.69000000,102520.00000000,101095.80000000,102493.30000000,2752.42188000
1749182400000,102493.30000000,103468.66000000,102387.38000000,103150.44000000,2278.64268000
1749196800000,103150.44000000,103991.45000000,103150.43000000,103927.99000000,2218.22642000
1749211200000,103927.99000000,105333.00000000,103513.70000000,105092.28000000,4660.37233000
1749225600000,105092.28000000,105284.00000000,104013.21000000,104219.80000000,2762.90707000
1749240000000,104219.80000000,104617.56000000,104167.98000000,104288.44000000,1166.50347000
1749254400000,104288.43000000,104910.77000000,103871.09000000,104871.58000000,1400.16428000
1749268800000,104871.59000000,105319.13000000,104643.62000000,104867.04000000,1309.06461000
1749283200000,104867.03000000,105264.00000000,104689.81000000,105150.01000000,1180.35371000
1749297600000,105150.01000000,105800.00000000,105150.00000000,105558.11000000,2197.72958000
1749312000000,105558.11000000,105884.46000000,105279.06000000,105725.91000000,1536.04392000
1749326400000,105725.91000000,105900.00000000,105534.88000000,105552.15000000,721.57596000
1749340800000,105552.15000000,105786.33000000,105394.03000000,105471.59000000,1084.68276000
1749355200000,105471.59000000,105653.13000000,105408.38000000,105426.45000000,623.06268000
1749369600000,105426.46000000,105720.94000000,104964.14000000,105686.71000000,1672.01298000
1749384000000,105686.71000000,106160.19000000,105520.25000000,105984.52000000,2200.98155000
1749398400000,105984.53000000,106360.00000000,105943.91000000,106289.99000000,1099.96633000
1749412800000,106289.99000000,106488.14000000,105545.71000000,105734.00000000,1367.35675000
1749427200000,105734.01000000,105966.33000000,105318.37000000,105659.13000000,1795.04970000
1749441600000,105659.14000000,105717.30000000,105319.00000000,105560.71000000,1470.33986000
1749456000000,105560.71000000,107806.00000000,105473.57000000,107759.21000000,4424.95656000
1749470400000,107759.21000000,108020.00000000,106860.00000000,107635.91000000,3544.41855000
1749484800000,107635.91000000,108767.24000000,107635.91000000,108564.72000000,2689.46607000
1749499200000,108565.86000000,110530.17000000,108456.08000000,110263.02000000,6051.14377000
1749513600000,110263.02000000,110311.82000000,109381.24000000,109568.02000000,2356.61975000
1749528000000,109568.03000000,109737.68000000,109095.67000000,109205.14000000,2317.07387000
1749542400000,109205.14000000,109851.80000000,109056.90000000,109541.28000000,2344.90457000
1749556800000,109541.93000000,109900.81000000,108331.03000000,109015.42000000,5247.00781000
1749571200000,109015.41000000,110400.00000000,108518.86000000,109526.30000000,2639.86004000
1749585600000,109526.30000000,110299.73000000,109239.68000000,110274.39000000,2166.36235000
1749600000000,110274.39000000,110274.40000000,109533.97000000,109722.95000000,1393.61311000
1749614400000,109722.95000000,109745.29000000,109373.67000000,109446.74000000,1000.47435000
1749628800000,109446.74000000,109675.69000000,109193.89000000,109252.09000000,1633.75520000
1749643200000,109252.10000000,110392.01000000,109008.82000000,109735.70000000,4399.26765000
1749657600000,109735.70000000,109815.84000000,108412.01000000,108742.37000000,2837.53217000
1749672000000,108742.37000000,109219.51000000,108064.00000000,108645.12000000,1851.27390000
1749686400000,108645.13000000,108813.55000000,107730.00000000,107860.05000000,3756.83450000
1749700800000,107860.04000000,107993.58000000,107320.00000000,107633.53000000,2337.68090000
1749715200000,107633.53000000,107835.83000000,106874.47000000,106900.95000000,1866.42836000
1749729600000,106900.95000000,107822.50000000,106600.00000000,107020.95000000,3201.28540000
1749744000000,107020.96000000,108450.16000000,106680.00000000,106788.80000000,2559.00784000
1749758400000,106789.80000000,106960.77000000,105671.72000000,105671.73000000,4057.43518000
1749772800000,105671.74000000,105694.00000000,102664.31000000,104277.22000000,11535.37443000
1749787200000,104277.22000000,104970.12000000,103782.75000000,104895.00000000,3355.01643000
1749801600000,104895.01000000,105434.34000000,104425.79000000,105039.48000000,3146.66203000
1749816000000,105039.48000000,105747.47000000,104118.00000000,105436.87000000,3901.15519000
1749830400000,105436.87000000,105981.00000000,104668.73000000,105110.00000000,2950.53869000
1749844800000,105110.01000000,106179.53000000,105020.87000000,106066.59000000,1292.07057000
1749859200000,106066.59000000,106252.00000000,105197.96000000,105228.82000000,3017.48753000
1749873600000,105228.83000000,105397.06000000,104792.98000000,105076.59000000,1002.68077000
1749888000000,105076.59000000,105132.36000000,104836.06000000,105082.01000000,786.76790000
1749902400000,105082.01000000,105131.25000000,104615.38000000,104841.30000000,1045.14048000
1749916800000,104841.29000000,105045.78000000,104359.08000000,104645.67000000,1687.29248000
1749931200000,104645.66000000,105480.00000000,104300.00000000,105414.64000000,1259.57053000
1749945600000,105414.63000000,105680.00000000,105264.75000000,105473.55000000,759.41728000
1749960000000,105473.54000000,106128.57000000,105200.00000000,105428.00000000,1381.52981000
1749974400000,105428.00000000,105482.40000000,104867.64000000,104970.51000000,1057.15319000
1749988800000,104970.51000000,105838.24000000,104955.48000000,105564.00000000,1245.40098000
1750003200000,105563.99000000,105777.09000000,105082.97000000,105294.19000000,975.97763000
1750017600000,105294.19000000,105617.82000000,104494.53000000,105594.01000000,1744.72158000
1750032000000,105594.02000000,105970.59000000,104980.37000000,105921.84000000,1680.03810000
1750046400000,105921.85000000,107262.31000000,105874.48000000,107061.80000000,2778.21159000
1750060800000,107061.80000000,107255.01000000,106582.25000000,106883.99000000,2148.92551000
1750075200000,106884.00000000,107784.26000000,106495.09000000,107424.96000000,2538.35800000
1750089600000,107424.96000000,108888.00000000,107309.15000000,108652.00000000,2748.12533000
1750104000000,108652.01000000,108952.38000000,106700.00000000,106794.53000000,3029.00687000
1750118400000,106794.53000000,107771.34000000,106115.35000000,107590.41000000,3025.95246000
1750132800000,107590.41000000,107711.06000000,106481.60000000,106758.52000000,1696.95424000
1750147200000,106758.52000000,106822.78000000,105508.23000000,105641.47000000,2408.54535000
1750161600000,105641.48000000,105862.03000000,104130.95000000,104241.63000000,4308.26392000
1750176000000,104241.62000000,105336.82000000,103371.02000000,104686.12000000,4719.96669000
1750190400000,104686.12000000,104898.81000000,104203.85000000,104551.17000000,1706.64759000
1750204800000,104551.17000000,105240.00000000,104379.52000000,105184.84000000,1346.38636000
1750219200000,105184.84000000,105550.27000000,104713.24000000,104973.24000000,1758.92527000
1750233600000,104973.24000000,105310.62000000,104175.87000000,104840.59000000,1900.45623000
1750248000000,104840.58000000,105325.83000000,103814.04000000,104801.01000000,4024.47787000
1750262400000,104801.01000000,104836.64000000,103500.00000000,103808.41000000,3290.47730000
1750276800000,103808.41000000,105139.87000000,103652.00000000,104886.78000000,1647.91864000
1750291200000,104886.79000000,105226.17000000,104457.12000000,105100.02000000,1479.10507000
1750305600000,105100.01000000,105220.00000000,104617.69000000,104642.85000000,1132.25759000
1750320000000,104642.85000000,105073.53000000,104631.26000000,104776.23000000,949.58523000
1750334400000,104776.23000000,104917.05000000,104078.00000000,104096.93000000,1595.49890000
1750348800000,104096.94000000,104814.73000000,103929.27000000,104250.44000000,1624.22301000
1750363200000,104250.45000000,104898.31000000,104150.00000000,104658.59000000,897.93757000
1750377600000,104658.59000000,104820.00000000,104391.38000000,104596.63000000,1026.45735000
1750392000000,104596.64000000,105825.66000000,104238.02000000,105811.74000000,1878.07017000
1750406400000,105811.74000000,106524.65000000,105757.48000000,105977.82000000,2862.78664000
1750420800000,105977.82000000,106149.17000000,103888.00000000,104217.99000000,3668.86931000
1750435200000,104218.00000000,104269.64000000,102345.00000000,103307.22000000,5227.49835000
1750449600000,103307.21000000,103828.00000000,102963.67000000,103297.99000000,1755.38101000
1750464000000,103297.98000000,103691.67000000,103127.48000000,103495.87000000,750.73411000
1750478400000,103495.86000000,103599.04000000,103330.00000000,103458.50000000,686.61118000
1750492800000,103458.50000000,103982.64000000,103458.49000000,103874.64000000,1188.56205000
1750507200000,103874.63000000,103946.47000000,103281.82000000,103560.90000000,1449.27436000
1750521600000,103560.90000000,103640.00000000,102210.43000000,102245.10000000,2365.40427000
1750536000000,102245.11000000,102888.88000000,100837.90000000,102120.01000000,4713.62735000
1750550400000,102120.02000000,103399.62000000,101839.96000000,102375.40000000,4339.90882000
1750564800000,102375.40000000,102946.47000000,102256.01000000,102424.61000000,1481.73109000
1750579200000,102424.61000000,102804.05000000,102080.00000000,102739.48000000,1801.30685000
1750593600000,102739.47000000,102831.00000000,98889.35000000,98906.21000000,12422.58545000
1750608000000,98906.21000000,100380.00000000,98673.66000000,98882.84000000,4419.40202000
1750622400000,98882.85000000,101034.65000000,98200.00000000,100963.87000000,4281.47649000
1750636800000,100963.87000000,101620.00000000,100494.25000000,101154.14000000,2930.22354000
1750651200000,101154.13000000,102137.00000000,100980.00000000,101931.04000000,2509.06943000
1750665600000,101931.04000000,102080.00000000,101102.76000000,101289.01000000,2527.52051000
1750680000000,101289.00000000,102613.09000000,100792.16000000,101420.70000000,4451.66500000
1750694400000,101420.71000000,103300.00000000,99613.33000000,103161.29000000,7496.37250000
1750708800000,103161.30000000,106074.20000000,102880.00000000,105333.93000000,7751.65511000
1750723200000,105333.94000000,105500.00000000,104720.82000000,104919.60000000,2882.14256000
1750737600000,104919.60000000,105811.00000000,104704.91000000,104933.74000000,3158.97987000
1750752000000,104933.74000000,105571.40000000,104622.02000000,105170.00000000,2216.86440000
1750766400000,105169.99000000,105731.92000000,104800.98000000,105244.73000000,2933.73072000
1750780800000,105244.72000000,106290.00000000,105172.64000000,105643.19000000,2366.40087000
1750795200000,105643.20000000,106119.11000000,105435.45000000,106083.00000000,1093.57493000
1750809600000,106083.00000000,106791.18000000,105808.03000000,106232.01000000,2385.09450000
1750824000000,106232.01000000,106702.00000000,106001.00000000,106600.01000000,1317.62334000
1750838400000,106600.00000000,107237.44000000,106343.13000000,107198.02000000,2272.81569000
1750852800000,107198.02000000,108135.30000000,106752.36000000,107028.00000000,7497.00314000
1750867200000,107027.99000000,107905.37000000,106931.00000000,107761.68000000,2109.69446000
1750881600000,107761.67000000,108000.00000000,107079.90000000,107340.58000000,1118.92438000
1750896000000,107340.59000000,108272.45000000,107105.43000000,107853.79000000,1896.83706000
1750910400000,107853.79000000,108085.92000000,107520.00000000,107813.99000000,1290.81871000
1750924800000,107813.99000000,108174.86000000,107117.65000000,107325.41000000,2010.44306000
1750939200000,107325.42000000,107765.55000000,106562.50000000,107313.60000000,2623.12904000
1750953600000,107313.61000000,107669.74000000,107009.28000000,107532.98000000,1252.64660000
1750968000000,107532.97000000,108000.00000000,106850.00000000,106947.06000000,1499.39832000
1750982400000,106947.06000000,107515.28000000,106438.33000000,107477.76000000,1472.30428000
1750996800000,107477.76000000,107735.34000000,106850.00000000,106869.71000000,1946.05962000
1751011200000,106869.72000000,107159.95000000,106679.98000000,106983.60000000,2318.07544000
1751025600000,106983.60000000,107407.14000000,106356.76000000,107308.25000000,3704.52866000
1751040000000,107308.25000000,107709.22000000,106446.45000000,106801.02000000,1987.48356000
1751054400000,106801.02000000,107277.99000000,106794.33000000,107047.59000000,803.98886000
1751068800000,107047.58000000,107347.10000000,106811.51000000,107300.13000000,775.04704000
1751083200000,107300.13000000,107496.12000000,107183.29000000,107485.00000000,497.62159000
1751097600000,107485.01000000,107493.07000000,107252.60000000,107373.39000000,416.29840000
1751112000000,107373.39000000,107577.75000000,107084.15000000,107449.28000000,714.87392000
1751126400000,107449.28000000,107542.50000000,107225.74000000,107225.74000000,499.08961000
1751140800000,107225.74000000,107378.37000000,107154.62000000,107296.79000000,379.24296000
1751155200000,107296.79000000,107500.00000000,107172.52000000,107210.78000000,534.03453000
1751169600000,107210.78000000,107402.18000000,107205.82000000,107402.18000000,340.57663000
1751184000000,107402.17000000,108484.00000000,107402.17000000,108477.11000000,1988.92767000
1751198400000,108477.12000000,108528.50000000,107650.00000000,107750.72000000,1320.45894000
1751212800000,107750.72000000,107792.05000000,107316.46000000,107406.81000000,1188.52950000
1751227200000,107406.80000000,108436.47000000,107250.00000000,108356.93000000,1459.20913000
1751241600000,108356.93000000,108789.99000000,108255.81000000,108503.74000000,1564.16827000
1751256000000,108503.74000000,108538.76000000,107481.31000000,107614.08000000,1581.27553000
1751270400000,107614.07000000,107964.33000000,107400.00000000,107654.20000000,1242.20442000
1751284800000,107654.21000000,107858.79000000,106733.33000000,107580.46000000,2980.03437000
1751299200000,107580.47000000,107807.94000000,107116.40000000,107745.97000000,1314.82691000
1751313600000,107745.97000000,107764.73000000,106900.02000000,107146.50000000,1071.61541000
1751328000000,107146.51000000,107540.00000000,107026.93000000,107192.38000000,973.46000000
1751342400000,107192.39000000,107203.11000000,106615.97000000,107178.99000000,1267.97836000
1751356800000,107178.99000000,107178.99000000,106301.86000000,106605.80000000,1434.81634000
1751371200000,106605.79000000,107179.99000000,105623.39000000,105955.18000000,3974.69567000
1751385600000,105955.19000000,106287.95000000,105387.68000000,105398.53000000,1690.90273000
1751400000000,105398.52000000,106100.00000000,105250.85000000,105681.14000000,1163.77127000
1751414400000,105681.13000000,106216.08000000,105100.19000000,106194.70000000,1453.64233000
1751428800000,106194.70000000,107186.78000000,106131.55000000,107080.00000000,1903.51108000
1751443200000,107080.00000000,107860.23000000,107080.00000000,107479.99000000,2147.68080000
1751457600000,107479.98000000,108759.20000000,107186.10000000,108737.74000000,3227.14121000
1751472000000,108737.75000000,109730.00000000,108650.97000000,109676.14000000,5656.10907000
1751486400000,109676.14000000,109676.14000000,108720.00000000,108849.60000000,3303.81143000
1751500800000,108849.59000000,109115.03000000,108530.40000000,108628.21000000,1439.99562000
1751515200000,108628.20000000,109548.00000000,108566.14000000,109280.00000000,1560.58968000
1751529600000,109279.99000000,110273.21000000,109279.99000000,109599.19000000,3249.54880000
1751544000000,109599.18000000,110529.18000000,108749.99000000,109127.84000000,4201.72590000
1751558400000,109127.85000000,109910.10000000,109020.80000000,109803.41000000,1688.44383000
1751572800000,109803.41000000,110000.00000000,109510.00000000,109584.78000000,906.77842000
1751587200000,109584.77000000,109767.59000000,109103.71000000,109235.57000000,1002.72236000
1751601600000,109235.58000000,109329.60000000,108700.00000000,108700.00000000,1609.06105000
1751616000000,108700.00000000,109111.00000000,108518.83000000,108888.00000000,1086.39121000
1751630400000,108888.00000000,108978.64000000,107505.00000000,107573.29000000,3616.08946000
1751644800000,107573.29000000,107922.50000000,107245.00000000,107469.23000000,3431.70312000
1751659200000,107469.22000000,108279.33000000,107440.63000000,107984.24000000,1047.89895000
1751673600000,107984.25000000,108259.99000000,107756.31000000,108154.72000000,766.63785000
1751688000000,108154.72000000,108420.56000000,108000.00000000,108053.46000000,660.13042000
1751702400000,108053.46000000,108219.19000000,107870.42000000,108112.21000000,675.37974000
1751716800000,108112.20000000,108232.29000000,107971.00000000,108058.00000000,564.47080000
1751731200000,108058.00000000,108167.23000000,107864.75000000,108141.78000000,586.19610000
1751745600000,108141.78000000,108250.00000000,107993.39000000,108198.12000000,484.16079000
1751760000000,108198.12000000,108268.35000000,108025.97000000,108050.49000000,397.25464000
1751774400000,108050.49000000,108218.00000000,107930.45000000,108040.31000000,497.89684000
1751788800000,108040.31000000,108111.00000000,107800.01000000,108076.01000000,740.99603000
1751803200000,108076.00000000,109127.03000000,108045.76000000,108905.99000000,2193.35606000
1751817600000,108906.00000000,108966.62000000,108266.67000000,108538.46000000,922.00834000
1751832000000,108538.45000000,109700.00000000,108536.86000000,109203.84000000,1696.09509000
1751846400000,109203.85000000,109700.00000000,108679.75000000,109389.47000000,1313.66179000
1751860800000,109389.46000000,109447.54000000,108654.94000000,109061.08000000,1068.89272000
1751875200000,109061.07000000,109087.86000000,108572.52000000,108642.01000000,1793.43934000
1751889600000,108642.01000000,108660.00000000,107970.00000000,108292.59000000,2516.39623000
1751904000000,108292.59000000,108493.56000000,107513.20000000,108056.68000000,1826.11433000
1751918400000,108056.67000000,108300.00000000,107800.01000000,108262.94000000,886.87160000
1751932800000,108262.94000000,108525.00000000,107429.57000000,107901.52000000,2011.55999000
1751947200000,107901.52000000,108499.00000000,107750.00000000,108484.61000000,1010.06569000
1751961600000,108484.61000000,109005.00000000,108229.15000000,108756.37000000,1314.23794000
1751976000000,108756.37000000,109216.56000000,108217.07000000,108268.35000000,1848.45054000
1751990400000,108268.35000000,109147.56000000,108096.55000000,108771.88000000,2426.90745000
1752004800000,108771.87000000,108974.00000000,108624.00000000,108922.98000000,604.79919000
1752019200000,108922.99000000,109136.00000000,108348.00000000,108376.41000000,994.80226000
1752033600000,108376.41000000,108942.20000000,108324.53000000,108714.39000000,1001.59915000
1752048000000,108714.39000000,109117.00000000,108553.18000000,109058.27000000,1275.99616000
1752062400000,109058.27000000,109769.39000000,108503.00000000,109071.32000000,4108.39131000
1752076800000,109071.32000000,111999.79000000,109047.49000000,111750.00000000,6338.57455000
1752091200000,111749.99000000,111952.33000000,110559.40000000,111233.99000000,3562.92307000
1752105600000,111234.00000000,111581.00000000,110880.00000000,111074.51000000,1687.73466000
1752120000000,111074.52000000,111432.46000000,110898.00000000,111230.00000000,1667.11413000
1752134400000,111229.99000000,111398.96000000,110870.33000000,111019.99000000,1407.79297000
1752148800000,111019.99000000,111408.41000000,110500.00000000,111408.40000000,2221.21737000
1752163200000,111408.40000000,113788.23000000,111322.32000000,113301.81000000,7461.03769100
1752177600000,113301.80000000,116868.00000000,113270.98000000,116010.00000000,10438.55384400
1752192000000,116010.01000000,116950.00000000,115222.22000000,116881.70000000,4456.67130100
1752206400000,116881.69000000,118404.22000000,116500.00000000,117526.88000000,7940.17337700
1752220800000,117526.88000000,118869.98000000,117526.88000000,117821.91000000,4664.06161000
1752235200000,117821.91000000,118259.24000000,116724.66000000,116902.59000000,4711.37408000
1752249600000,116902.58000000,118138.75000000,116604.87000000,118108.81000000,2754.72647000
1752264000000,118108.81000000,118108.81000000,117146.80000000,117527.66000000,1346.51431000
1752278400000,117527.66000000,117847.66000000,117141.13000000,117774.42000000,1268.81982000
1752292800000,117774.42000000,118054.79000000,117506.37000000,117731.99000000,1157.69575000
1752307200000,117731.99000000,118200.00000000,117625.00000000,117810.00000000,1459.36466000
1752321600000,117810.00000000,117861.19000000,116900.05000000,117100.01000000,2887.39027000
1752336000000,117100.00000000,117639.98000000,117045.86000000,117550.96000000,961.54328000
1752350400000,117550.96000000,117563.75000000,117000.01000000,117420.00000000,711.79059000
1752364800000,117420.00000000,117824.76000000,117224.79000000,117753.60000000,696.41148000
1752379200000,117753.59000000,118054.79000000,117684.22000000,117999.00000000,867.97982000
1752393600000,117998.99000000,118086.66000000,117689.63000000,118072.01000000,685.44893000
1752408000000,118072.01000000,119376.00000000,117989.53000000,118672.24000000,3891.10431700
1752422400000,118672.23000000,119488.00000000,118382.56000000,118961.08000000,1749.40157000
1752436800000,118961.09000000,119367.37000000,118243.68000000,119086.64000000,1660.44683000
1752451200000,119086.65000000,121492.48000000,118905.18000000,120750.24000000,5418.53288600
1752465600000,120750.25000000,123218.00000000,120557.63000000,122736.04000000,6981.80022100
1752480000000,122736.04000000,122769.19000000,121355.55000000,121467.24000000,3279.33527000
1752494400000,121467.23000000,122120.00000000,119611.70000000,119878.23000000,6047.71252000
1752508800000,119878.22000000,120526.03000000,119202.00000000,119939.41000000,4127.24496000
1752523200000,119939.42000000,120447.00000000,119522.72000000,119841.18000000,1414.72302000
1752537600000,119841.17000000,119940.83000000,116840.01000000,117148.47000000,6623.40172000
1752552000000,117148.46000000,117765.40000000,116250.00000000,116779.12000000,5478.80575000
1752566400000,116779.13000000,117224.08000000,116300.00000000,117113.98000000,3612.34292000
1752580800000,117113.98000000,118490.71000000,115736.92000000,116391.43000000,8662.27705000
1752595200000,116391.43000000,117800.60000000,116019.05000000,116416.07000000,5395.39361000
1752609600000,116416.07000000,117972.86000000,116192.27000000,117758.09000000,2246.23978000
1752624000000,117758.08000000,118195.00000000,117017.29000000,117482.67000000,2060.70862000
1752638400000,117482.67000000,118300.00000000,117275.63000000,118189.25000000,1653.72862000
1752652800000,118189.24000000,119310.75000000,118113.82000000,118769.06000000,2658.37376000
1752667200000,118769.06000000,119794.80000000,118181.14000000,119095.76000000,4851.16642000
1752681600000,119095.76000000,119904.13000000,118471.38000000,119230.16000000,2877.33424000
1752696000000,119230.16000000,120063.84000000,118420.00000000,118630.43000000,2938.59685000
1752710400000,118630.44000000,119158.28000000,117683.53000000,118128.80000000,2234.06203000
1752724800000,118128.80000000,118772.00000000,117857.03000000,118311.75000000,2080.63383000
1752739200000,118311.75000000,119192.00000000,117974.99000000,117995.00000000,2041.88316000
1752753600000,117995.00000000,119073.46000000,117453.57000000,118881.99000000,3175.79483000
1752768000000,118881.99000000,119880.13000000,118333.60000000,118959.66000000,2433.94045000
1752782400000,118959.66000000,120998.71000000,118383.97000000,119177.56000000,3762.26221000
1752796800000,119177.56000000,120785.49000000,119020.48000000,120223.09000000,2672.86935000
1752811200000,120223.08000000,120820.71000000,119287.72000000,119339.51000000,3649.17934000
1752825600000,119339.51000000,119469.21000000,118395.00000000,119171.34000000,3814.49483000
1752840000000,119171.35000000,119531.48000000,117315.69000000,117860.25000000,5020.77844000
1752854400000,117860.24000000,118054.92000000,117120.53000000,117374.76000000,2564.58563000
1752868800000,117374.75000000,118021.62000000,116812.76000000,117924.84000000,2202.75507000
1752883200000,117924.84000000,118371.42000000,117613.35000000,118322.54000000,1323.00452000
1752897600000,118322.53000000,118364.00000000,118044.19000000,118163.06000000,828.72543000
1752912000000,118163.07000000,118499.90000000,117943.25000000,118327.06000000,1123.42732000
1752926400000,118327.05000000,118327.06000000,117627.71000000,118058.11000000,1656.66730000
1752940800000,118058.10000000,118161.51000000,117605.26000000,118007.88000000,780.27633000
1752955200000,118007.88000000,118141.00000000,117277.34000000,117840.00000000,923.70216000
1752969600000,117840.01000000,118165.38000000,117650.00000000,117958.01000000,1216.03617000
1752984000000,117958.00000000,118218.00000000,117760.67000000,118029.49000000,940.72723000
1752998400000,118029.49000000,118277.17000000,117819.88000000,117878.46000000,1800.28230000
1753012800000,117878.46000000,118799.80000000,117723.23000000,118671.11000000,3280.10469000
1753027200000,118671.12000000,118856.80000000,117960.00000000,118155.01000000,2119.12806000
1753041600000,118155.00000000,118263.00000000,116467.02000000,117265.12000000,3606.65044000
1753056000000,117265.11000000,118614.70000000,116515.00000000,118404.00000000,2794.62163000
1753070400000,118404.01000000,119676.73000000,118188.95000000,119362.67000000,2783.66639000
1753084800000,119364.18000000,119500.00000000,118070.16000000,118070.17000000,2511.88984000
1753099200000,118070.17000000,119233.71000000,117778.70000000,118313.16000000,3505.38294000
1753113600000,118313.16000000,118399.10000000,116666.00000000,116767.67000000,3816.98929000
1753128000000,116767.67000000,117633.66000000,116656.88000000,117380.36000000,1694.78119000
1753142400000,117380.36000000,117950.00000000,116128.00000000,117210.00000000,3707.46413000
1753156800000,117210.00000000,118594.55000000,116552.18000000,117983.68000000,4279.84175000
1753171200000,117983.69000000,119188.30000000,117488.19000000,119154.99000000,3376.79135000
1753185600000,119154.99000000,119573.53000000,117550.00000000,118912.04000000,4597.23931000
1753200000000,118912.04000000,120183.96000000,118368.19000000,119282.10000000,3067.62854000
1753214400000,119282.11000000,120247.80000000,119203.20000000,119954.42000000,1930.16465000
1753228800000,119954.43000000,120090.00000000,118532.96000000,118614.17000000,2068.11927000
1753243200000,118614.16000000,119006.05000000,118288.20000000,118350.35000000,1564.23355000
1753257600000,118350.35000000,118619.79000000,117844.24000000,118538.46000000,1801.10341000
1753272000000,118538.46000000,118708.24000000,117301.00000000,118567.39000000,4037.18842000
1753286400000,118567.39000000,118567.39000000,117331.63000000,118393.64000000,2651.82367000
1753300800000,118393.64000000,118756.00000000,117381.80000000,118755.99000000,2436.28251000
1753315200000,118756.00000000,119273.36000000,118466.71000000,118488.92000000,1878.28334000
1753329600000,118488.92000000,118610.25000000,117103.10000000,118416.21000000,3786.93245000
1753344000000,118416.21000000,118814.47000000,117955.59000000,118600.00000000,2404.15809000
1753358400000,118600.00000000,119450.00000000,117832.32000000,119092.65000000,4139.29216000
1753372800000,119092.65000000,119395.81000000,118350.00000000,118943.42000000,2166.82662000
1753387200000,118943.42000000,119010.64000000,118166.94000000,118340.99000000,1431.39777000
1753401600000,118340.98000000,118451.57000000,115330.86000000,115419.66000000,11127.20493000
1753416000000,115419.65000000,116144.63000000,114723.16000000,115320.01000000,8835.25163000
1753430400000,115320.01000000,116782.13000000,115008.85000000,116543.58000000,7216.21136000
1753444800000,116543.59000000,116656.99000000,114908.00000000,115727.08000000,6361.79335000
1753459200000,115727.07000000,116997.21000000,115455.46000000,116688.60000000,3089.40882000
1753473600000,116688.60000000,117630.00000000,116578.02000000,117614.31000000,1776.47864000
1753488000000,117614.31000000,117750.00000000,117138.38000000,117489.62000000,1222.24277000
1753502400000,117489.61000000,117547.92000000,117304.46000000,117304.47000000,1006.48005000
1753516800000,117304.47000000,118217.45000000,117304.46000000,117776.11000000,1549.30958000
1753531200000,117776.10000000,118220.00000000,117772.13000000,118130.10000000,1303.59734000
1753545600000,118130.10000000,118297.35000000,117941.96000000,118232.11000000,1051.39337000
1753560000000,118232.11000000,118276.66000000,117883.86000000,117919.99000000,858.64895000
1753574400000,117919.99000000,118358.18000000,117825.50000000,118182.83000000,1007.50696000
1753588800000,118182.83000000,118438.83000000,118066.74000000,118095.95000000,808.21213000
1753603200000,118095.95000000,118292.86000000,117859.98000000,118072.71000000,835.96960000
1753617600000,118072.71000000,118588.00000000,117890.00000000,118585.74000000,1586.05165000
1753632000000,118585.75000000,119540.01000000,118585.75000000,118960.00000000,3418.37234000
1753646400000,118960.01000000,119766.65000000,118713.74000000,119415.55000000,1672.19651000
1753660800000,119415.56000000,119800.00000000,118960.50000000,119287.99000000,1824.53168000
1753675200000,119287.99000000,119701.07000000,118774.31000000,118900.00000000,2360.06220000
1753689600000,118900.01000000,119102.69000000,118475.47000000,118827.49000000,2060.18220000
1753704000000,118827.49000000,119093.68000000,117895.73000000,118174.90000000,3792.61028000
1753718400000,118174.89000000,118376.61000000,117427.50000000,118068.73000000,2575.55527000
1753732800000,118068.73000000,118350.01000000,117500.09000000,118062.32000000,1348.80591000
1753747200000,118062.32000000,118800.00000000,117450.00000000,118764.85000000,2242.87768000
1753761600000,118764.85000000,119273.36000000,118416.66000000,118882.37000000,2579.99271000
1753776000000,118882.37000000,119051.00000000,118160.87000000,118592.38000000,1962.95351000
1753790400000,118592.38000000,119080.81000000,117272.00000000,117400.01000000,4173.95638000
1753804800000,117400.02000000,118057.05000000,116950.75000000,117525.29000000,2441.06334000
1753819200000,117525.28000000,118000.00000000,117094.96000000,117950.76000000,1737.09083000
1753833600000,117950.75000000,118250.00000000,117412.53000000,118161.87000000,1226.38506000
1753848000000,118161.86000000,118412.11000000,117667.33000000,118123.01000000,1232.08963000
1753862400000,118123.00000000,118481.81000000,117358.84000000,117579.99000000,2228.01795000
1753876800000,117579.99000000,118792.00000000,117358.84000000,118000.01000000,3794.91612000
1753891200000,118000.01000000,118037.18000000,115796.23000000,116916.73000000,5721.15052000
1753905600000,116916.73000000,117908.40000000,116880.64000000,117840.30000000,1384.17703000
1753920000000,117840.29000000,118600.00000000,117781.87000000,118466.14000000,2307.57332000
1753934400000,118466.15000000,118922.45000000,118287.63000000,118665.97000000,1907.96734000
1753948800000,118665.98000000,118770.07000000,118278.91000000,118371.25000000,1290.20631000
1753963200000,118371.25000000,118702.10000000,117807.35000000,118306.18000000,3457.28095000
1753977600000,118306.18000000,118879.14000000,116763.43000000,116785.79000000,4228.22018000
1753992000000,116785.78000000,116990.04000000,115500.00000000,115764.08000000,3818.75920000
1754006400000,115764.07000000,116052.00000000,114313.13000000,115648.03000000,5440.32571000
1754020800000,115648.03000000,115916.43000000,114633.18000000,115081.77000000,2952.50734000
1754035200000,115081.76000000,115340.00000000,114116.00000000,115305.65000000,3338.52917000
1754049600000,115305.64000000,116019.30000000,113988.47000000,115357.82000000,5325.96286000
1754064000000,115357.82000000,115695.52000000,113221.93000000,113328.68000000,4135.47502000
1754078400000,113328.67000000,114094.08000000,112722.58000000,113297.93000000,3294.30196000
1754092800000,113297.92000000,113921.94000000,113198.63000000,113909.86000000,1422.97261000
1754107200000,113909.87000000,114063.49000000,113469.43000000,113982.49000000,1674.39001000
1754121600000,113982.49000000,114040.29000000,113425.58000000,113787.12000000,1135.36227000
1754136000000,113787.11000000,113787.12000000,112802.31000000,112840.71000000,1922.72871000
1754150400000,112840.70000000,113420.00000000,112003.00000000,112229.42000000,3414.70659000
1754164800000,112229.42000000,113058.82000000,112069.86000000,112546.35000000,1937.17409000
1754179200000,112546.35000000,113740.69000000,111920.00000000,113604.20000000,2106.54410000
1754193600000,113604.20000000,113720.16000000,113341.06000000,113700.00000000,764.27697000
1754208000000,113700.00000000,114260.31000000,113551.00000000,113862.18000000,1260.20877000
1754222400000,113862.19000000,114098.45000000,113579.69000000,113959.06000000,1131.56686000
1754236800000,113959.06000000,114799.97000000,113775.55000000,114313.19000000,1254.96509000
1754251200000,114313.19000000,114612.24000000,114066.56000000,114208.80000000,880.19867000
1754265600000,114208.81000000,115000.00000000,114107.60000000,114570.61000000,1525.00586000
1754280000000,114570.61000000,114778.50000000,114148.58000000,114652.97000000,1221.27307000
1754294400000,114652.98000000,114750.00000000,114217.97000000,114493.09000000,1188.64494000
1754308800000,114493.09000000,115466.00000000,114121.00000000,114826.00000000,2885.46126000
1754323200000,114826.01000000,115720.00000000,114732.65000000,114777.62000000,1843.11618000
1754337600000,114777.62000000,115340.00000000,114616.33000000,115055.03000000,1004.17785000
1754352000000,115055.03000000,115127.81000000,114256.85000000,114256.85000000,1398.92395000
1754366400000,114256.85000000,114500.66000000,113725.72000000,113969.70000000,2125.54323000
1754380800000,113969.70000000,115096.73000000,113928.87000000,114827.07000000,1593.56232000
1754395200000,114827.07000000,114893.13000000,112650.00000000,112934.00000000,4590.46840000
1754409600000,112934.00000000,113763.27000000,112815.68000000,113616.52000000,1434.52074000
1754424000000,113616.51000000,114228.88000000,113304.00000000,114129.75000000,899.77214000
1754438400000,114129.75000000,114139.38000000,113400.00000000,113509.97000000,1061.53764000
1754452800000,113509.98000000,114417.02000000,113355.13000000,114227.91000000,1437.03071000
1754467200000,114227.90000000,114404.23000000,113727.57000000,114226.69000000,1280.29764000
1754481600000,114226.68000000,115515.09000000,113579.90000000,115413.87000000,3509.68013000
1754496000000,115413.87000000,115716.00000000,114942.18000000,115259.99000000,1727.95909000
1754510400000,115260.00000000,115260.00000000,114793.01000000,114992.27000000,744.64797000
1754524800000,114992.27000000,115185.58000000,114404.22000000,114546.03000000,1192.91433000
1754539200000,114546.03000000,114876.79000000,114259.00000000,114787.99000000,1290.96115000
1754553600000,114787.99000000,116828.93000000,114787.98000000,116519.53000000,3698.10885000
1754568000000,116519.54000000,116791.11000000,116035.84000000,116689.81000000,2746.73177000
1754582400000,116689.80000000,117520.00000000,115632.31000000,117461.98000000,2735.62556000
1754596800000,117461.99000000,117621.00000000,117012.00000000,117472.01000000,1804.22097000
1754611200000,117472.02000000,117630.00000000,116694.28000000,116737.35000000,2393.91974000
1754625600000,116737.34000000,116973.30000000,116401.00000000,116817.19000000,1456.27491000
1754640000000,116817.20000000,116914.60000000,116317.08000000,116891.51000000,1108.98011000
1754654400000,116891.51000000,117271.73000000,115878.71000000,116207.69000000,2540.81848000
1754668800000,116207.70000000,116900.00000000,116006.14000000,116453.41000000,1690.79713000
1754683200000,116453.41000000,116980.00000000,116319.06000000,116674.74000000,854.52241000
1754697600000,116674.74000000,116750.00000000,116299.13000000,116384.01000000,971.89236000
1754712000000,116384.01000000,116980.00000000,116339.45000000,116756.01000000,2021.01259000
1754726400000,116756.00000000,117944.05000000,116756.00000000,117110.00000000,2353.37140000
1754740800000,117110.00000000,117238.04000000,116700.01000000,116892.47000000,1382.66437000
1754755200000,116892.48000000,116947.16000000,116500.00000000,116535.69000000,1202.78039000
1754769600000,116535.68000000,117021.16000000,116359.89000000,116462.25000000,1582.41033000
1754784000000,116462.25000000,118500.00000000,116460.63000000,118500.00000000,3892.68324000
1754798400000,118500.00000000,118741.77000000,117466.34000000,117808.30000000,2444.08380000
1754812800000,117808.29000000,118500.00000000,117608.01000000,118330.58000000,1506.32503000
1754827200000,118330.58000000,119113.94000000,118232.00000000,118815.00000000,2809.22760000
1754841600000,118815.00000000,118944.24000000,118433.80000000,118663.08000000,995.85812000
1754856000000,118663.09000000,119311.11000000,118074.99000000,119294.01000000,2674.59294000
1754870400000,119294.27000000,122164.07000000,118972.59000000,121728.99000000,7626.19257000
1754884800000,121729.00000000,122335.16000000,121466.08000000,121537.15000000,4279.88790000
1754899200000,121537.14000000,121823.00000000,120286.40000000,120561.54000000,4216.26732000
1754913600000,120561.53000000,120667.54000000,119382.91000000,120314.40000000,5236.26223000
1754928000000,120314.40000000,120794.05000000,118604.17000000,119089.30000000,2812.92272000
1754942400000,119089.30000000,119172.63000000,118050.11000000,118686.00000000,2322.80155000
1754956800000,118686.00000000,119275.46000000,118593.39000000,118857.70000000,1894.63528000
1754971200000,118857.70000000,119158.06000000,118424.86000000,118986.72000000,3135.38397000
1754985600000,118986.73000000,119058.43000000,118207.47000000,118522.22000000,2346.37900000
1755000000000,118522.22000000,119960.00000000,118285.00000000,119933.00000000,4914.05441000
1755014400000,119933.00000000,120192.10000000,119172.62000000,119665.27000000,2309.07117000
1755028800000,119665.27000000,120324.43000000,119485.84000000,120134.08000000,2120.58510000
1755043200000,120134.09000000,120192.10000000,119094.28000000,119482.01000000,2361.00135000
1755057600000,119482.01000000,119820.18000000,118920.92000000,119580.40000000,2324.10298000
1755072000000,119580.40000000,120732.94000000,119446.22000000,120570.41000000,3213.18528000
1755086400000,120570.41000000,122200.00000000,120106.02000000,120920.62000000,7228.67197000
1755100800000,120920.61000000,122839.47000000,120920.61000000,122744.21000000,4167.90157000
1755115200000,122744.22000000,123667.79000000,122298.20000000,123306.43000000,3915.20787000
1755129600000,123306.44000000,124474.00000000,123250.50000000,123337.14000000,3481.67631600
1755144000000,123337.14000000,123428.60000000,121313.86000000,121725.31000000,3755.65744000
1755158400000,121725.31000000,122045.90000000,120694.00000000,120949.67000000,3456.28874000
1755172800000,120949.66000000,121183.06000000,117632.00000000,118257.25000000,11617.06761000
1755187200000,118257.26000000,118535.00000000,117180.00000000,117945.92000000,3545.40524000
1755201600000,117945.92000000,118516.81000000,117302.33000000,118295.09000000,2124.85224000
1755216000000,118295.09000000,119077.71000000,118032.32000000,118968.91000000,1883.55436000
1755230400000,118968.91000000,119216.82000000,118629.58000000,118956.45000000,1732.90691000
1755244800000,118956.45000000,119144.50000000,118600.00000000,119006.01000000,1129.82607000
1755259200000,119006.01000000,119130.77000000,116827.29000000,117275.22000000,5128.89360000
1755273600000,117275.23000000,117882.35000000,116803.99000000,116936.27000000,2393.46089000
1755288000000,116936.28000000,117761.88000000,116862.50000000,117342.05000000,1354.69691000
1755302400000,117342.04000000,117898.99000000,117231.14000000,117429.63000000,1420.52550000
1755316800000,117429.63000000,117884.00000000,117278.00000000,117596.07000000,925.25596000
1755331200000,117596.07000000,117703.92000000,117143.98000000,117378.52000000,1206.04130000
1755345600000,117378.52000000,117825.00000000,117327.63000000,117676.70000000,1191.50027000
1755360000000,117676.70000000,117817.65000000,117629.94000000,117672.12000000,817.42683000
1755374400000,117672.13000000,117713.51000000,117219.34000000,117380.66000000,832.93131000
1755388800000,117380.66000000,117771.37000000,117172.21000000,117684.95000000,770.53091000
1755403200000,117684.96000000,118230.82000000,117684.95000000,118005.98000000,1109.68335000
1755417600000,118005.98000000,118484.00000000,117922.00000000,118308.01000000,1007.67549000
1755432000000,118308.00000000,118575.00000000,118059.12000000,118246.16000000,974.27271000
1755446400000,118246.15000000,118316.01000000,117321.53000000,117570.07000000,1326.17558000
1755460800000,117570.07000000,117995.37000000,117371.65000000,117405.01000000,710.30388000
1755475200000,117405.01000000,117543.75000000,115000.00000000,115319.00000000,5801.42298000
1755489600000,115319.00000000,115712.49000000,114878.71000000,115205.98000000,3433.42415000
1755504000000,115205.99000000,115402.51000000,114640.14000000,114947.27000000,2793.98984000
1755518400000,114947.27000000,116186.97000000,114825.00000000,116145.34000000,2772.17945000
1755532800000,116145.34000000,116800.00000000,115818.86000000,116313.99000000,1731.37273000
1755547200000,116314.00000000,116980.00000000,115980.32000000,116227.05000000,1213.55039000
