timestamp,open,high,low,close,volume
1703059200000,42924.23000000,42998.08000000,42675.00000000,42864.44000000,4763.28129000
1703073600000,42864.43000000,44283.00000000,42757.32000000,44027.20000000,17908.79006000
1703088000000,44027.20000000,44250.00000000,43486.00000000,43738.01000000,9819.94341000
1703102400000,43738.01000000,43812.23000000,43230.17000000,43668.93000000,6786.92679000
1703116800000,43668.92000000,43731.08000000,43286.72000000,43649.37000000,4790.55223000
1703131200000,43649.36000000,43877.75000000,43451.44000000,43764.50000000,3938.84606000
1703145600000,43764.49000000,44100.00000000,43579.22000000,43931.60000000,6686.08927000
1703160000000,43931.60000000,44242.35000000,43380.00000000,43823.99000000,8691.42689000
1703174400000,43824.00000000,43927.70000000,43370.40000000,43588.80000000,6170.95540000
1703188800000,43588.79000000,44119.20000000,43554.01000000,43861.80000000,4346.42399000
1703203200000,43861.79000000,44251.00000000,43722.46000000,44008.00000000,5039.97364000
1703217600000,44008.00000000,44398.26000000,43534.47000000,43584.37000000,7209.42647000
1703232000000,43584.37000000,43839.22000000,43463.00000000,43753.94000000,5847.93033000
1703246400000,43753.95000000,43809.40000000,43412.54000000,43671.10000000,5724.75521000
1703260800000,43671.10000000,43992.00000000,43481.14000000,43640.79000000,5097.02561000
1703275200000,43640.79000000,44048.16000000,43617.44000000,43969.04000000,3864.08512000
1703289600000,43969.04000000,43988.68000000,43456.00000000,43526.43000000,4037.34134000
1703304000000,43526.43000000,43650.10000000,43291.10000000,43562.32000000,2798.28564000
1703318400000,43562.31000000,43669.88000000,43490.01000000,43547.78000000,2368.14341000
1703332800000,43547.78000000,43856.00000000,43547.77000000,43756.24000000,2820.01582000
1703347200000,43756.24000000,43850.00000000,43695.03000000,43703.81000000,2133.70247000
1703361600000,43703.82000000,43835.94000000,43632.77000000,43702.16000000,2399.64062000
1703376000000,43702.15000000,43907.57000000,43606.18000000,43834.48000000,2902.02733000
1703390400000,43834.48000000,43946.00000000,43401.00000000,43651.17000000,4698.01101000
1703404800000,43651.17000000,43694.72000000,43405.00000000,43634.20000000,3167.95205000
1703419200000,43634.19000000,43864.08000000,43560.74000000,43680.23000000,3405.69652000
1703433600000,43680.23000000,43713.86000000,43550.00000000,43618.07000000,2583.11278000
1703448000000,43618.08000000,43618.08000000,42500.00000000,42991.50000000,8387.53527000
1703462400000,42991.50000000,43158.59000000,42720.43000000,43152.78000000,3868.54726000
1703476800000,43152.78000000,43335.13000000,43101.53000000,43208.15000000,2830.76950000
1703491200000,43208.15000000,43291.05000000,43045.43000000,43171.11000000,3716.03265000
1703505600000,43171.11000000,43802.32000000,43080.01000000,43618.00000000,7057.73658000
1703520000000,43618.01000000,43710.01000000,43343.83000000,43474.25000000,5196.06699000
1703534400000,43474.25000000,43720.96000000,43328.14000000,43576.13000000,4352.08694000
1703548800000,43576.12000000,43592.68000000,43362.23000000,43451.46000000,3221.59168000
1703563200000,43451.45000000,43474.26000000,42545.00000000,42774.12000000,9020.48128000
1703577600000,42774.12000000,42798.00000000,42150.00000000,42685.55000000,8870.72819000
1703592000000,42685.56000000,42827.68000000,42250.00000000,42391.50000000,5600.42168000
1703606400000,42391.51000000,42434.20000000,41637.60000000,42109.11000000,10403.73943000
1703620800000,42109.11000000,42591.89000000,42055.00000000,42508.93000000,3893.08056000
1703635200000,42508.93000000,42541.10000000,42098.69000000,42234.66000000,3610.05423000
1703649600000,42234.65000000,42542.00000000,42200.00000000,42455.83000000,3330.54138000
1703664000000,42455.82000000,43220.00000000,42399.72000000,43019.11000000,7678.46442000
1703678400000,43019.11000000,43150.00000000,42706.00000000,42980.65000000,8156.72899000
1703692800000,42980.64000000,43215.00000000,42862.56000000,43154.34000000,5972.52558000
1703707200000,43154.34000000,43677.00000000,43121.45000000,43428.85000000,7442.89676000
1703721600000,43428.86000000,43787.57000000,43304.27000000,43408.41000000,6082.45863000
1703736000000,43408.40000000,43624.74000000,42794.11000000,43049.17000000,6215.79694000
1703750400000,43049.17000000,43192.17000000,42868.36000000,43059.98000000,4444.14335000
1703764800000,43059.98000000,43125.03000000,42401.01000000,42445.99000000,8560.56823000
1703779200000,42445.99000000,42725.30000000,42241.79000000,42610.64000000,5662.59381000
1703793600000,42610.64000000,42745.97000000,42334.99000000,42563.76000000,4184.96389000
1703808000000,42563.76000000,42800.00000000,42088.92000000,42697.42000000,7125.40815000
1703822400000,42697.42000000,42766.68000000,42222.00000000,42273.34000000,5131.05672000
1703836800000,42273.35000000,42934.00000000,42268.26000000,42862.01000000,5291.84387000
1703851200000,42862.00000000,43111.00000000,42106.64000000,42271.09000000,7861.37483000
1703865600000,42271.09000000,42351.10000000,41650.00000000,42116.51000000,10317.88826000
1703880000000,42116.51000000,42240.00000000,41300.00000000,42066.95000000,6869.61729000
1703894400000,42066.94000000,42209.22000000,41820.00000000,41972.81000000,3202.20282000
1703908800000,41972.81000000,42160.00000000,41930.43000000,41947.16000000,2351.82225000
1703923200000,41947.16000000,41988.62000000,41520.30000000,41893.96000000,4706.52607000
1703937600000,41893.96000000,42430.00000000,41882.71000000,42374.96000000,4551.60091000
1703952000000,42374.97000000,42612.32000000,42247.44000000,42361.13000000,5264.43841000
1703966400000,42361.13000000,42399.25000000,42079.97000000,42140.28000000,2829.98772000
1703980800000,42140.29000000,42433.49000000,41965.84000000,42176.00000000,3144.53455000
1703995200000,42175.99000000,42693.00000000,42156.09000000,42537.10000000,3915.10728000
1704009600000,42537.10000000,42899.00000000,42369.15000000,42518.36000000,4626.12098000
1704024000000,42518.36000000,42646.27000000,42352.76000000,42457.17000000,3403.65176000
1704038400000,42457.17000000,42719.80000000,42436.47000000,42619.04000000,3036.19166000
1704052800000,42619.04000000,42680.36000000,42056.00000000,42283.58000000,5460.30980000
1704067200000,42283.58000000,42775.00000000,42230.08000000,42330.49000000,3948.08335000
1704081600000,42330.50000000,42500.00000000,42180.77000000,42492.46000000,2706.99880000
1704096000000,42492.46000000,42762.39000000,42452.58000000,42690.20000000,2948.80274000
1704110400000,42690.21000000,42847.07000000,42580.00000000,42783.05000000,2936.44406000
1704124800000,42783.05000000,43550.00000000,42664.42000000,43517.99000000,5686.97164000
1704139200000,43517.98000000,44184.10000000,43361.60000000,44179.55000000,8946.99844000
1704153600000,44179.55000000,45500.00000000,44148.34000000,45402.38000000,17093.28659000
1704168000000,45402.38000000,45643.75000000,45121.96000000,45455.53000000,8388.42302000
1704182400000,45455.52000000,45879.63000000,45200.00000000,45433.99000000,10027.39458000
1704196800000,45433.99000000,45800.00000000,44833.33000000,45184.82000000,13236.12915000
1704211200000,45184.83000000,45399.84000000,44790.96000000,45039.49000000,9745.60445000
1704225600000,45039.49000000,45297.26000000,44600.00000000,44946.91000000,6655.56882000
1704240000000,44946.91000000,45410.91000000,44862.11000000,45262.69000000,4750.68596000
1704254400000,45262.70000000,45384.84000000,44940.93000000,45011.77000000,4691.11517000
1704268800000,45011.77000000,45500.00000000,43500.00000000,43702.88000000,13237.52778000
1704283200000,43702.89000000,43716.00000000,40750.00000000,43000.01000000,35484.15210000
1704297600000,43000.01000000,43567.92000000,42000.00000000,42596.67000000,16895.34192000
1704312000000,42596.66000000,42966.27000000,42518.70000000,42845.23000000,6135.72880000
1704326400000,42845.23000000,43220.56000000,42613.77000000,43102.80000000,5488.13855000
1704340800000,43102.79000000,43273.08000000,42756.97000000,42763.08000000,5443.39629000
1704355200000,42763.08000000,43233.81000000,42616.28000000,43176.32000000,6746.40949000
1704369600000,43176.33000000,44329.99000000,43097.06000000,44051.10000000,11599.01023000
1704384000000,44051.10000000,44437.50000000,43777.86000000,43956.48000000,9399.52176000
1704398400000,43956.48000000,44729.58000000,43890.90000000,44151.10000000,9361.58702000
1704412800000,44151.10000000,44284.00000000,42450.00000000,43465.21000000,11721.50264000
1704427200000,43465.21000000,43926.00000000,43187.89000000,43777.47000000,4949.61031000
1704441600000,43777.48000000,44324.80000000,43433.00000000,43771.34000000,7055.63723000
1704456000000,43771.34000000,44110.07000000,43100.00000000,43500.01000000,10044.28040000
1704470400000,43500.01000000,43808.07000000,43100.46000000,43600.00000000,7460.07613000
1704484800000,43600.00000000,44357.46000000,43580.51000000,44145.11000000,6844.14656000
1704499200000,44145.12000000,44214.42000000,43812.50000000,43931.10000000,3123.46193000
1704513600000,43931.10000000,43971.10000000,43397.05000000,43653.20000000,4242.79756000
1704528000000,43653.20000000,43771.10000000,43551.28000000,43671.96000000,2449.54997000
1704542400000,43671.97000000,43920.08000000,43527.27000000,43867.17000000,2610.13838000
1704556800000,43867.17000000,44148.58000000,43828.50000000,43906.36000000,2971.24432000
1704571200000,43906.35000000,43980.00000000,43611.19000000,43968.32000000,2437.86928000
1704585600000,43968.32000000,44259.29000000,43833.40000000,43940.41000000,3397.43777000
1704600000000,43940.41000000,44100.00000000,43843.52000000,44080.00000000,2347.11787000
1704614400000,44080.00000000,44167.81000000,43880.65000000,44061.10000000,3023.73501000
1704628800000,44061.10000000,44480.59000000,43945.15000000,44047.57000000,5972.98911000
1704643200000,44047.57000000,44262.53000000,43700.00000000,44244.77000000,3590.89146000
1704657600000,44244.77000000,44269.92000000,43572.09000000,43929.02000000,4691.67958000
1704672000000,43929.01000000,43986.00000000,43175.00000000,43518.20000000,7371.99098000
1704686400000,43518.20000000,44341.80000000,43430.79000000,43974.55000000,7157.43221000
1704700800000,43974.55000000,44688.00000000,43641.73000000,44635.99000000,6636.26767000
1704715200000,44636.00000000,45333.00000000,44350.00000000,44963.04000000,17212.53878000
1704729600000,44963.04000000,47248.99000000,44793.97000000,46979.35000000,24462.97732000
1704744000000,46979.36000000,47207.16000000,46653.84000000,46951.04000000,9973.36893000
1704758400000,46951.04000000,47150.00000000,46230.00000000,46926.96000000,10102.12931000
1704772800000,46926.96000000,46940.00000000,46599.43000000,46825.51000000,4707.40981000
1704787200000,46825.52000000,46874.94000000,46381.10000000,46615.99000000,6018.83491000
1704801600000,46616.00000000,47051.21000000,45450.00000000,46868.09000000,15811.82358000
1704816000000,46868.08000000,46975.00000000,46500.00000000,46876.01000000,7310.48299000
1704830400000,46876.00000000,47972.00000000,44748.67000000,46110.00000000,25976.98557000
1704844800000,46110.00000000,46249.14000000,45622.00000000,46117.10000000,6964.52629000
1704859200000,46117.10000000,46186.00000000,45734.56000000,45757.98000000,4441.30134000
1704873600000,45757.98000000,45861.10000000,45000.00000000,45515.89000000,8371.11286000
1704888000000,45515.88000000,45662.01000000,44300.36000000,45546.40000000,17519.34998000
1704902400000,45546.39000000,46666.00000000,45173.97000000,46489.18000000,17808.51212000
1704916800000,46489.19000000,47695.93000000,44800.00000000,46653.99000000,34806.60944000
1704931200000,46654.00000000,46750.00000000,46200.00000000,46502.16000000,7964.91500000
1704945600000,46502.17000000,46507.08000000,45618.10000000,46101.40000000,7551.87335000
1704960000000,46101.40000000,47150.00000000,46052.00000000,47060.00000000,8538.48554000
1704974400000,47059.99000000,48969.48000000,46463.19000000,46783.78000000,36318.80534000
1704988800000,46783.77000000,47022.07000000,45606.06000000,46692.30000000,19172.26590000
1705003200000,46692.29000000,46975.00000000,46084.69000000,46339.16000000,7923.98447000
1705017600000,46339.16000000,46515.53000000,45898.00000000,45994.00000000,5377.44001000
1705032000000,45994.01000000,46366.00000000,45742.49000000,46008.19000000,5766.26871000
1705046400000,46008.19000000,46267.00000000,45537.37000000,45954.35000000,7038.70566000
1705060800000,45954.35000000,46109.00000000,44333.44000000,44462.01000000,19196.21655000
1705075200000,44462.00000000,44675.88000000,43212.00000000,43472.55000000,26388.04032000
1705089600000,43472.56000000,43981.10000000,41500.00000000,42782.73000000,22561.26582000
1705104000000,42782.74000000,42997.29000000,42436.12000000,42609.94000000,9945.53429000
1705118400000,42609.94000000,43254.03000000,42555.84000000,43102.97000000,6237.82222000
1705132800000,43102.97000000,43254.96000000,42509.11000000,42624.00000000,6962.30044000
1705147200000,42624.01000000,43257.00000000,42505.00000000,43154.48000000,6063.35625000
1705161600000,43154.48000000,43185.00000000,42724.39000000,42786.25000000,4181.84325000
1705176000000,42786.25000000,43040.01000000,42699.52000000,42847.99000000,2727.61819000
1705190400000,42847.99000000,42890.23000000,42643.98000000,42681.82000000,2769.17313000
1705204800000,42681.82000000,43060.00000000,42562.56000000,43011.44000000,3036.75324000
1705219200000,43011.44000000,43079.00000000,42759.34000000,42829.99000000,2885.27669000
1705233600000,42829.99000000,43005.25000000,42710.00000000,42904.38000000,3635.86614000
1705248000000,42904.39000000,43010.84000000,42632.59000000,42660.00000000,4024.36820000
1705262400000,42660.00000000,42745.98000000,41720.00000000,41732.35000000,11876.97154000
1705276800000,41732.35000000,42640.00000000,41718.05000000,42565.99000000,5828.29771000
1705291200000,42565.99000000,42824.68000000,42499.01000000,42714.78000000,4383.51739000
1705305600000,42714.78000000,42775.00000000,42540.00000000,42697.99000000,3812.52325000
1705320000000,42698.00000000,42958.03000000,42163.32000000,42278.99000000,8595.73488000
1705334400000,42278.99000000,43400.43000000,42249.00000000,42992.67000000,12331.30651000
1705348800000,42992.67000000,43114.45000000,42342.18000000,42511.10000000,5318.51329000
1705363200000,42511.10000000,42939.50000000,42466.88000000,42924.56000000,4025.27939000
1705377600000,42924.57000000,42946.05000000,42606.92000000,42791.13000000,3648.24949000
1705392000000,42791.14000000,43153.66000000,42720.06000000,42900.54000000,4849.24572000
1705406400000,42900.55000000,43314.73000000,42050.00000000,43252.67000000,17967.98589000
1705420800000,43252.45000000,43434.00000000,42834.29000000,43166.11000000,7723.95687000
1705435200000,43166.10000000,43578.01000000,43060.69000000,43137.95000000,6831.02853000
1705449600000,43137.94000000,43198.00000000,42844.98000000,42849.00000000,3711.95254000
1705464000000,42849.00000000,42925.49000000,42619.60000000,42655.94000000,3612.23610000
1705478400000,42655.95000000,42850.55000000,42564.00000000,42680.16000000,4412.74724000
1705492800000,42680.16000000,42926.02000000,42365.58000000,42482.79000000,9542.90182000
1705507200000,42482.80000000,42745.99000000,42200.69000000,42611.11000000,6233.49263000
1705521600000,42611.10000000,42876.48000000,42450.00000000,42776.10000000,5752.88355000
1705536000000,42776.09000000,42784.40000000,42502.19000000,42592.05000000,2777.25237000
1705550400000,42592.04000000,42922.00000000,42589.00000000,42915.33000000,3393.11338000
1705564800000,42915.32000000,42930.00000000,42387.68000000,42544.59000000,4867.13625000
1705579200000,42544.60000000,42810.00000000,42353.80000000,42619.32000000,5286.53164000
1705593600000,42619.31000000,42619.32000000,40831.99000000,41022.32000000,17408.65530000
1705608000000,41022.33000000,41366.99000000,40683.28000000,41327.50000000,10174.82747000
1705622400000,41327.51000000,41370.99000000,40752.26000000,41055.87000000,5747.52107000
1705636800000,41055.88000000,41576.00000000,41038.81000000,41284.25000000,5252.30425000
1705651200000,41284.26000000,41509.69000000,41143.33000000,41475.37000000,4432.77110000
1705665600000,41475.37000000,41488.20000000,40718.00000000,40894.71000000,9260.88788000
1705680000000,40894.71000000,41979.00000000,40280.00000000,41814.27000000,16100.60089000
1705694400000,41814.27000000,42196.86000000,41517.60000000,41659.03000000,7548.66040000
1705708800000,41659.03000000,41700.00000000,41456.30000000,41634.65000000,2986.21230000
1705723200000,41634.64000000,41774.00000000,41564.81000000,41650.95000000,2111.60902000
1705737600000,41650.95000000,41668.66000000,41459.02000000,41580.83000000,3106.35262000
1705752000000,41580.82000000,41700.00000000,41478.00000000,41570.11000000,2908.64220000
1705766400000,41570.10000000,41684.94000000,41526.36000000,41632.96000000,2143.21383000
1705780800000,41632.97000000,41872.56000000,41610.54000000,41696.04000000,2667.96496000
1705795200000,41696.05000000,41730.00000000,41629.87000000,41680.82000000,1600.89363000
1705809600000,41680.83000000,41691.11000000,41564.29000000,41648.51000000,1198.63686000
1705824000000,41648.50000000,41826.97000000,41648.50000000,41719.89000000,1972.92769000
1705838400000,41719.90000000,41881.39000000,41605.00000000,41656.28000000,2810.15162000
1705852800000,41656.27000000,41729.77000000,41525.00000000,41719.40000000,2101.04396000
1705867200000,41719.39000000,41811.10000000,41500.98000000,41580.33000000,2046.50925000
1705881600000,41580.32000000,41689.65000000,41058.22000000,41197.04000000,5194.67726000
1705896000000,41197.04000000,41321.17000000,40684.00000000,41043.70000000,6720.50069000
1705910400000,41043.70000000,41047.51000000,40364.63000000,40815.99000000,8780.28420000
1705924800000,40815.92000000,41244.06000000,40350.00000000,40771.99000000,9333.27767000
1705939200000,40772.00000000,40874.99000000,39431.58000000,39820.31000000,15416.76046000
1705953600000,39820.31000000,40343.18000000,39480.00000000,39568.02000000,9980.69883000
1705968000000,39568.02000000,40118.87000000,39511.10000000,40000.44000000,4446.81496000
1705982400000,40000.43000000,40176.74000000,39665.02000000,39780.00000000,3852.36638000
1705996800000,39780.01000000,39860.00000000,38657.00000000,38845.56000000,16327.77748000
1706011200000,38845.56000000,39460.00000000,38555.00000000,39204.00000000,14222.94133000
1706025600000,39204.00000000,39654.34000000,38925.20000000,39148.07000000,11699.79651000
1706040000000,39148.07000000,39907.23000000,39032.02000000,39897.60000000,7406.93685000
1706054400000,39897.59000000,40250.00000000,39570.43000000,39614.00000000,7508.24416000
1706068800000,39614.00000000,40191.97000000,39557.01000000,39981.09000000,6508.92980000
1706083200000,39981.09000000,40555.00000000,39859.51000000,40209.34000000,6433.12337000
1706097600000,40209.34000000,40298.86000000,39766.00000000,40050.71000000,8120.72045000
1706112000000,40050.72000000,40207.00000000,39615.76000000,39803.05000000,5715.16915000
1706126400000,39803.04000000,40175.11000000,39484.19000000,40084.88000000,5007.64168000
1706140800000,40084.89000000,40178.84000000,39914.00000000,40012.01000000,3484.65910000
1706155200000,40012.01000000,40135.37000000,39792.01000000,40130.00000000,3648.17041000
1706169600000,40130.00000000,40300.24000000,39957.44000000,40178.07000000,4623.83661000
1706184000000,40178.07000000,40283.82000000,39623.40000000,39804.24000000,8152.98130000
1706198400000,39804.23000000,40044.91000000,39550.00000000,39989.25000000,7402.16761000
1706212800000,39989.25000000,39995.99000000,39637.99000000,39961.09000000,3710.30350000
1706227200000,39961.09000000,40245.00000000,39822.52000000,40067.52000000,3180.57719000
1706241600000,40067.52000000,40220.00000000,39896.84000000,39969.99000000,3394.99518000
1706256000000,39970.00000000,41348.13000000,39962.14000000,41289.52000000,11523.32786000
1706270400000,41289.52000000,41588.00000000,40914.50000000,41422.99000000,12152.14087000
1706284800000,41422.98000000,42193.80000000,41405.31000000,42064.49000000,11360.11294000
1706299200000,42064.48000000,42246.82000000,41800.02000000,41823.51000000,5773.81322000
1706313600000,41823.51000000,41933.17000000,41708.00000000,41815.01000000,2776.36693000
1706328000000,41815.01000000,41890.00000000,41602.01000000,41710.14000000,2385.06661000
1706342400000,41710.15000000,41800.00000000,41394.34000000,41761.23000000,3747.33899000
1706356800000,41761.22000000,41894.87000000,41714.00000000,41814.00000000,2106.62255000
1706371200000,41813.99000000,41986.06000000,41745.26000000,41910.47000000,2256.20513000
1706385600000,41910.48000000,42200.00000000,41910.47000000,42120.63000000,2952.81646000
1706400000000,42120.63000000,42244.00000000,41925.00000000,42231.83000000,3931.90769000
1706414400000,42231.84000000,42842.68000000,42228.64000000,42388.82000000,7853.89698000
1706428800000,42388.82000000,42698.00000000,42323.14000000,42471.98000000,4448.08445000
1706443200000,42471.98000000,42544.00000000,42155.55000000,42258.01000000,3978.57176000
1706457600000,42258.00000000,42354.70000000,41721.08000000,41785.92000000,3819.55464000
1706472000000,41785.91000000,42073.81000000,41620.81000000,42031.06000000,3262.98286000
1706486400000,42031.05000000,42504.00000000,41874.94000000,42331.20000000,3437.68599000
1706500800000,42331.19000000,42345.36000000,41988.88000000,42053.46000000,2735.85224000
1706515200000,42053.45000000,42381.10000000,41961.10000000,42246.95000000,3204.92588000
1706529600000,42246.95000000,42647.27000000,41804.88000000,42641.75000000,6763.08424000
1706544000000,42641.75000000,43313.80000000,42518.00000000,42995.99000000,11314.82880000
1706558400000,42995.99000000,43333.00000000,42982.66000000,43302.70000000,4086.36492000
1706572800000,43302.71000000,43787.35000000,43133.90000000,43519.71000000,6762.21682000
1706587200000,43519.71000000,43570.09000000,43259.26000000,43358.25000000,3352.66111000
1706601600000,43358.24000000,43564.85000000,43215.76000000,43537.74000000,4124.15330000
1706616000000,43537.75000000,43882.36000000,43114.13000000,43375.50000000,9820.25546000
1706630400000,43375.50000000,43599.00000000,43224.00000000,43547.98000000,5834.15697000
1706644800000,43547.99000000,43760.00000000,42683.99000000,42941.10000000,7725.80180000
1706659200000,42941.10000000,43107.77000000,42655.07000000,42930.07000000,4913.47979000
1706673600000,42930.06000000,43087.93000000,42871.10000000,43050.01000000,2839.50568000
1706688000000,43050.01000000,43091.10000000,42355.00000000,42647.98000000,6116.23013000
1706702400000,42647.98000000,43465.02000000,42521.31000000,43361.10000000,8138.75525000
1706716800000,43361.11000000,43745.11000000,43041.10000000,43334.64000000,8260.76136000
1706731200000,43334.63000000,43361.10000000,42276.84000000,42580.00000000,9602.40467000
1706745600000,42580.00000000,42687.63000000,41884.28000000,42015.65000000,6159.26638000
1706760000000,42015.65000000,42300.00000000,41889.95000000,42190.16000000,4812.74817000
1706774400000,42190.15000000,42331.10000000,42026.52000000,42087.52000000,4002.75251000
1706788800000,42087.52000000,42946.60000000,41944.89000000,42516.12000000,7858.34198000
1706803200000,42516.12000000,43285.13000000,42364.00000000,43218.94000000,8083.56904000
1706817600000,43218.94000000,43279.91000000,42872.91000000,43082.94000000,4314.36856000
1706832000000,43082.95000000,43432.63000000,43026.15000000,43037.25000000,4246.33741000
1706846400000,43037.25000000,43271.10000000,42943.71000000,43086.89000000,4064.36047000
1706860800000,43086.90000000,43199.00000000,42941.10000000,43148.41000000,4094.76501000
1706875200000,43148.42000000,43250.00000000,42546.79000000,43242.09000000,8493.53585000
1706889600000,43242.10000000,43488.00000000,42783.09000000,43061.97000000,6362.66369000
1706904000000,43061.98000000,43238.01000000,42900.48000000,43200.00000000,2410.48175000
1706918400000,43199.99000000,43380.01000000,43142.00000000,43173.94000000,2223.22292000
1706932800000,43173.95000000,43222.75000000,43040.00000000,43053.05000000,1346.11611000
1706947200000,43053.05000000,43125.28000000,42973.66000000,42995.04000000,1810.42438000
1706961600000,42995.04000000,43190.00000000,42880.00000000,43119.06000000,2505.96267000
1706976000000,43119.06000000,43270.00000000,43016.28000000,43061.09000000,2671.62087000
1706990400000,43061.09000000,43104.68000000,42953.33000000,43011.09000000,1476.06303000
1707004800000,43011.10000000,43068.79000000,42880.01000000,43027.16000000,1456.91888000
1707019200000,43027.16000000,43029.17000000,42720.07000000,42845.03000000,2208.36902000
1707033600000,42845.03000000,43119.04000000,42741.60000000,43060.10000000,2577.95374000
1707048000000,43060.09000000,43115.76000000,42845.51000000,42943.21000000,2544.71311000
1707062400000,42943.20000000,42969.79000000,42573.17000000,42636.44000000,3608.11375000
1707076800000,42636.43000000,42985.73000000,42222.00000000,42582.88000000,4670.82554000
1707091200000,42582.88000000,42729.02000000,42258.10000000,42718.31000000,3709.01020000
1707105600000,42718.31000000,43176.39000000,42642.00000000,43071.88000000,4182.30255000
1707120000000,43071.87000000,43268.98000000,42954.54000000,43194.08000000,4074.55774000
1707134400000,43194.08000000,43569.76000000,42600.11000000,42644.03000000,8010.04502000
1707148800000,42644.04000000,42869.66000000,42501.00000000,42765.36000000,5069.38976000
1707163200000,42765.35000000,42798.37000000,42330.52000000,42708.70000000,4422.45378000
1707177600000,42708.70000000,42960.01000000,42574.00000000,42851.11000000,2897.16519000
1707192000000,42851.10000000,42926.73000000,42667.00000000,42890.00000000,2201.29331000
1707206400000,42889.99000000,43119.90000000,42670.61000000,42826.96000000,5579.67740000
1707220800000,42826.96000000,43270.89000000,42658.00000000,43244.89000000,5949.73363000
1707235200000,43244.89000000,43399.98000000,43000.00000000,43278.78000000,5091.59374000
1707249600000,43278.79000000,43322.00000000,43032.71000000,43098.95000000,2956.39106000
1707264000000,43098.96000000,43192.00000000,42788.00000000,42800.00000000,2968.09769000
1707278400000,42799.99000000,43051.10000000,42794.67000000,42918.03000000,2473.25345000
1707292800000,42918.02000000,43200.00000000,42838.01000000,42928.29000000,3301.41540000
1707307200000,42928.28000000,43325.03000000,42890.51000000,43071.08000000,5174.63854000
1707321600000,43071.08000000,43710.00000000,43013.75000000,43615.47000000,9646.81430000
1707336000000,43615.47000000,44396.50000000,43615.47000000,44349.60000000,10828.37977000
1707350400000,44349.60000000,44780.00000000,44331.10000000,44540.99000000,8836.19603000
1707364800000,44540.98000000,44633.78000000,44427.01000000,44513.24000000,3474.51592000
1707379200000,44513.25000000,44885.00000000,44513.24000000,44698.97000000,5858.27712000
1707393600000,44698.97000000,45467.14000000,44606.00000000,45432.30000000,11913.40369000
1707408000000,45432.30000000,45498.00000000,44890.00000000,45284.14000000,8933.58857000
1707422400000,45284.13000000,45614.30000000,45227.00000000,45288.65000000,6423.64098000
1707436800000,45288.66000000,46384.27000000,45242.12000000,46060.74000000,9482.53987000
1707451200000,46060.74000000,46425.03000000,45855.00000000,46202.00000000,6811.23297000
1707465600000,46202.01000000,47299.88000000,46201.53000000,47180.02000000,11572.91301000
1707480000000,47180.01000000,47719.44000000,46652.00000000,47159.99000000,21197.65997000
1707494400000,47159.99000000,48200.00000000,47134.00000000,47509.48000000,16961.19039000
1707508800000,47509.48000000,47693.28000000,47035.92000000,47132.77000000,7477.94479000
1707523200000,47132.78000000,47504.00000000,47044.88000000,47376.62000000,3901.03702000
1707537600000,47376.62000000,47430.03000000,47145.40000000,47151.72000000,2155.29282000
1707552000000,47151.72000000,47274.00000000,46800.00000000,47182.00000000,4546.93534000
1707566400000,47182.01000000,47378.41000000,47105.44000000,47353.48000000,3624.87877000
1707580800000,47353.48000000,47660.00000000,47154.52000000,47531.09000000,3381.00187000
1707595200000,47531.09000000,48170.00000000,47454.37000000,47751.09000000,7193.21354000
1707609600000,47751.08000000,48557.00000000,47557.16000000,48519.61000000,6452.94117000
1707624000000,48519.60000000,48592.66000000,48061.10000000,48179.52000000,4752.43271000
1707638400000,48179.51000000,48438.81000000,47922.33000000,48411.71000000,3906.99024000
1707652800000,48411.71000000,48469.07000000,47931.82000000,48150.43000000,5466.21997000
1707667200000,48150.43000000,48394.29000000,47948.38000000,48284.00000000,4641.41321000
1707681600000,48283.99000000,48375.00000000,47971.18000000,48299.99000000,4738.81107000
1707696000000,48300.00000000,48826.81000000,48009.52000000,48145.00000000,7723.68614000
1707710400000,48145.00000000,48382.27000000,47755.81000000,48203.98000000,4444.91925000
1707724800000,48203.98000000,48311.15000000,47710.01000000,47903.03000000,5444.77082000
1707739200000,47903.04000000,49950.00000000,47841.00000000,49917.80000000,16721.55061000
1707753600000,49917.80000000,50334.82000000,49372.22000000,49532.03000000,17277.94580000
1707768000000,49532.02000000,50271.02000000,49532.02000000,49917.27000000,7397.09443000
1707782400000,49917.28000000,50368.61000000,49724.33000000,49789.99000000,6175.21021000
1707796800000,49790.00000000,50117.84000000,49789.99000000,49983.09000000,4055.06807000
1707811200000,49983.09000000,50247.00000000,49650.00000000,49988.12000000,8824.89385000
1707825600000,49988.12000000,49996.00000000,48400.00000000,48727.47000000,19358.47315000
1707840000000,48727.47000000,49268.21000000,48300.95000000,49036.73000000,10392.26078000
1707854400000,49036.74000000,49775.00000000,49011.10000000,49699.59000000,6745.66100000
1707868800000,49699.60000000,49712.94000000,49333.00000000,49518.61000000,3206.45301000
1707883200000,49518.61000000,49877.22000000,49225.01000000,49838.93000000,3998.92481000
1707897600000,49838.93000000,51723.08000000,49741.19000000,51555.12000000,19901.12485000
1707912000000,51555.12000000,52043.71000000,51276.24000000,51590.00000000,15434.55068000
1707926400000,51590.00000000,51750.00000000,51200.24000000,51678.00000000,8869.42094000
1707940800000,51677.99000000,51888.00000000,51464.00000000,51795.17000000,5635.89972000
1707955200000,51795.17000000,52500.00000000,51717.58000000,52343.32000000,9485.19698000
1707969600000,52343.32000000,52364.55000000,51634.01000000,51776.61000000,6158.65559000
1707984000000,51776.60000000,52498.12000000,51650.00000000,52330.00000000,6781.21145000
1707998400000,52330.00000000,52816.62000000,51721.31000000,51948.23000000,13915.59154000
1708012800000,51948.24000000,52380.00000000,51725.00000000,52002.01000000,9258.37794000
1708027200000,52002.01000000,52011.10000000,51314.00000000,51880.00000000,8216.99705000
1708041600000,51880.01000000,52328.00000000,51803.60000000,52280.25000000,4925.24862000
1708056000000,52280.25000000,52343.28000000,51700.00000000,51731.99000000,5910.92632000
1708070400000,51732.00000000,52435.86000000,51566.00000000,52213.86000000,8723.49444000
1708084800000,52213.87000000,52572.08000000,51592.88000000,51888.01000000,10491.97637000
1708099200000,51888.01000000,52245.00000000,51655.00000000,51756.29000000,4781.76179000
1708113600000,51756.29000000,52208.43000000,51681.10000000,52124.11000000,2938.84564000
1708128000000,52124.10000000,52162.82000000,51846.84000000,51968.75000000,1748.64047000
1708142400000,51968.75000000,52057.54000000,51792.00000000,51911.33000000,1813.90033000
1708156800000,51911.34000000,51911.34000000,51500.00000000,51690.48000000,3811.13615000
1708171200000,51690.47000000,51735.68000000,50625.00000000,50984.56000000,9664.71243000
1708185600000,50984.56000000,51444.00000000,50741.10000000,51394.43000000,4387.33024000
1708200000000,51394.44000000,52030.18000000,51303.00000000,51642.64000000,4248.28660000
1708214400000,51642.64000000,51798.99000000,51163.28000000,51479.99000000,3342.20712000
1708228800000,51479.99000000,51750.60000000,51405.52000000,51671.10000000,2668.90841000
1708243200000,51671.10000000,52069.00000000,51644.00000000,51832.01000000,3445.09907000
1708257600000,51832.01000000,51948.57000000,51535.01000000,51773.99000000,3523.91039000
1708272000000,51774.00000000,51980.73000000,51647.25000000,51758.12000000,3340.56645000
1708286400000,51758.13000000,52377.00000000,51587.40000000,52137.67000000,5671.41219000
1708300800000,52137.68000000,52428.78000000,51904.83000000,52063.81000000,4612.31179000
1708315200000,52063.80000000,52488.77000000,51989.21000000,52394.04000000,4434.73522000
1708329600000,52394.04000000,52450.00000000,52063.52000000,52336.22000000,4670.22420000
1708344000000,52336.22000000,52454.11000000,52027.00000000,52127.99000000,5672.19056000
1708358400000,52127.99000000,52230.00000000,51677.00000000,51820.61000000,6367.05864000
1708372800000,51820.61000000,52110.00000000,51705.11000000,51774.73000000,3778.47391000
1708387200000,51774.74000000,51832.01000000,51311.00000000,51580.23000000,5264.00845000
1708401600000,51580.23000000,52039.91000000,51510.00000000,51839.28000000,3718.97659000
1708416000000,51839.28000000,52380.00000000,51560.00000000,52286.80000000,7446.13718000
1708430400000,52286.80000000,52985.00000000,51340.00000000,51680.00000000,17302.62916000
1708444800000,51679.99000000,52138.31000000,50760.37000000,52101.11000000,10418.63903000
1708459200000,52101.10000000,52517.30000000,51901.10000000,52258.82000000,5464.08277000
1708473600000,52258.82000000,52366.80000000,51988.91000000,52001.99000000,3369.43954000
1708488000000,52002.00000000,52113.39000000,51452.45000000,51568.64000000,4064.16140000
1708502400000,51568.64000000,51787.04000000,50813.00000000,50965.53000000,9380.34826000
1708516800000,50965.53000000,51442.26000000,50625.00000000,51156.00000000,11653.57718000
1708531200000,51156.00000000,51427.43000000,50649.28000000,51058.00000000,7754.08258000
1708545600000,51057.99000000,51950.01000000,50862.50000000,51849.39000000,6857.79153000
1708560000000,51849.38000000,51878.18000000,51153.69000000,51586.10000000,4685.41723000
1708574400000,51586.10000000,51910.32000000,51352.00000000,51827.63000000,4426.10745000
1708588800000,51827.63000000,52034.12000000,51517.63000000,51622.04000000,5505.24135000
1708603200000,51622.05000000,51733.05000000,50940.78000000,51602.40000000,8605.10808000
1708617600000,51602.41000000,51750.01000000,51400.00000000,51509.99000000,5304.84860000
1708632000000,51509.99000000,52065.78000000,51184.04000000,51288.42000000,6782.72303000
1708646400000,51288.42000000,51548.54000000,50971.11000000,51100.00000000,4695.56436000
1708660800000,51100.00000000,51321.92000000,50889.00000000,50915.96000000,3958.88987000
1708675200000,50915.95000000,51263.22000000,50830.00000000,51218.95000000,4762.09300000
1708689600000,51218.94000000,51333.47000000,50800.32000000,50911.11000000,8302.82835000
1708704000000,50911.10000000,51195.18000000,50629.33000000,51099.09000000,5650.67880000
1708718400000,51099.09000000,51162.04000000,50521.00000000,50744.15000000,3175.74106000
1708732800000,50744.15000000,50907.14000000,50585.00000000,50849.97000000,2775.43339000
1708747200000,50849.96000000,51103.87000000,50826.47000000,51068.70000000,2424.36167000
1708761600000,51068.70000000,51172.06000000,50953.00000000,51119.79000000,2450.32792000
1708776000000,51119.79000000,51180.41000000,51032.34000000,51099.34000000,1990.44790000
1708790400000,51099.35000000,51698.00000000,51094.99000000,51557.07000000,4634.38652000
1708804800000,51557.08000000,51666.00000000,51437.84000000,51568.22000000,2285.46370000
1708819200000,51568.21000000,51898.72000000,51438.88000000,51624.99000000,3601.71905000
1708833600000,51625.00000000,51800.03000000,51509.00000000,51719.28000000,2307.35285000
1708848000000,51719.28000000,51777.64000000,51531.73000000,51645.00000000,1998.19169000
1708862400000,51645.00000000,51780.00000000,51436.67000000,51524.02000000,3015.06690000
1708876800000,51524.02000000,51738.85000000,51279.80000000,51672.96000000,3855.78862000
1708891200000,51672.97000000,51958.55000000,51640.88000000,51728.85000000,3943.51248000
1708905600000,51728.85000000,51796.50000000,51400.00000000,51555.59000000,2849.56680000
1708920000000,51555.60000000,51598.06000000,51288.18000000,51293.26000000,2965.61094000
1708934400000,51293.26000000,51374.66000000,50901.44000000,51090.01000000,5428.89999000
1708948800000,51090.01000000,52847.84000000,50957.00000000,52842.32000000,11761.16940000
1708963200000,52842.33000000,54512.02000000,52753.28000000,54487.11000000,19931.38279000
1708977600000,54487.10000000,54910.00000000,54258.20000000,54476.47000000,8320.09207000
1708992000000,54476.48000000,57073.84000000,54450.13000000,55667.60000000,17222.69430000
1709006400000,55667.60000000,56448.00000000,55576.12000000,56059.08000000,8813.40604000
1709020800000,56059.09000000,56818.02000000,56023.80000000,56527.79000000,8262.13357000
1709035200000,56527.80000000,57416.93000000,56457.26000000,56745.66000000,15703.72150000
1709049600000,56745.66000000,57588.15000000,56209.00000000,57339.68000000,10002.01696000
1709064000000,57339.69000000,57359.00000000,56579.84000000,57037.34000000,7191.01325000
1709078400000,57037.35000000,57101.10000000,56691.85000000,56916.40000000,3603.53596000
1709092800000,56916.39000000,58379.57000000,56894.16000000,58241.10000000,7636.88153000
1709107200000,58241.09000000,59494.06000000,58171.11000000,58941.11000000,19224.20294000
1709121600000,58941.11000000,61360.00000000,58891.10000000,60966.22000000,26368.91820000
1709136000000,60966.22000000,64000.00000000,58700.00000000,60951.11000000,45415.56810000
1709150400000,60951.10000000,62647.04000000,59797.57000000,62432.10000000,16514.36311000
1709164800000,62432.11000000,62438.22000000,61021.10000000,61561.33000000,10084.02851000
1709179200000,61561.34000000,63676.35000000,61334.59000000,62707.17000000,14931.15457000
1709193600000,62707.17000000,63340.95000000,62111.10000000,62936.02000000,11918.80476000
1709208000000,62936.02000000,63531.88000000,62051.11000000,62768.02000000,12976.74161000
1709222400000,62768.01000000,62879.30000000,60364.70000000,61600.00000000,17118.24110000
1709236800000,61599.99000000,62285.47000000,60584.07000000,61130.98000000,11396.10548000
1709251200000,61130.99000000,61749.00000000,60777.00000000,61105.91000000,6345.57641000
1709265600000,61105.92000000,61772.82000000,61061.11000000,61434.00000000,5719.40504000
1709280000000,61434.00000000,62243.53000000,61316.67000000,61863.72000000,8452.27991000
1709294400000,61863.71000000,62677.06000000,61131.01000000,61263.99000000,9971.27905000
1709308800000,61263.98000000,62494.31000000,61234.00000000,62215.50000000,7886.35574000
1709323200000,62215.51000000,63114.23000000,62215.50000000,62387.90000000,9363.03858000
1709337600000,62387.90000000,62433.19000000,61949.03000000,62307.45000000,5441.91324000
1709352000000,62307.45000000,62307.45000000,61752.30000000,62011.85000000,4846.35512000
1709366400000,62011.85000000,62123.00000000,61641.10000000,61826.32000000,4411.57189000
1709380800000,61826.32000000,62167.79000000,61561.12000000,61771.20000000,4301.35084000
1709395200000,61771.21000000,62114.77000000,61625.00000000,62114.77000000,3418.28795000
1709409600000,62114.76000000,62200.00000000,61685.01000000,61987.28000000,3115.25755000
1709424000000,61987.28000000,62000.00000000,61642.39000000,61931.09000000,3127.09906000
1709438400000,61931.09000000,62100.00000000,61320.00000000,61598.00000000,4831.45761000
1709452800000,61598.01000000,61890.96000000,61393.83000000,61831.10000000,3942.85361000
1709467200000,61831.10000000,62640.18000000,61821.09000000,62164.63000000,6685.90515000
1709481600000,62164.63000000,62989.00000000,62088.00000000,62730.00000000,5623.12318000
1709496000000,62730.00000000,63231.88000000,62580.00000000,63113.97000000,4784.47042000
1709510400000,63113.97000000,64268.24000000,62300.00000000,63458.72000000,12563.71291000
1709524800000,63458.71000000,64300.00000000,63210.00000000,64066.62000000,6654.96237000
1709539200000,64066.62000000,65555.00000000,64000.11000000,65230.00000000,16002.48076000
1709553600000,65229.99000000,66580.29000000,64533.67000000,66451.65000000,16689.80230000
1709568000000,66451.65000000,67524.99000000,66039.31000000,67405.26000000,17313.10625000
1709582400000,67405.25000000,68499.00000000,66755.79000000,68245.71000000,15611.09546000
1709596800000,68245.71000000,68686.80000000,67535.31000000,68113.94000000,11448.26318000
1709611200000,68113.95000000,68384.54000000,65089.00000000,66129.64000000,17780.29058000
1709625600000,66129.64000000,67150.00000000,65515.15000000,66656.31000000,11938.90863000
1709640000000,66656.32000000,69000.00000000,66370.00000000,66773.05000000,22508.23086000
1709654400000,66773.05000000,66996.36000000,59005.00000000,61410.98000000,42797.37895000
1709668800000,61410.98000000,64367.27000000,61167.91000000,63724.01000000,26223.70910000
1709683200000,63724.01000000,64146.45000000,62779.14000000,63263.21000000,9495.88692000
1709697600000,63263.22000000,66761.10000000,63263.21000000,66676.46000000,15208.16062000
1709712000000,66676.46000000,67641.10000000,66041.63000000,67301.31000000,14316.87745000
1709726400000,67301.31000000,67592.31000000,64664.92000000,66481.12000000,21399.96424000
1709740800000,66481.12000000,67465.00000000,66221.10000000,66739.48000000,10674.76219000
1709755200000,66739.49000000,67363.58000000,65714.17000000,66074.04000000,7643.20349000
1709769600000,66074.04000000,66467.88000000,65551.00000000,65847.29000000,7749.00312000
1709784000000,65847.30000000,66469.05000000,65657.59000000,66387.78000000,6679.10619000
1709798400000,66387.77000000,67275.20000000,66341.11000000,66905.34000000,8562.66230000
1709812800000,66905.34000000,67899.00000000,66541.10000000,67260.01000000,13605.46645000
1709827200000,67260.01000000,67980.00000000,67012.00000000,67498.02000000,9547.44499000
1709841600000,67498.03000000,67914.74000000,66810.32000000,66823.17000000,6916.20385000
1709856000000,66823.18000000,67256.18000000,66757.00000000,67156.09000000,5636.13131000
1709870400000,67156.09000000,67640.45000000,66782.22000000,67223.02000000,5528.83778000
1709884800000,67223.02000000,67753.40000000,67038.71000000,67741.21000000,6407.54695000
1709899200000,67741.22000000,69990.00000000,67150.00000000,67617.60000000,22754.67898200
1709913600000,67617.60000000,68864.00000000,66082.66000000,68863.99000000,22384.90145000
1709928000000,68864.00000000,69379.00000000,67807.58000000,68124.19000000,11549.83637000
1709942400000,68124.20000000,68279.00000000,67861.10000000,68247.34000000,3976.42864000
1709956800000,68247.34000000,68541.10000000,68133.27000000,68288.64000000,3391.79959000
1709971200000,68288.64000000,68453.12000000,67933.93000000,68299.99000000,4166.26410000
1709985600000,68300.00000000,68521.10000000,68100.01000000,68288.20000000,3154.11941000
1710000000000,68288.19000000,68325.00000000,68000.00000000,68193.51000000,3079.82488000
1710014400000,68193.51000000,68433.17000000,68193.51000000,68313.27000000,2104.46081000
1710028800000,68313.28000000,69216.00000000,68200.00000000,69136.79000000,7144.08030000
1710043200000,69136.78000000,69659.47000000,69024.62000000,69347.16000000,5397.01526000
1710057600000,69347.16000000,69887.61000000,69162.00000000,69568.46000000,7712.18719000
1710072000000,69568.45000000,69833.33000000,68641.10000000,69194.83000000,8240.59115000
1710086400000,69194.83000000,69768.58000000,69111.89000000,69400.19000000,4006.35572000
1710100800000,69400.19000000,69470.01000000,68094.75000000,68955.88000000,5904.43873000
1710115200000,68955.88000000,68955.90000000,67024.96000000,68604.42000000,9122.59767000
1710129600000,68604.41000000,71298.00000000,68445.91000000,71019.99000000,17348.19592800
1710144000000,71019.99000000,72226.30000000,71019.99000000,71487.20000000,16023.35006800
1710158400000,71487.21000000,72661.10000000,71304.20000000,72010.00000000,15581.87226800
1710172800000,72010.01000000,72800.00000000,71760.00000000,71970.00000000,11603.11572200
1710187200000,71970.00000000,72750.00000000,71836.36000000,72078.10000000,5613.69407000
1710201600000,72078.10000000,72470.41000000,71400.00000000,71619.00000000,6941.41973000
1710216000000,71619.00000000,72355.15000000,71301.00000000,72121.10000000,6922.60660000
1710230400000,72121.10000000,72376.00000000,71388.00000000,72023.82000000,7323.42979000
1710244800000,72023.82000000,73000.00000000,70800.00000000,71703.41000000,17116.47825100
1710259200000,71703.41000000,71829.11000000,68620.82000000,71349.99000000,24015.90765000
1710273600000,71349.99000000,71550.05000000,70607.86000000,71452.01000000,6463.70467000
1710288000000,71452.00000000,72217.79000000,71333.31000000,72057.43000000,6367.14350000
1710302400000,72057.43000000,73182.22000000,71920.00000000,72855.16000000,8445.98749200
1710316800000,72855.15000000,73650.25000000,72820.00000000,73065.41000000,9588.44887500
1710331200000,73065.40000000,73180.00000000,71634.52000000,72634.95000000,14039.65954000
1710345600000,72634.95000000,73394.19000000,72350.00000000,73349.24000000,8727.85823000
1710360000000,73349.24000000,73410.22000000,72788.15000000,73072.41000000,5490.61401000
1710374400000,73072.40000000,73288.30000000,72500.00000000,73267.08000000,5469.57319000
1710388800000,73267.08000000,73777.00000000,72680.00000000,73224.00000000,7734.90334600
1710403200000,73224.00000000,73528.11000000,72627.00000000,72884.00000000,6407.33652000
1710417600000,72884.01000000,73047.16000000,70543.64000000,70844.01000000,18557.28967000
1710432000000,70844.00000000,71458.00000000,68555.00000000,69415.09000000,22921.42581000
1710446400000,69415.09000000,71709.90000000,69303.75000000,71388.94000000,10667.10021000
1710460800000,71388.94000000,72419.71000000,66699.00000000,68224.01000000,22422.85781000
1710475200000,68224.01000000,68861.10000000,66904.98000000,68448.29000000,17229.30114000
1710489600000,68448.28000000,68600.00000000,65600.00000000,67757.76000000,22721.61196000
1710504000000,67757.75000000,68746.69000000,67424.79000000,68157.07000000,12481.72359000
1710518400000,68157.07000000,70650.00000000,67520.01000000,68964.00000000,17320.34953000
1710532800000,68964.00000000,69750.00000000,67413.80000000,69499.85000000,11158.19143000
1710547200000,69499.84000000,70043.00000000,68932.01000000,69200.08000000,7063.23297000
1710561600000,69200.07000000,69460.91000000,68600.00000000,69432.45000000,5195.14968000
1710576000000,69432.45000000,69436.24000000,67725.53000000,68256.01000000,7874.19098000
1710590400000,68256.00000000,68499.10000000,67524.00000000,68385.58000000,8590.50806000
1710604800000,68385.58000000,68407.94000000,66670.00000000,66911.52000000,11754.26553000
1710619200000,66911.51000000,67538.49000000,64780.00000000,65300.63000000,15449.60614000
1710633600000,65300.64000000,66576.39000000,65122.23000000,66538.99000000,10190.42681000
1710648000000,66538.99000000,66560.00000000,64533.00000000,65636.67000000,9585.06163000
1710662400000,65636.68000000,67515.00000000,65290.00000000,66955.49000000,9037.77471000
1710676800000,66955.49000000,68111.45000000,66436.92000000,67965.50000000,8266.27135000
1710691200000,67965.51000000,68693.75000000,67769.86000000,68536.73000000,6689.53988000
1710705600000,68536.72000000,68904.40000000,67953.35000000,68393.48000000,5973.14151000
1710720000000,68393.47000000,68425.97000000,66800.00000000,67972.01000000,9044.36516000
1710734400000,67972.01000000,68956.00000000,67704.01000000,68218.38000000,6783.81700000
1710748800000,68218.38000000,68483.96000000,67300.00000000,68253.40000000,8039.14860000
1710763200000,68253.39000000,68627.81000000,66628.68000000,67467.19000000,13191.14257000
1710777600000,67467.19000000,68079.52000000,66565.20000000,66936.00000000,12161.56392000
1710792000000,66936.00000000,67999.00000000,66935.99000000,67609.99000000,6471.04363000
1710806400000,67610.00000000,68124.11000000,64860.00000000,65876.01000000,16347.35381000
1710820800000,65876.01000000,65976.10000000,63577.00000000,64704.22000000,16011.77985000
1710835200000,64704.23000000,64710.69000000,62505.00000000,63081.34000000,21759.46345000
1710849600000,63081.34000000,64150.00000000,62410.78000000,64051.85000000,19821.88333000
1710864000000,64051.85000000,65756.00000000,63969.58000000,64391.99000000,14712.72400000
1710878400000,64392.00000000,64500.12000000,61555.00000000,61937.40000000,12352.12043000
1710892800000,61937.41000000,63466.21000000,61666.00000000,61860.81000000,14260.12300000
1710907200000,61860.82000000,63198.83000000,60775.00000000,62957.85000000,16405.10550000
1710921600000,62957.85000000,63957.74000000,62640.00000000,63392.94000000,11101.85580000
1710936000000,63392.95000000,64395.00000000,63066.60000000,63600.37000000,14577.40042000
1710950400000,63600.37000000,66000.00000000,62022.00000000,65784.46000000,19560.39962000
1710964800000,65784.47000000,68100.00000000,65656.41000000,67840.51000000,14515.70158000
1710979200000,67840.51000000,68240.47000000,66340.00000000,66654.45000000,9548.03051000
1710993600000,66654.46000000,67330.00000000,66072.20000000,66985.19000000,7775.81555000
1711008000000,66985.19000000,67659.53000000,66650.00000000,67044.00000000,6826.14520000
1711022400000,67044.01000000,67693.60000000,65885.96000000,66557.77000000,10244.26221000
1711036800000,66557.77000000,67000.00000000,64871.01000000,65223.74000000,11883.44847000
1711051200000,65223.73000000,65946.66000000,64529.01000000,65501.27000000,7079.77808000
1711065600000,65501.28000000,66160.00000000,65120.01000000,65981.99000000,6860.14662000
1711080000000,65981.99000000,66649.62000000,65756.64000000,66178.01000000,5005.64413000
1711094400000,66178.01000000,66363.10000000,64065.72000000,64233.90000000,8364.76408000
1711108800000,64233.90000000,64674.06000000,62601.11000000,63877.04000000,15779.03684000
1711123200000,63877.04000000,64126.09000000,62766.63000000,63866.93000000,8473.14688000
1711137600000,63866.94000000,63978.86000000,62260.00000000,63796.64000000,6999.63966000
1711152000000,63796.64000000,64374.91000000,63000.00000000,63556.00000000,5352.28065000
1711166400000,63556.00000000,64856.01000000,63506.50000000,64575.41000000,3673.22300000
1711180800000,64575.41000000,64857.14000000,64186.21000000,64629.62000000,3461.55180000
1711195200000,64629.61000000,65414.69000000,64278.15000000,65104.05000000,5604.02124000
1711209600000,65104.06000000,65999.00000000,64786.25000000,64872.90000000,5268.49718000
1711224000000,64872.90000000,65199.97000000,63861.66000000,63990.01000000,3050.54022000
1711238400000,63990.02000000,64723.16000000,63922.85000000,63962.98000000,2935.71455000
1711252800000,63962.98000000,64583.44000000,63772.29000000,64583.43000000,2684.12371000
1711267200000,64583.44000000,65368.66000000,64476.00000000,65334.01000000,4489.73276000
1711281600000,65334.00000000,65925.19000000,65177.28000000,65673.36000000,5348.55639000
1711296000000,65673.36000000,66045.99000000,64600.01000000,65843.02000000,6877.20940000
1711310400000,65843.02000000,67628.69000000,65730.60000000,67209.99000000,9060.44334000
1711324800000,67210.00000000,67350.00000000,66385.06000000,67350.00000000,5111.47135000
1711339200000,67350.00000000,67740.00000000,66710.00000000,66821.19000000,5187.21371000
1711353600000,66821.19000000,67344.23000000,66747.65000000,66810.15000000,4533.27519000
1711368000000,66810.15000000,70000.00000000,66780.00000000,69792.05000000,18421.73075000
1711382400000,69792.06000000,71000.00000000,69440.18000000,70960.89000000,12949.80008000
1711396800000,70960.89000000,71150.00000000,69562.09000000,69880.01000000,7227.65378000
1711411200000,69880.00000000,70606.00000000,69732.80000000,70423.11000000,4442.88157000
1711425600000,70423.11000000,71561.10000000,70260.30000000,70486.38000000,6445.21132000
1711440000000,70486.38000000,71280.00000000,70268.66000000,70693.16000000,6034.68060000
1711454400000,70693.17000000,71136.63000000,69280.00000000,70250.00000000,11063.14222000
1711468800000,70250.01000000,70499.00000000,69412.00000000,69477.67000000,7627.77768000
1711483200000,69477.66000000,70305.33000000,69401.72000000,69988.00000000,3320.69078000
1711497600000,69987.99000000,70739.65000000,69840.00000000,70387.99000000,4372.69970000
1711512000000,70388.00000000,70598.00000000,69640.00000000,69725.99000000,4193.40578000
1711526400000,69726.00000000,70359.97000000,69407.00000000,70220.73000000,5171.78507000
1711540800000,70220.73000000,71769.54000000,68534.01000000,68874.00000000,22329.46086000
1711555200000,68873.99000000,69406.00000000,68359.18000000,68652.00000000,8096.55097000
1711569600000,68652.01000000,69637.66000000,68630.00000000,69469.99000000,4955.45447000
1711584000000,69469.99000000,69980.00000000,68903.62000000,69290.00000000,4222.74545000
1711598400000,69290.00000000,70469.82000000,69280.00000000,70399.03000000,4925.19222000
1711612800000,70399.04000000,70962.63000000,70292.44000000,70647.18000000,6772.71614000
1711627200000,70647.18000000,71552.06000000,70348.75000000,71290.39000000,11335.74390000
1711641600000,71290.38000000,71320.00000000,70404.00000000,70798.26000000,5199.87249000
1711656000000,70798.26000000,71074.03000000,70541.90000000,70780.60000000,2982.76219000
1711670400000,70780.60000000,70916.16000000,70274.07000000,70442.22000000,3035.25826000
1711684800000,70442.23000000,70538.78000000,69746.33000000,69794.00000000,4015.74929000
1711699200000,69794.01000000,70318.00000000,69566.00000000,70142.78000000,4708.66434000
1711713600000,70142.78000000,70636.04000000,69009.00000000,69180.00000000,7043.97127000
1711728000000,69179.99000000,69666.00000000,69078.62000000,69665.99000000,4246.06600000
1711742400000,69665.99000000,69916.50000000,69290.00000000,69850.54000000,2395.37437000
1711756800000,69850.53000000,70177.87000000,69710.00000000,69773.99000000,2533.94601000
1711771200000,69774.00000000,70321.10000000,69755.98000000,69852.18000000,2669.04320000
1711785600000,69852.18000000,70183.67000000,69811.37000000,70183.55000000,2073.90457000
1711800000000,70183.54000000,70269.15000000,69925.87000000,69999.99000000,1960.15928000
1711814400000,69999.99000000,70280.06000000,69670.00000000,69896.34000000,2564.18678000
1711828800000,69896.34000000,69896.35000000,69540.00000000,69582.18000000,1843.37158000
1711843200000,69582.17000000,70165.86000000,69562.99000000,69916.61000000,2971.88718000
1711857600000,69916.60000000,70460.00000000,69874.54000000,70301.73000000,3491.10805000
1711872000000,70301.72000000,70470.00000000,70147.77000000,70369.99000000,1973.67988000
1711886400000,70369.99000000,70759.10000000,70289.72000000,70381.13000000,3579.74008000
1711900800000,70381.13000000,71227.22000000,70321.86000000,71023.50000000,3712.47384000
1711915200000,71023.51000000,71366.00000000,70639.93000000,71280.01000000,3667.45530000
1711929600000,71280.00000000,71288.23000000,70520.51000000,70588.01000000,3360.81417000
1711944000000,70588.01000000,70648.83000000,68888.00000000,69594.94000000,9756.49862000
1711958400000,69594.94000000,69799.98000000,69165.35000000,69460.01000000,4785.74482000
1711972800000,69460.00000000,70080.00000000,68161.48000000,68237.15000000,11010.90480000
1711987200000,68237.15000000,69816.24000000,68062.86000000,69648.01000000,8342.53739000
1712001600000,69648.01000000,69900.00000000,69327.66000000,69649.80000000,4188.82059000
1712016000000,69649.81000000,69674.23000000,66000.00000000,66703.97000000,14727.55061000
1712030400000,66703.97000000,67120.00000000,66120.75000000,66455.50000000,8828.40820000
1712044800000,66455.50000000,66705.08000000,65075.00000000,65622.69000000,13036.59722000
1712059200000,65622.69000000,66249.83000000,64588.58000000,64890.00000000,17665.04450000
1712073600000,64889.99000000,66200.00000000,64550.00000000,65914.90000000,11481.41905000
1712088000000,65914.91000000,66120.00000000,65200.00000000,65463.99000000,6060.80835000
1712102400000,65463.99000000,66288.88000000,64493.07000000,66225.79000000,9351.12963000
1712116800000,66225.79000000,66483.87000000,65920.00000000,66135.99000000,4521.80948000
1712131200000,66135.98000000,66642.36000000,65538.06000000,66059.76000000,6489.92426000
1712145600000,66059.75000000,66903.63000000,65635.01000000,65836.01000000,7323.44464000
1712160000000,65836.02000000,66550.00000000,65451.62000000,65784.00000000,6431.99952000
1712174400000,65784.01000000,66297.40000000,65476.63000000,65963.28000000,5768.91025000
1712188800000,65963.27000000,66354.83000000,65454.55000000,65620.01000000,3770.13451000
1712203200000,65620.00000000,66290.32000000,65064.52000000,66091.60000000,4739.31707000
1712217600000,66091.59000000,66468.99000000,66028.00000000,66353.67000000,3428.64196000
1712232000000,66353.68000000,67927.69000000,66330.56000000,67647.99000000,10795.29970000
1712246400000,67648.00000000,69309.91000000,67526.50000000,68500.00000000,11282.70659000
1712260800000,68500.00000000,68565.54000000,67320.00000000,68487.79000000,7494.38470000
1712275200000,68487.80000000,68756.67000000,67435.67000000,67863.99000000,5774.35522000
1712289600000,67864.00000000,68028.00000000,66380.00000000,66930.74000000,5658.20928000
1712304000000,66930.75000000,67684.26000000,66383.01000000,66478.00000000,5920.73430000
1712318400000,66478.00000000,68566.66000000,65952.56000000,68190.62000000,11781.15101000
1712332800000,68190.62000000,68380.00000000,67316.00000000,67412.40000000,6064.18449000
1712347200000,67412.41000000,67966.67000000,67342.00000000,67820.62000000,2716.59643000
1712361600000,67820.63000000,68065.20000000,67447.83000000,67788.01000000,3176.77641000
1712376000000,67788.00000000,68232.14000000,67602.00000000,67992.02000000,3070.43208000
1712390400000,67992.02000000,68120.00000000,67615.22000000,67668.16000000,2642.86157000
1712404800000,67668.16000000,68299.00000000,67527.78000000,68104.00000000,3568.26804000
1712419200000,68104.01000000,68484.09000000,67948.83000000,68259.98000000,2363.11858000
1712433600000,68259.99000000,69692.00000000,68166.66000000,68896.00000000,5312.83251000
1712448000000,68896.00000000,69777.00000000,68824.00000000,69408.05000000,4070.31150000
1712462400000,69408.04000000,69493.98000000,69053.97000000,69364.01000000,2506.83696000
1712476800000,69364.00000000,69555.00000000,69199.01000000,69357.00000000,2408.97704000
1712491200000,69357.00000000,69886.03000000,69210.00000000,69543.74000000,3508.85654000
1712505600000,69543.73000000,70326.29000000,68849.77000000,69068.01000000,6365.63132000
1712520000000,69068.01000000,69477.18000000,68901.00000000,69360.39000000,2674.13097000
1712534400000,69360.38000000,69841.03000000,69043.24000000,69458.95000000,2783.56347000
1712548800000,69458.95000000,70850.00000000,69280.00000000,70698.63000000,5743.89017000
1712563200000,70698.64000000,72650.00000000,70642.00000000,72404.00000000,17583.55254000
1712577600000,72404.00000000,72797.99000000,71245.17000000,71773.98000000,11394.24682000
1712592000000,71773.98000000,72104.05000000,71300.00000000,71766.00000000,5209.50842000
1712606400000,71766.00000000,72000.00000000,71500.37000000,71620.00000000,3009.11482000
1712620800000,71620.00000000,71758.19000000,70833.33000000,71285.00000000,4291.79016000
1712635200000,71285.00000000,71339.79000000,70110.00000000,70383.99000000,6190.35905000
1712649600000,70383.98000000,70905.26000000,69576.61000000,70794.85000000,6972.66696000
1712664000000,70794.84000000,70977.00000000,68535.03000000,69264.00000000,12156.24815000
1712678400000,69264.00000000,69320.00000000,68210.00000000,69000.77000000,6642.90689000
1712692800000,69000.78000000,69439.60000000,68888.47000000,69146.00000000,3039.93121000
1712707200000,69146.00000000,69594.15000000,68466.63000000,69150.18000000,4540.58603000
1712721600000,69150.18000000,69515.00000000,69005.55000000,69336.28000000,2643.50253000
