timestamp,open,high,low,close,volume
1721304000000,64729.00,65098.90,63359.10,63500.10,79341.492
1721318400000,63500.10,63933.30,63206.40,63535.60,40122.803
1721332800000,63535.50,64096.30,63413.10,63959.90,18007.024
1721347200000,63960.00,64348.20,63266.20,64298.00,30771.327
1721361600000,64297.90,64469.30,63565.00,63673.90,28188.859
1721376000000,63673.90,64165.80,63371.40,64095.20,35395.006
1721390400000,64095.60,65870.00,64010.10,65791.50,93974.647
1721404800000,65791.50,67362.80,65784.00,67107.80,96570.502
1721419200000,67107.80,67320.90,66590.90,66627.90,26959.464
1721433600000,66627.90,66797.00,66159.10,66568.70,22374.296
1721448000000,66568.70,66729.00,66401.00,66526.30,11307.037
1721462400000,66526.40,66700.00,66422.90,66445.90,11122.777
1721476800000,66446.00,66799.90,66241.40,66797.00,17627.830
1721491200000,66797.00,67648.70,66632.00,67195.00,41238.669
1721505600000,67195.00,67412.40,66737.70,67095.60,19893.797
1721520000000,67095.60,67400.00,66918.40,67145.80,13108.955
1721534400000,67145.80,67194.30,66560.00,66670.00,18387.329
1721548800000,66669.90,67040.40,66645.60,66845.40,11562.755
1721563200000,66845.40,67498.00,66571.30,67130.90,31277.598
1721577600000,67130.90,67719.80,65750.00,67391.40,89763.164
1721592000000,67391.50,68351.20,67239.90,68138.00,43128.571
1721606400000,68138.00,68459.70,67700.00,67847.30,29357.100
1721620800000,67847.30,67966.00,67100.00,67210.30,26807.626
1721635200000,67210.40,67571.40,66904.20,67479.10,20838.304
1721649600000,67479.10,67932.20,66538.60,67044.30,56104.431
1721664000000,67044.30,68228.60,66784.10,68193.50,34521.383
1721678400000,68193.60,68221.50,67202.10,67499.20,25362.547
1721692800000,67499.20,67729.30,67175.60,67437.30,20135.362
1721707200000,67437.30,67493.30,66216.10,66550.00,45758.851
1721721600000,66549.90,67135.50,66413.00,66641.00,34676.727
1721736000000,66641.00,67338.00,65921.70,66552.80,86188.637
1721750400000,66552.80,66745.10,65416.50,65516.10,57758.536
1721764800000,65516.20,66040.00,65453.40,65916.40,25912.567
1721779200000,65916.30,66135.50,65450.80,66027.50,23229.873
1721793600000,66027.40,66056.00,65577.50,66049.00,16527.006
1721808000000,66049.00,66590.00,65974.90,66345.70,28364.608
1721822400000,66345.70,67087.30,66066.00,66155.70,64013.824
1721836800000,66155.80,66687.90,65537.00,65631.80,46286.693
1721851200000,65631.80,66059.70,65040.50,65350.80,36657.417
1721865600000,65350.70,65606.30,63823.30,64074.00,86228.936
1721880000000,64073.90,64378.00,63800.00,64115.10,29134.565
1721894400000,64115.00,64474.20,63857.20,64082.60,32232.038
1721908800000,64082.60,64993.60,63456.70,64773.30,85867.664
1721923200000,64773.30,65170.00,64357.50,64669.50,43249.638
1721937600000,64669.50,66144.00,64390.80,65773.00,42972.600
1721952000000,65773.00,67470.40,65688.20,67014.00,54322.043
1721966400000,67014.00,67168.20,66839.50,66873.80,27381.084
1721980800000,66873.70,67466.00,66873.70,67293.90,25036.720
1721995200000,67293.90,67982.40,66865.70,67528.00,69433.176
1722009600000,67527.90,68143.00,67277.00,67957.20,30157.705
1722024000000,67957.20,68200.00,67365.00,67882.50,29053.798
1722038400000,67882.50,68055.60,67588.30,67766.20,15182.442
1722052800000,67766.20,68278.80,67752.10,68013.60,17714.409
1722067200000,68013.50,68244.60,67864.80,68184.70,14552.231
1722081600000,68184.70,69381.70,68162.90,68822.00,69130.287
1722096000000,68821.90,68976.40,67538.40,68209.20,61397.720
1722110400000,68209.30,69200.00,66624.50,67873.80,153005.558
1722124800000,67873.70,68246.60,67222.70,67910.90,22253.123
1722139200000,67910.90,68003.50,67037.00,67517.70,25149.842
1722153600000,67517.60,67969.10,67178.90,67800.00,18990.816
1722168000000,67800.10,68093.40,67527.40,67624.30,21697.193
1722182400000,67624.20,68300.00,67588.40,68090.00,15542.059
1722196800000,68090.00,68254.70,67771.60,68215.50,13280.902
1722211200000,68215.50,69782.20,68130.10,69323.10,64456.552
1722225600000,69323.10,69872.60,69240.00,69510.60,28440.561
1722240000000,69510.50,69841.20,69345.00,69549.90,23274.384
1722254400000,69549.80,70081.00,67650.00,68067.20,122246.263
1722268800000,68067.30,68093.10,66365.80,67276.60,102883.789
1722283200000,67276.70,67521.00,66547.10,66750.00,31236.269
1722297600000,66750.10,66865.30,65820.00,66585.60,53988.278
1722312000000,66585.70,66966.60,66288.00,66914.00,23753.397
1722326400000,66914.00,66956.60,66358.90,66532.50,23447.894
1722340800000,66532.60,66923.80,65500.00,66198.00,66028.538
1722355200000,66198.00,66526.10,65501.10,65899.40,47748.809
1722369600000,65900.00,66319.00,65254.50,66159.30,31584.128
1722384000000,66159.30,66380.00,65825.90,66028.90,19978.559
1722398400000,66028.10,66540.80,65459.40,66196.40,40885.994
1722412800000,66196.40,66360.40,65906.70,66062.60,19153.975
1722427200000,66062.70,66826.30,65939.70,66354.50,46270.954
1722441600000,66354.40,66820.00,64894.00,65229.80,71073.914
1722456000000,65228.10,65399.00,64500.40,64601.80,49026.050
1722470400000,64601.80,64824.40,63722.00,63912.80,53076.972
1722484800000,63912.70,64468.60,63559.50,64297.40,43263.551
1722499200000,64297.50,64681.90,64280.00,64645.30,20514.248
1722513600000,64645.20,64927.20,62646.70,62892.60,101176.373
1722528000000,62892.60,63480.00,62271.20,63403.00,81788.779
1722542400000,63403.00,65650.00,63312.00,65328.90,72834.667
1722556800000,65329.00,65577.00,63630.60,64600.10,52628.167
1722571200000,64600.10,64640.00,63800.00,64146.00,35151.989
1722585600000,64146.00,64957.40,64026.50,64640.00,33125.652
1722600000000,64640.00,65534.30,62350.00,63393.50,162016.878
1722614400000,63393.50,63600.00,62478.00,62619.70,57246.326
1722628800000,62619.60,63181.00,61200.20,61483.70,81459.408
1722643200000,61483.70,61956.40,60473.30,61862.20,65725.345
1722657600000,61862.20,61945.00,61380.80,61636.00,19226.551
1722672000000,61636.00,61986.30,61420.20,61884.80,19753.370
1722686400000,61884.70,62166.00,60800.00,60857.70,42750.029
1722700800000,60857.80,61262.50,59888.00,60216.70,100562.580
1722715200000,60216.80,60842.20,59800.00,60684.60,42452.081
1722729600000,60684.50,61089.50,60290.90,60705.30,23040.242
1722744000000,60705.30,60915.10,60228.00,60346.00,18248.526
1722758400000,60344.60,60986.20,60080.50,60880.10,25833.958
1722772800000,60880.10,61064.60,58926.10,59070.00,81031.408
1722787200000,59069.90,59475.00,57040.00,59234.00,141030.817
1722801600000,59233.90,59569.20,57975.40,58144.50,50327.464
1722816000000,58144.50,58286.90,52222.00,53864.10,295951.644
1722830400000,53864.00,54538.00,48888.00,52645.60,285579.138
1722844800000,52645.60,53200.00,50590.10,51316.80,170229.540
1722859200000,51316.70,54952.30,49501.00,54289.80,313707.062
1722873600000,54289.70,55523.00,52520.40,53450.40,141719.563
1722888000000,53450.30,55192.20,53439.90,54003.10,74795.078
1722902400000,54003.50,56254.80,53925.30,55638.10,75090.615
1722916800000,55638.10,56152.00,55220.00,55979.10,46375.502
1722931200000,55979.00,56090.00,54531.60,55188.00,69864.431
1722945600000,55188.00,56599.00,54288.00,56370.00,126550.500
1722960000000,56370.00,56999.90,56205.10,56737.00,68281.366
1722974400000,56737.00,56919.80,55792.00,55991.20,49791.025
1722988800000,55991.30,57249.00,55516.30,56826.80,65654.654
1723003200000,56826.90,57219.40,56510.00,56898.70,36392.101
1723017600000,56898.80,57699.00,56838.00,56938.00,57955.694
1723032000000,56938.00,57454.00,55620.50,56067.50,92698.036
1723046400000,56067.40,56279.80,54650.00,54739.90,72193.669
1723060800000,54739.90,55550.00,54519.80,55102.90,52548.386
1723075200000,55102.90,57688.80,54672.40,57031.70,78167.269
1723089600000,57031.80,57399.20,56636.90,57166.40,34216.433
1723104000000,57166.40,57650.00,56943.70,57292.30,31182.131
1723118400000,57292.40,59493.00,56645.00,59391.30,161033.470
1723132800000,59391.90,59839.70,59213.60,59389.10,61744.499
1723147200000,59389.00,62737.20,59273.50,61659.80,103773.706
1723161600000,61659.80,61726.00,60728.70,61327.00,45368.076
1723176000000,61327.00,61361.90,60555.00,60844.00,32873.145
1723190400000,60844.10,61184.90,60150.00,60633.50,44404.398
1723204800000,60633.50,61089.70,59500.00,59786.40,95689.828
1723219200000,59786.40,60729.50,59705.90,60649.50,44486.156
1723233600000,60649.60,60961.50,59862.60,60808.60,45852.736
1723248000000,60808.60,61450.00,60231.60,60410.00,32792.529
1723262400000,60410.00,60823.70,60208.50,60809.50,13222.181
1723276800000,60809.60,61082.00,60582.40,60892.40,20424.968
1723291200000,60892.30,60926.00,60375.00,60480.50,17862.337
1723305600000,60480.50,61200.00,60360.00,60989.10,21578.607
1723320000000,60989.10,61136.30,60721.00,60889.90,9712.732
1723334400000,60889.80,61350.00,60857.00,61054.80,16049.514
1723348800000,61054.80,61233.00,60838.50,61224.90,14422.756
1723363200000,61225.00,62000.00,60380.10,60637.60,42331.908
1723377600000,60637.50,60736.60,59911.00,60100.00,39701.126
1723392000000,60099.90,60330.60,59512.20,59598.00,24736.746
1723406400000,59598.10,59657.50,58255.40,58693.10,65297.026
1723420800000,58693.10,59055.00,58078.80,58488.60,34275.824
1723435200000,58488.60,58958.10,57615.00,58640.10,40522.628
1723449600000,58640.10,59937.80,58086.10,59809.20,61662.719
1723464000000,59809.20,60666.00,57774.00,60171.20,143983.432
1723478400000,60171.30,60390.80,58403.90,59025.90,53835.075
1723492800000,59026.00,59721.00,58520.70,59323.60,32846.612
1723507200000,59323.70,59895.00,58840.20,59014.00,33883.540
1723521600000,59014.00,59442.50,58803.00,59209.00,18668.520
1723536000000,59209.10,59302.50,58360.00,58803.00,27235.168
1723550400000,58803.00,59748.80,58668.00,59438.40,58301.150
1723564800000,59438.40,61545.00,59402.60,60792.10,93646.839
1723579200000,60794.50,61120.80,60355.00,60550.50,24199.504
1723593600000,60550.40,61277.00,60390.00,60920.00,21570.954
1723608000000,60920.10,61131.20,60588.80,60887.20,18265.191
1723622400000,60887.30,61419.20,60600.00,61260.70,29257.399
1723636800000,61260.60,61839.70,58773.30,59396.90,157618.112
1723651200000,59396.90,59436.20,58500.00,58854.00,47736.564
1723665600000,58853.80,59151.60,58367.20,58648.10,21214.588
1723680000000,58648.10,59021.00,57971.20,58420.00,35121.967
1723694400000,58420.00,58622.00,57679.60,58031.90,33573.459
1723708800000,58031.90,58836.50,57937.70,58712.10,30951.155
1723723200000,58712.00,59749.20,58508.10,59643.70,81773.999
1723737600000,59643.30,59820.00,56633.00,57002.40,114222.529
1723752000000,57002.50,57850.00,55969.00,57511.00,65172.837
1723766400000,57511.10,58494.90,57062.10,57858.10,42608.887
1723780800000,57858.10,58619.90,57766.30,58423.40,26572.525
1723795200000,58423.40,58656.20,58175.90,58369.30,28098.257
1723809600000,58369.40,58908.50,57500.00,58035.60,87458.985
1723824000000,58035.10,59780.20,57965.40,59649.20,60447.637
1723838400000,59649.30,59678.20,58711.40,58854.90,23570.238
1723852800000,58854.90,59363.00,58769.40,59128.20,16955.085
1723867200000,59128.20,59238.00,59024.60,59222.00,8228.101
1723881600000,59221.90,59450.10,59026.00,59106.50,13687.324
1723896000000,59106.50,59638.80,59065.60,59357.60,18213.242
1723910400000,59357.70,59690.20,59265.30,59446.30,12678.586
1723924800000,59446.20,59474.40,59122.10,59468.50,7323.194
1723939200000,59468.50,60249.80,59258.50,59308.50,34857.959
1723953600000,59308.50,59666.00,59214.00,59545.40,13583.873
1723968000000,59545.50,60177.40,59401.10,59991.30,29934.066
1723982400000,59991.30,60250.00,59629.30,59828.80,22362.047
1723996800000,59828.80,59916.00,59327.80,59671.90,18061.423
1724011200000,59672.00,59847.50,58352.00,58390.00,30860.896
1724025600000,58390.10,58736.60,58173.20,58696.60,36689.134
1724040000000,58696.70,58724.80,58339.80,58475.50,17094.209
1724054400000,58475.50,58648.70,57750.00,58360.90,41220.822
1724068800000,58360.80,58945.40,58019.40,58505.00,56087.605
1724083200000,58504.50,59262.90,58332.00,58933.00,39519.485
1724097600000,58935.70,59585.40,58879.30,59398.50,23431.884
1724112000000,59398.40,60887.00,59324.20,60588.60,51764.706
1724126400000,60588.50,61386.00,60539.00,60899.90,38075.289
1724140800000,60899.90,60949.70,60386.70,60494.90,23776.837
1724155200000,60494.90,60920.50,58663.40,58783.70,109188.639
1724169600000,58783.70,59574.00,58501.10,59482.50,41313.283
1724184000000,59482.50,59689.50,58831.10,58982.90,22930.376
1724198400000,58982.70,59489.00,58728.90,59290.30,20416.045
1724212800000,59290.30,59721.20,59164.70,59689.20,16832.524
1724227200000,59689.20,59893.00,59058.00,59332.40,30713.810
1724241600000,59332.30,60192.30,58801.10,59486.00,89664.322
1724256000000,59485.90,61600.00,59339.90,61538.10,69687.927
1724270400000,61538.10,61793.90,60865.20,61120.00,43269.051
1724284800000,61120.00,61184.70,59677.60,60514.90,45566.023
1724299200000,60515.00,61128.80,60422.40,60946.00,23500.574
1724313600000,60946.00,61392.00,60761.20,61297.00,28590.700
1724328000000,61296.90,61364.00,60060.30,60370.90,71562.025
1724342400000,60370.90,60554.90,60100.00,60272.70,28524.433
1724356800000,60272.80,60673.10,60250.00,60349.90,13355.204
1724371200000,60349.90,60990.00,60301.50,60565.10,19144.284
1724385600000,60565.00,61370.00,60548.80,61045.00,28205.460
1724400000000,61045.00,61317.70,60651.60,60710.20,27019.442
1724414400000,60710.10,62307.60,60710.10,61499.00,126207.328
1724428800000,61498.60,63794.00,61300.00,63577.20,115228.930
1724443200000,63577.40,65000.00,63435.10,64019.90,66685.265
1724457600000,64020.00,64168.00,63600.00,63800.10,22317.765
1724472000000,63800.00,64298.90,63790.20,64269.30,19125.053
1724486400000,64269.30,64472.50,63836.60,63881.70,22828.946
1724500800000,63881.70,64222.00,63828.00,63943.30,19592.894
1724515200000,63943.40,64414.20,63897.60,64170.00,24371.542
1724529600000,64170.10,64306.20,63522.70,64116.50,24505.702
1724544000000,64116.60,64549.00,63962.90,64065.00,22855.305
1724558400000,64065.00,64164.30,63751.00,63835.40,14721.603
1724572800000,63835.50,63990.00,63731.30,63851.70,12960.856
1724587200000,63851.70,64270.00,63777.00,64099.90,16885.471
1724601600000,64099.90,64226.20,63950.00,64152.20,8486.783
1724616000000,64152.30,65175.40,64098.60,64190.20,39636.870
1724630400000,64190.10,64455.80,63711.20,64089.50,23198.666
1724644800000,64089.50,64183.20,63541.90,63603.20,21222.012
1724659200000,63603.30,64022.20,63074.50,63816.60,33534.559
1724673600000,63816.60,63934.70,63032.00,63493.00,54988.264
1724688000000,63493.00,63859.20,63138.40,63305.00,35175.091
1724702400000,63305.00,63536.10,62750.20,62807.60,27858.630
1724716800000,62807.70,63196.00,62618.00,62947.20,29706.099
1724731200000,62947.10,63178.70,62688.50,62882.00,20401.076
1724745600000,62881.90,62987.10,62200.20,62392.50,39119.070
1724760000000,62392.40,62485.20,61426.10,61673.30,76715.331
1724774400000,61673.40,62165.00,61484.30,62071.80,33637.142
1724788800000,62071.80,62075.00,57928.20,59384.50,139691.087
1724803200000,59384.40,59625.00,58872.30,59597.30,38342.376
1724817600000,59597.30,59640.00,58475.20,58579.00,29969.699
1724832000000,58579.00,60197.80,58510.00,59900.10,49925.701
1724846400000,59900.20,60131.00,58400.00,58963.40,75714.471
1724860800000,58963.40,59794.70,57820.00,58871.10,82316.682
1724875200000,58871.00,59579.80,58602.60,59010.00,37519.638
1724889600000,59010.00,59300.00,58834.00,59113.00,16919.526
1724904000000,59113.40,59734.10,59040.80,59548.90,19489.420
1724918400000,59548.90,60450.00,59340.00,60040.00,34525.878
1724932800000,60040.00,61144.90,59956.30,60750.90,61927.272
1724947200000,60750.90,60930.00,58876.80,59237.00,74013.459
1724961600000,59236.90,59614.50,58655.00,59323.20,27021.130
1724976000000,59323.30,59468.00,58862.20,59001.00,22767.268
1724990400000,59001.10,59558.00,58650.00,59235.90,31797.878
1725004800000,59236.00,59637.40,59235.90,59367.00,22816.700
1725019200000,59367.00,59914.90,57901.20,58073.10,106557.210
1725033600000,58073.70,59345.80,57525.00,58670.10,69320.590
1725048000000,58670.00,59283.10,58668.80,59096.30,15016.823
1725062400000,59096.40,59436.00,59028.00,59199.90,11958.450
1725076800000,59200.00,59321.80,59044.00,59060.80,8559.326
1725091200000,59060.80,59153.00,58795.40,59093.10,13321.559
1725105600000,59093.10,59215.80,58860.00,58983.70,13422.200
1725120000000,58983.80,59108.30,58700.00,58834.20,13929.987
1725134400000,58834.30,59107.50,58756.00,58941.90,7675.152
1725148800000,58941.90,59052.70,58250.00,58501.60,21088.037
1725163200000,58501.60,58575.70,57728.60,58444.10,36976.487
1725177600000,58444.10,58469.90,57800.00,58208.00,23778.603
1725192000000,58208.10,58345.30,57123.00,58184.10,64849.981
1725206400000,58184.10,58787.20,57834.00,58480.80,31892.443
1725220800000,58480.80,58626.30,57161.10,57268.10,44324.363
1725235200000,57268.10,57735.00,57093.00,57708.70,40517.859
1725249600000,57708.60,57966.90,57316.60,57523.20,22388.633
1725264000000,57523.30,58639.00,57487.70,58396.00,49492.531
1725278400000,58395.90,58783.00,58075.00,58508.00,37132.393
1725292800000,58508.00,58645.40,58267.40,58418.80,15329.088
1725307200000,58418.80,59412.30,58354.80,59112.10,36357.880
1725321600000,59112.20,59790.00,59000.00,59087.90,33235.220
1725336000000,59087.90,59236.70,58838.10,59078.00,21946.896
1725350400000,59078.00,59174.80,58668.50,59038.60,20272.022
1725364800000,59038.50,59332.90,57530.10,57695.10,88841.444
1725379200000,57695.10,58250.00,57560.70,58020.90,42995.514
1725393600000,58021.00,58217.60,57320.00,57451.90,22905.401
1725408000000,57452.00,57920.00,55555.00,56632.90,96559.930
1725422400000,56632.90,56847.20,56107.90,56717.00,36160.820
1725436800000,56717.10,56871.50,56411.60,56536.20,24166.838
1725451200000,56536.10,58137.70,56154.00,58096.20,98800.802
1725465600000,58096.00,58500.00,57615.90,58029.80,53202.151
1725480000000,58029.80,58371.70,57781.30,57944.80,18092.770
1725494400000,57944.80,58318.90,56869.40,57104.10,43700.153
1725508800000,57104.10,57265.00,56500.80,57127.00,36290.493
1725523200000,57126.90,57217.50,56591.00,56666.10,28862.997
1725537600000,56666.10,57300.00,55779.10,55947.00,114809.769
1725552000000,55947.00,56688.90,55760.00,56026.00,46207.195
1725566400000,56025.20,56232.80,55600.00,56145.70,24832.985
1725580800000,56145.70,56836.70,55955.10,56553.70,31267.057
1725595200000,56553.70,56717.80,55250.00,55766.30,48647.469
1725609600000,55766.30,56244.10,55607.30,55972.10,37288.305
1725624000000,55972.10,57000.00,53780.90,54022.10,199654.457
1725638400000,54022.10,54414.00,53235.70,53515.30,95828.271
1725652800000,53515.30,53938.90,52510.80,53927.70,66377.554
1725667200000,53927.70,54082.20,53725.00,53789.20,16109.681
1725681600000,53789.30,54369.70,53780.10,54258.10,26886.448
1725696000000,54258.00,54472.80,54143.50,54298.90,16932.707
1725710400000,54299.00,54800.00,54298.90,54746.60,23152.430
1725724800000,54746.70,54820.20,53969.00,54375.00,26559.311
1725739200000,54375.10,54415.40,53778.10,54134.90,18046.017
1725753600000,54134.90,54478.90,53937.00,54371.50,16385.479
1725768000000,54371.50,54544.80,54232.10,54411.50,13982.548
1725782400000,54411.50,54700.00,54322.90,54528.60,15369.004
1725796800000,54528.70,54544.00,53610.00,53663.60,41767.656
1725811200000,53663.40,54497.40,53596.50,54301.30,25558.946
1725825600000,54301.30,55300.00,54130.30,54839.60,49014.903
1725840000000,54839.60,55351.40,54650.20,55084.90,34856.397
1725854400000,55085.00,55118.30,54557.00,54939.10,25144.536
1725868800000,54939.00,55549.00,54920.70,55236.80,35621.185
1725883200000,55236.70,55774.90,54755.00,55360.30,77478.100
1725897600000,55360.30,57148.60,55319.40,57060.10,89138.154
1725912000000,57060.10,58153.20,56770.40,57010.00,50855.989
1725926400000,57010.10,57041.90,56493.00,56500.10,25864.710
1725940800000,56500.00,57266.60,56361.00,57183.20,28066.767
1725955200000,57183.20,57366.00,56851.10,57190.10,26303.665
1725969600000,57190.10,57439.00,56485.00,56561.00,68550.308
1725984000000,56553.90,58033.20,56525.00,57923.60,58356.336
1725998400000,57923.90,57945.40,57416.30,57609.10,21175.890
1726012800000,57609.20,57729.00,56643.00,56793.50,45303.418
1726027200000,56793.60,56794.90,56050.00,56675.10,42336.080
1726041600000,56675.10,56850.00,56311.00,56768.90,32736.378
1726056000000,56768.90,57138.00,55515.20,56676.10,129132.610
1726070400000,56676.00,57954.40,56618.00,57560.90,74115.014
1726084800000,57560.90,57648.00,57171.00,57306.00,14607.945
1726099200000,57305.60,58465.40,57283.10,58197.90,49947.024
1726113600000,58197.90,58397.50,57810.00,58101.80,24243.847
1726128000000,58101.70,58317.50,57867.00,58031.70,22402.437
1726142400000,58031.70,58606.60,57310.00,57472.10,95837.316
1726156800000,57472.20,58425.70,57454.40,58366.30,46353.896
1726171200000,58366.30,58366.80,57734.90,58097.00,22665.168
1726185600000,58097.10,58226.80,57800.80,57827.00,16460.526
1726200000000,57827.00,58108.80,57708.00,58079.80,16302.311
1726214400000,58079.70,58321.90,57792.50,57852.60,25215.501
1726228800000,57852.60,59706.10,57594.00,59623.50,115499.474
1726243200000,59623.60,59979.20,59278.90,59703.10,61622.677
1726257600000,59703.10,60597.00,59588.00,60456.20,42329.003
1726272000000,60456.20,60572.90,60255.40,60290.50,15486.844
1726286400000,60290.50,60318.80,59866.00,60110.40,17391.535
1726300800000,60110.30,60130.00,59577.70,59680.00,19441.411
1726315200000,59680.10,59988.90,59610.00,59840.10,17932.901
1726329600000,59840.10,59953.00,59360.10,59778.40,20367.115
1726344000000,59778.40,60135.80,59740.00,59964.00,11960.771
1726358400000,59963.90,60247.90,59950.00,60130.20,11165.607
1726372800000,60130.20,60193.60,60047.90,60166.80,7003.375
1726387200000,60166.70,60178.00,59848.60,59977.00,11882.577
1726401600000,59977.00,60369.40,59823.00,60304.60,25224.832
1726416000000,60304.60,60323.10,59663.00,59847.70,29765.693
1726430400000,59847.70,59910.20,58654.00,59100.50,45482.122
1726444800000,59100.50,59182.20,58079.70,58546.50,54220.709
1726459200000,58546.40,58935.00,58279.20,58874.60,26326.722
1726473600000,58874.60,59159.10,58463.60,58630.00,28655.980
1726488000000,58630.10,58766.00,57550.00,57860.70,71193.929
1726502400000,57860.70,58250.00,57446.30,57915.40,48106.279
1726516800000,57915.50,58397.90,57576.10,58187.00,22195.813
1726531200000,58187.00,58320.00,57588.80,58035.20,26540.640
1726545600000,58035.20,58762.00,57993.00,58668.10,23933.192
1726560000000,58668.10,59274.40,58600.00,59055.10,37558.458
1726574400000,59055.00,61345.00,58850.00,61103.00,138114.453
1726588800000,61111.00,61240.60,59600.00,59946.00,66312.487
1726603200000,59945.90,60398.20,59696.00,60281.00,25982.836
1726617600000,60281.00,60747.70,59838.00,60490.00,27659.690
1726632000000,60490.10,60664.90,60166.70,60403.70,18106.577
1726646400000,60403.60,60403.70,59360.10,59824.60,42775.420
1726660800000,59824.50,60130.00,59261.90,59400.10,56105.508
1726675200000,59400.10,61320.70,59138.00,60024.60,158110.080
1726689600000,60024.60,61765.00,59430.00,61735.30,52972.037
1726704000000,61735.30,62555.00,61534.00,62086.50,71083.208
1726718400000,62086.60,62155.00,61779.90,62071.00,23263.940
1726732800000,62071.00,62697.00,61851.30,62604.50,40249.506
1726747200000,62604.50,63483.80,62540.30,63129.00,85542.087
1726761600000,63129.00,63830.10,62905.60,63229.40,56180.057
1726776000000,63229.40,63229.50,62623.40,62926.90,26063.614
1726790400000,62926.90,63728.20,62579.20,63723.30,32841.521
1726804800000,63723.20,64126.70,63363.70,63494.40,52132.864
1726819200000,63494.50,63673.80,63080.10,63417.10,35056.918
1726833600000,63417.20,63528.70,62535.00,63120.20,79408.734
1726848000000,63120.20,63257.60,62320.00,62772.10,41022.336
1726862400000,62772.00,63280.00,62669.20,63175.70,16710.462
1726876800000,63175.80,63282.00,62790.00,62865.10,17298.311
1726891200000,62865.00,63114.60,62714.20,63060.00,12981.750
1726905600000,63060.10,63120.00,62936.80,63058.00,8566.426
1726920000000,63058.00,63286.90,62995.20,63146.60,14099.266
1726934400000,63146.60,63378.80,63054.00,63174.20,12565.693
1726948800000,63174.10,63546.90,63025.00,63320.60,12736.916
1726963200000,63320.60,63423.70,62801.20,63088.90,19579.364
1726977600000,63088.80,63182.40,62808.00,62909.30,10743.317
1726992000000,62909.20,63010.50,62520.20,62751.40,22546.486
1727006400000,62751.40,62915.70,62435.00,62624.20,19079.416
1727020800000,62624.10,63200.00,62443.20,63132.10,22456.101
1727035200000,63132.20,64000.00,62339.00,63558.40,54725.200
1727049600000,63558.50,64724.80,62534.40,64320.10,74683.458
1727064000000,64320.10,64427.90,63356.80,63519.90,35083.345
1727078400000,63519.90,63668.40,63279.50,63399.00,21731.180
1727092800000,63398.90,63778.70,63033.90,63589.60,56370.517
1727107200000,63589.60,63790.00,63077.60,63272.60,28820.318
1727121600000,63272.70,63467.10,63050.00,63302.00,17654.746
1727136000000,63302.10,63377.40,62688.20,63097.60,34882.224
1727150400000,63097.60,63542.90,62913.60,63527.80,18863.348
1727164800000,63527.70,63925.50,63350.00,63446.30,32217.024
1727179200000,63446.30,63744.40,62695.00,63128.80,63631.464
1727193600000,63128.80,64357.70,63056.00,64270.00,49015.976
1727208000000,64270.00,64666.00,63939.20,64243.10,38377.592
1727222400000,64243.20,64800.00,63955.90,64422.40,29755.753
1727236800000,64422.50,64430.00,63612.30,63814.90,25639.113
1727251200000,63814.90,63888.30,63376.00,63808.10,30911.433
1727265600000,63808.10,63971.00,63243.20,63470.10,39594.067
1727280000000,63470.10,63642.40,62963.20,63151.60,37305.727
1727294400000,63151.00,63533.30,62910.00,63118.40,21744.679
1727308800000,63118.30,63518.90,62634.40,63482.90,36878.788
1727323200000,63483.00,63843.10,63311.80,63823.40,22609.118
1727337600000,63823.40,64500.00,63567.00,64373.00,46849.777
1727352000000,64372.90,65549.50,64127.10,65200.00,130644.247
1727366400000,65200.00,65800.00,64656.10,64677.80,56313.884
1727380800000,64677.80,65214.20,64601.60,65139.20,27890.542
1727395200000,65139.10,65412.00,64788.00,65338.00,25651.759
1727409600000,65338.00,65534.60,65071.00,65438.90,26033.490
1727424000000,65438.80,65968.10,65307.00,65408.20,41461.345
1727438400000,65408.30,66450.00,65287.60,65974.00,76731.833
1727452800000,65974.10,66329.00,65477.70,65612.80,43546.194
1727467200000,65612.90,65950.00,65587.20,65749.60,12979.400
1727481600000,65749.50,66237.00,65692.30,66041.00,15236.279
1727496000000,66041.00,66060.10,65706.10,65790.00,12621.823
1727510400000,65790.00,65790.10,65392.70,65761.50,19888.929
1727524800000,65761.50,65796.80,65368.10,65593.70,20472.053
1727539200000,65593.60,65798.70,65460.00,65699.60,9155.286
1727553600000,65699.70,65980.00,65380.00,65822.60,15399.183
1727568000000,65822.70,65954.50,65599.80,65781.60,12438.833
1727582400000,65781.50,65781.60,65400.00,65436.90,12286.502
1727596800000,65436.90,65702.70,65401.00,65670.40,11851.759
1727611200000,65670.40,65832.90,65480.00,65720.00,17725.988
1727625600000,65720.00,65947.40,65623.80,65926.30,12855.578
1727640000000,65926.20,66059.30,65491.40,65568.10,20973.139
1727654400000,65568.20,65588.80,64150.00,64539.90,69881.834
1727668800000,64539.90,64686.00,64300.00,64539.10,24981.714
1727683200000,64539.00,64552.90,63222.00,63794.40,76458.979
1727697600000,63794.40,64130.80,63490.20,63535.60,48875.810
1727712000000,63535.70,63722.40,63036.20,63472.80,45469.704
1727726400000,63472.90,63845.00,62825.00,63309.10,31180.332
1727740800000,63309.00,63732.00,63000.00,63707.20,30145.062
1727755200000,63707.20,64092.60,63627.60,64017.00,23523.665
1727769600000,64016.90,64075.50,63683.10,63699.90,18586.910
1727784000000,63700.00,63784.00,61801.60,62613.80,149631.728
1727798400000,62613.80,62760.00,61100.00,61739.70,126786.010
1727812800000,61739.80,61750.20,60128.20,60776.80,81144.460
1727827200000,60776.70,61858.20,60703.30,61718.00,37462.528
1727841600000,61718.10,61926.70,61325.00,61702.50,27147.209
1727856000000,61702.50,61888.20,60856.80,61140.80,42121.394
1727870400000,61140.80,61902.60,60495.00,61833.90,91786.770
1727884800000,61833.90,62355.00,59934.90,60155.00,93642.638
1727899200000,60155.00,60972.90,60091.30,60622.60,34841.266
1727913600000,60622.70,61445.10,60508.70,61434.30,31925.503
1727928000000,61434.40,61452.60,60789.20,60898.60,24875.301
1727942400000,60898.50,61047.30,60101.50,60733.00,53727.324
1727956800000,60732.90,60909.10,59815.00,60606.50,101228.614
1727971200000,60606.40,61024.10,59888.00,60998.00,55409.577
1727985600000,60998.00,61073.70,60580.00,60727.20,18970.893
1728000000000,60727.10,61247.40,60434.10,60928.70,29090.101
1728014400000,60928.70,61476.10,60896.30,61403.90,21411.632
1728028800000,61403.90,61616.00,61236.00,61423.00,24727.149
1728043200000,61423.00,61985.00,60700.50,61843.10,97099.192
1728057600000,61843.20,62442.80,61611.00,62337.00,46119.924
1728072000000,62337.20,62457.10,61934.00,62054.40,16347.838
1728086400000,62054.30,62169.30,61648.00,61835.50,15990.326
1728100800000,61835.50,62242.40,61790.30,62043.00,11996.567
1728115200000,62043.00,62298.20,62043.00,62149.10,8605.565
1728129600000,62149.10,62344.00,62058.90,62131.40,11275.172
1728144000000,62131.50,62159.40,61740.40,61822.40,15845.230
1728158400000,61822.40,62076.90,61671.90,62023.10,10617.921
1728172800000,62023.10,62132.40,61840.50,61852.40,8978.768
1728187200000,61852.50,61987.70,61778.90,61919.80,6470.994
1728201600000,61919.80,62139.80,61890.00,62067.10,8955.265
1728216000000,62067.00,62750.00,62027.00,62690.40,32004.279
1728230400000,62690.40,62961.50,62511.00,62601.50,20697.883
1728244800000,62601.40,62888.00,62265.00,62789.30,19306.264
1728259200000,62789.20,63950.00,62620.10,63494.60,53427.045
1728273600000,63494.50,63689.80,63281.60,63509.90,19040.589
1728288000000,63509.90,63680.00,62621.90,63114.10,46007.292
1728302400000,63114.10,64448.20,62800.00,63620.00,92256.761
1728316800000,63620.10,63885.00,62700.00,63349.40,46946.801
1728331200000,63349.40,63379.90,62091.80,62190.70,41270.887
1728345600000,62190.60,62794.00,62126.30,62602.40,28564.660
1728360000000,62602.30,62753.30,61941.00,62291.40,35539.487
1728374400000,62291.40,62637.00,62159.80,62595.70,20264.489
1728388800000,62595.80,63178.70,61836.00,62259.90,84886.204
1728403200000,62259.90,62571.80,61843.60,62228.30,42234.458
1728417600000,62228.50,62544.60,62000.00,62131.70,14787.061
1728432000000,62131.80,62478.60,61962.80,62365.00,19352.949
1728446400000,62365.00,62520.90,62164.70,62243.00,14632.884
1728460800000,62243.00,62261.70,62025.00,62177.80,16509.769
1728475200000,62177.70,62386.00,61600.10,62285.40,64587.868
1728489600000,62285.40,62320.00,60800.20,61013.70,60119.581
1728504000000,61013.60,61092.50,60251.90,60606.40,42099.122
1728518400000,60606.30,60930.00,60309.00,60838.70,25500.217
1728532800000,60838.70,61128.10,60782.50,60871.00,15827.297
1728547200000,60871.10,61297.00,60600.00,61235.90,27636.423
1728561600000,61235.90,61294.70,60414.00,60769.90,67108.376
1728576000000,60770.00,61020.00,58900.00,59696.90,99979.096
1728590400000,59696.90,60295.70,59550.00,60293.20,26896.244
1728604800000,60293.30,60749.90,60057.80,60572.60,26586.058
1728619200000,60572.60,60893.40,60541.60,60643.30,19170.546
1728633600000,60643.20,61228.90,60618.40,61140.00,29003.451
1728648000000,61140.10,62432.60,61091.80,62218.00,87805.333
1728662400000,62218.00,63400.00,62080.10,63042.40,75652.829
1728676800000,63042.30,63144.00,62328.00,62509.00,25472.925
1728691200000,62509.00,63055.90,62458.00,62537.00,23211.182
1728705600000,62537.10,62770.00,62537.00,62734.10,10128.848
1728720000000,62734.00,63248.00,62645.50,62900.30,17567.587
1728734400000,62900.40,63462.60,62781.00,63124.80,26797.661
1728748800000,63124.90,63366.80,62862.00,62966.30,16359.048
1728763200000,62966.20,63345.20,62966.20,63176.00,8720.080
1728777600000,63176.00,63260.00,62615.40,62686.20,22542.817
1728792000000,62686.20,62960.00,62675.40,62819.00,9250.078
1728806400000,62819.00,62938.10,62486.10,62528.50,13355.855
1728820800000,62528.40,62811.00,62020.00,62195.30,32569.283
1728835200000,62195.20,62864.80,62141.10,62699.30,33647.995
1728849600000,62699.20,63118.30,62574.10,62839.80,18330.128
1728864000000,62839.70,64377.60,62420.00,64281.60,49743.051
1728878400000,64280.80,64676.70,63752.80,64599.60,63161.449
1728892800000,64599.50,65221.60,64306.90,64899.40,53429.685
1728907200000,64899.50,66288.00,64630.00,65850.90,97129.105
1728921600000,65850.90,66066.00,65520.00,65901.00,41167.572
1728936000000,65900.90,66533.00,65710.00,66064.90,33620.739
1728950400000,66064.90,66312.40,65300.00,65382.10,30836.404
1728964800000,65382.20,65830.00,65200.10,65638.40,27701.846
1728979200000,65638.40,65838.90,65255.00,65385.30,26501.689
1728993600000,65385.30,67953.70,64771.70,65994.60,218343.805
1729008000000,65994.70,67372.90,65952.60,66937.10,78846.996
1729022400000,66937.00,67136.00,66095.80,67044.10,39774.771
1729036800000,67044.00,67548.60,66724.20,67064.50,31340.546
1729051200000,67064.50,67335.90,66732.70,66948.80,24048.074
1729065600000,66948.80,68400.00,66888.00,67872.30,67489.134
1729080000000,67872.30,68299.90,67076.00,67726.00,85352.330
1729094400000,67725.90,68087.90,67447.10,67692.40,30240.739
1729108800000,67692.40,67945.00,67468.10,67592.00,15682.678
1729123200000,67592.00,67925.90,67369.30,67570.00,23822.274
1729137600000,67570.10,67570.10,67054.20,67280.80,27116.955
1729152000000,67280.80,67516.70,66766.00,66853.60,34930.910
1729166400000,66853.50,67673.90,66600.00,67561.90,75033.595
1729180800000,67561.90,67570.00,66682.30,66821.10,42147.009
1729195200000,66821.10,67473.50,66802.60,67401.50,17222.094
1729209600000,67401.50,68268.00,67165.00,67532.30,42849.602
1729224000000,67532.30,68371.00,67520.10,67955.00,35988.833
1729238400000,67955.10,68044.80,67656.60,67692.70,20054.459
1729252800000,67692.70,68870.70,67629.00,68710.00,82701.774
1729267200000,68710.00,69000.00,68338.00,68582.30,44954.462
1729281600000,68582.30,68669.60,68173.40,68407.80,18752.631
1729296000000,68407.80,68684.90,68278.80,68428.40,14128.924
1729310400000,68428.40,68544.60,68270.80,68328.90,9447.218
1729324800000,68328.90,68456.00,68042.50,68071.60,13259.148
1729339200000,68071.60,68347.20,68063.50,68206.90,12650.205
1729353600000,68206.90,68228.90,68000.00,68162.50,9668.409
1729368000000,68162.50,68401.60,68145.20,68357.10,9478.204
1729382400000,68357.10,68435.60,68069.80,68161.10,9136.247
1729396800000,68161.10,68423.00,68151.30,68347.00,10766.222
1729411200000,68347.00,68498.00,68330.00,68396.30,7315.345
1729425600000,68396.40,68749.00,68176.70,68605.00,26395.008
1729440000000,68605.00,68649.00,68384.30,68484.90,9301.881
1729454400000,68484.90,69425.80,68431.90,69020.10,43024.789
1729468800000,69020.20,69566.00,68590.00,68938.00,37444.311
1729483200000,68937.90,69200.00,68468.00,68519.30,26063.349
1729497600000,68519.30,68675.00,68136.00,68250.90,27692.483
1729512000000,68250.80,68350.80,66865.90,67354.30,97480.381
1729526400000,67354.20,67949.00,66920.00,67755.40,45291.764
1729540800000,67755.60,67928.40,67341.40,67368.80,19465.045
1729555200000,67368.70,67688.00,66536.50,67390.30,42456.350
1729569600000,67390.30,67784.90,67278.00,67387.30,17437.114
1729584000000,67387.20,67524.60,66740.00,67280.60,41352.412
1729598400000,67280.60,67718.00,66613.00,67266.80,69808.374
1729612800000,67266.80,67630.00,66902.10,67466.80,29595.381
1729627200000,67466.20,67825.00,67266.60,67406.40,17869.346
1729641600000,67406.50,67449.00,66856.70,67057.80,18075.878
1729656000000,67057.80,67290.00,66779.50,66838.00,18800.014
1729670400000,66838.00,67046.80,66150.00,66406.10,47764.715
1729684800000,66406.10,66921.70,65900.00,66201.60,61638.876
1729699200000,66201.70,66566.00,65222.30,66465.20,80361.232
1729713600000,66465.30,66806.20,66300.00,66647.20,21574.343
1729728000000,66647.30,67615.30,66482.00,67192.70,37890.497
1729742400000,67192.70,67457.00,67050.00,67104.40,17146.619
1729756800000,67104.50,67327.20,66700.00,67276.30,28291.929
1729771200000,67276.30,68000.00,67243.30,67672.70,58248.604
1729785600000,67672.70,68296.00,67329.20,68279.70,35683.920
1729800000000,68279.70,68842.50,67890.00,68173.80,35079.153
1729814400000,68173.80,68256.50,67800.00,67983.10,21316.585
1729828800000,67983.20,68019.30,67222.40,67503.60,30679.870
1729843200000,67503.60,68158.00,67289.50,68081.60,29234.239
1729857600000,68081.60,68748.00,67397.10,67660.60,69478.441
1729872000000,67660.60,67895.50,65950.30,66825.80,130344.496
1729886400000,66825.70,67376.90,65557.20,66662.80,67458.240
1729900800000,66662.70,67016.10,66414.10,66885.70,27492.406
1729915200000,66885.80,67211.20,66730.10,66982.00,14541.648
1729929600000,66982.00,67250.00,66939.50,67110.10,11608.638
1729944000000,67110.20,67156.00,66708.00,66864.20,18967.953
1729958400000,66864.30,67160.00,66760.50,67154.50,10647.402
1729972800000,67154.40,67450.00,67056.50,67071.80,10911.945
1729987200000,67071.90,67297.20,66909.40,67261.80,8720.051
1730001600000,67261.90,67291.80,67081.60,67174.70,5970.870
1730016000000,67174.70,67246.00,67011.10,67101.10,7730.454
1730030400000,67101.00,67835.10,67095.00,67759.90,26035.205
1730044800000,67759.90,67994.20,67513.00,67816.80,16831.536
1730059200000,67816.80,68306.10,67600.00,67992.60,23180.692
1730073600000,67992.70,68094.60,67651.00,67698.10,17259.456
1730088000000,67698.10,68666.00,67584.20,68395.20,31198.170
1730102400000,68395.30,68820.90,68207.40,68731.10,31556.121
1730116800000,68731.10,69272.10,68390.60,68459.10,73534.015
1730131200000,68459.10,69902.40,68424.00,69566.10,71038.675
1730145600000,69650.00,70331.00,69480.30,69940.00,31542.185
1730160000000,69939.90,71607.00,69733.00,70927.50,70969.906
1730174400000,70927.40,71343.90,70803.00,71004.20,27074.597
1730188800000,71004.10,71580.00,70960.00,71440.10,27038.505
1730203200000,71440.00,72490.00,70900.00,72374.90,101844.283
1730217600000,72374.90,73660.00,72328.60,72528.60,111067.510
1730232000000,72534.60,72999.00,71871.10,72739.50,44507.259
1730246400000,72739.50,72797.40,72018.00,72249.90,28141.259
1730260800000,72249.90,72628.50,72112.60,72244.80,18203.431
1730275200000,72244.80,72620.00,71931.10,71995.00,28224.538
1730289600000,71994.90,72484.50,71444.20,72058.80,69872.822
1730304000000,72058.80,72207.10,71655.00,71826.10,25715.669
1730318400000,71826.00,72984.90,71631.60,72349.00,56951.089
1730332800000,72349.00,72598.50,72030.50,72359.90,19966.004
1730347200000,72360.00,72488.90,72144.80,72417.80,12421.816
1730361600000,72417.80,72720.30,72150.00,72213.30,25593.011
1730376000000,72213.40,72270.00,70453.10,70638.70,108897.549
1730390400000,70638.60,70922.40,70050.00,70128.10,54149.039
1730404800000,70128.00,70669.70,69705.00,70321.90,35457.909
1730419200000,70321.90,70500.00,68870.40,69397.70,61743.169
1730433600000,69397.70,69721.80,69100.90,69301.00,21979.496
1730448000000,69301.00,70248.60,69270.00,70024.80,33299.189
1730462400000,70024.70,71650.00,69036.00,69381.00,132614.932
1730476800000,69381.10,70543.30,68822.50,69278.60,82079.073
1730491200000,69278.60,69634.90,68856.30,69495.50,20875.229
1730505600000,69495.40,69913.10,69480.80,69599.90,13396.546
1730520000000,69599.90,69822.50,69450.00,69813.10,9480.066
1730534400000,69813.00,69846.20,69413.00,69602.50,9919.876
1730548800000,69602.60,69700.00,69022.80,69394.00,25701.195
1730563200000,69393.90,69610.90,69221.60,69502.60,11944.529
1730577600000,69502.50,69570.00,69150.10,69366.60,8871.893
1730592000000,69366.60,69393.70,67846.00,68367.50,53265.097
1730606400000,68367.60,68772.80,68287.60,68395.60,20698.181
1730620800000,68395.50,68605.50,68183.80,68345.40,17859.381
1730635200000,68345.40,68549.70,67446.60,68076.00,57554.991
1730649600000,68075.60,68691.40,67660.00,68670.00,43218.091
1730664000000,68670.00,69348.00,68483.10,68762.50,33881.635
1730678400000,68762.50,69495.30,68220.00,69034.00,31791.122
1730692800000,69034.00,69397.20,68600.90,68601.00,21320.158
1730707200000,68601.00,69029.80,68456.30,68778.00,25361.648
1730721600000,68778.10,69243.80,68173.30,68614.70,47079.052
1730736000000,68614.80,68808.60,67205.00,67845.70,66818.212
1730750400000,67845.60,68093.00,66810.00,67834.30,52541.974
1730764800000,67834.40,68264.30,67454.20,68226.30,26196.710
1730779200000,68226.20,68967.00,68200.00,68876.00,24619.450
1730793600000,68875.90,69100.00,68588.20,68788.40,24112.300
1730808000000,68788.50,70300.00,68642.10,69615.30,85206.886
1730822400000,69615.20,70537.40,68650.00,68955.90,72195.636
1730836800000,68955.90,69875.10,68786.40,69353.10,40739.888
1730851200000,69353.10,75656.10,69272.70,74367.10,220262.621
1730865600000,74367.10,75486.40,73112.00,73435.90,150835.366
1730880000000,73435.80,74488.10,72721.50,74291.60,80333.054
1730894400000,74291.70,74801.10,73500.00,74289.60,98258.389
1730908800000,74289.70,75896.50,74134.50,75817.90,72281.048
1730923200000,75817.90,76420.00,75500.00,75579.90,55469.808
1730937600000,75579.90,76072.50,75000.00,75062.90,42389.268
1730952000000,75062.80,75083.00,74450.00,74800.00,33140.462
1730966400000,74800.00,75195.00,74719.30,74776.90,22641.139
1730980800000,74776.90,76094.60,74508.00,76081.60,53654.903
1730995200000,76081.50,76750.40,75577.80,76533.30,85759.805
1731009600000,76533.20,76900.00,75471.10,75859.40,43089.456
1731024000000,75859.40,76350.20,75576.30,75900.40,26499.940
1731038400000,75900.40,76247.00,75696.10,76171.00,20162.471
1731052800000,76171.00,76350.00,75775.80,75951.90,23054.513
1731067200000,75952.00,76627.80,75620.10,76423.30,58380.345
1731081600000,76423.30,77182.90,75820.00,76894.40,72505.490
1731096000000,76894.40,77080.40,76278.50,76482.20,29767.565
1731110400000,76482.20,76618.30,76122.40,76330.00,15792.551
1731124800000,76330.10,76800.00,76285.70,76523.90,18270.772
1731139200000,76523.90,76735.00,76358.80,76478.60,12472.435
1731153600000,76478.60,76552.10,76255.00,76305.70,15353.180
1731168000000,76305.60,76700.00,75683.20,76195.20,35282.838
1731182400000,76195.20,76920.00,76158.80,76675.10,20582.258
1731196800000,76675.10,77543.10,76501.10,77204.00,45047.568
1731211200000,77204.00,79882.80,77133.30,78858.20,112080.688
1731225600000,78858.20,80178.00,78858.10,79926.70,48780.387
1731240000000,79926.70,80200.00,79200.00,79735.10,54489.793
1731254400000,79735.10,81199.00,79386.00,79793.40,75109.372
1731268800000,79793.40,81699.80,78549.20,80410.00,81919.091
1731283200000,80409.90,81944.60,80261.20,81662.40,47331.713
1731297600000,81662.30,81783.50,80467.00,81147.90,38159.913
1731312000000,81147.80,82431.40,81051.60,82168.70,52573.957
1731326400000,82168.70,84359.70,81467.50,84114.20,143031.996
1731340800000,84114.10,86971.00,83897.20,86181.00,158908.501
1731355200000,86180.90,89800.00,86123.10,88728.90,174135.582
1731369600000,88729.00,89589.20,86657.40,88145.10,112158.288
1731384000000,88145.00,90070.10,87769.00,89095.40,82836.942
1731398400000,89095.50,89590.20,85500.00,87229.50,152590.451
1731412800000,87229.50,87933.30,85159.90,86659.90,131106.429
1731427200000,86660.00,89830.00,85792.50,88762.80,98262.570
1731441600000,88762.90,89920.00,87384.60,87972.00,62526.904
1731456000000,87972.00,88619.00,87061.60,87198.20,50628.657
1731470400000,87198.30,87755.00,86180.00,87402.90,52550.607
1731484800000,87402.90,88154.30,87132.40,87710.70,32402.081
1731499200000,87710.70,92808.00,87551.00,92608.10,179178.401
1731513600000,92608.00,93421.10,90005.80,90218.80,144613.188
1731528000000,90218.80,91233.00,88005.10,90413.30,95915.363
1731542400000,90413.30,90642.50,89531.70,89988.00,37865.206
1731556800000,89988.10,90900.00,89095.50,90818.90,35453.645
1731571200000,90818.90,91726.10,90370.00,91536.70,58116.522
1731585600000,91536.80,91846.10,87855.00,88000.00,106437.305
1731600000000,87999.90,89763.90,87555.00,89502.70,59001.492
1731614400000,89502.60,89502.60,86714.00,87382.70,67747.510
1731628800000,87382.60,88544.50,87302.40,88253.10,33647.259
1731643200000,88253.20,88450.00,87111.00,87693.90,30043.698
1731657600000,87693.90,89831.10,87418.40,89782.90,45281.393
1731672000000,89783.00,90780.00,87815.00,88485.40,100346.130
1731686400000,88485.50,90898.00,88428.90,90418.40,60358.503
1731700800000,90418.50,91921.50,90371.10,91074.60,44754.925
1731715200000,91074.60,91745.00,90900.00,91286.80,22409.140
1731729600000,91286.90,91849.80,91107.40,91173.30,15216.836
1731744000000,91173.30,91650.10,91050.00,91240.10,16860.827
1731758400000,91240.10,91384.40,90120.00,90578.00,37507.082
1731772800000,90577.90,91443.50,90250.00,91176.90,22394.018
1731787200000,91176.90,91253.70,90350.30,90643.30,14635.544
1731801600000,90643.20,90954.90,89400.10,90294.90,31001.004
1731816000000,90294.90,90949.90,90194.20,90600.00,19011.425
1731830400000,90600.00,91539.60,90523.30,90743.40,25814.112
1731844800000,90743.30,91250.00,89935.70,90305.10,32101.076
1731859200000,90305.20,90701.00,89713.70,90099.50,25084.894
1731873600000,90099.60,90276.30,88736.10,89899.90,34492.281
1731888000000,89900.00,91000.00,89666.90,90728.60,22915.771
1731902400000,90728.60,92414.90,90502.10,91795.90,38769.822
1731916800000,91795.90,92338.90,90077.70,90338.70,44082.727
1731931200000,90338.70,92700.00,89422.10,92407.80,95658.795
1731945600000,92407.80,92675.90,89706.20,90657.80,78011.620
1731960000000,90657.70,92084.70,90280.00,90507.40,54118.375
1731974400000,90507.40,91634.20,90405.60,91499.90,24546.623
1731988800000,91500.00,92123.70,91292.50,91696.00,23000.398
1732003200000,91696.10,92029.20,91250.00,91717.60,24939.284
1732017600000,91717.60,92885.00,91015.60,92453.30,96334.675
1732032000000,92455.50,93985.90,92105.90,93271.40,79233.610
1732046400000,93271.60,93633.10,91334.40,92335.90,55477.441
1732060800000,92335.90,92459.20,91500.00,92072.10,26421.429
1732075200000,92072.00,92866.60,91882.40,92856.60,21131.099
1732089600000,92856.60,93712.50,92730.20,93485.10,40106.881
1732104000000,93485.20,94849.00,93328.60,94737.60,96267.382
1732118400000,94737.60,94840.00,93093.30,93999.90,78303.055
1732132800000,93999.90,94626.80,93750.30,94288.00,27814.381
1732147200000,94288.00,95991.40,94008.70,95790.20,61140.448
1732161600000,95790.10,97899.90,95790.10,96950.00,83899.747
1732176000000,96950.00,98438.90,96757.60,98014.00,54909.632
1732190400000,98014.00,98289.30,95625.00,96684.00,103958.368
1732204800000,96684.10,99100.00,96311.00,97891.50,76195.107
1732219200000,97891.50,98767.00,97531.70,98366.80,38279.834
1732233600000,98366.80,99414.00,97860.10,98888.90,38616.603
1732248000000,98888.90,99537.60,98550.00,99252.60,32825.662
1732262400000,99252.60,99340.00,98300.00,98929.90,33443.457
1732276800000,98930.00,99019.20,97199.90,98696.50,77364.746
1732291200000,98696.60,99660.00,98264.20,99112.60,54528.558
1732305600000,99112.60,99500.00,98508.10,98921.40,28995.041
1732320000000,98921.50,98937.30,98309.90,98702.60,17253.830
1732334400000,98702.60,98842.80,98314.40,98600.60,14055.072
1732348800000,98600.50,98666.00,98355.00,98470.80,11785.190
1732363200000,98470.80,98916.80,98412.80,98426.00,19215.669
1732377600000,98426.10,98504.40,97368.00,97562.40,40309.275
1732392000000,97562.50,98088.40,97173.50,97725.50,17739.386
1732406400000,97725.60,98666.00,97670.90,98260.80,17187.628
1732420800000,98260.90,98490.80,97947.40,98490.10,12556.249
1732435200000,98490.10,98578.90,97286.00,97337.60,20554.068
1732449600000,97337.60,97680.00,95976.00,95986.40,60350.265
1732464000000,95986.30,96846.40,95822.10,96396.80,32601.995
1732478400000,96396.80,98429.70,96265.10,97960.40,29868.635
1732492800000,97960.50,98106.90,96929.90,97935.90,22932.841
1732507200000,97935.80,98421.60,97600.00,98112.90,20355.410
1732521600000,98113.00,98999.00,97911.10,98268.00,32738.055
1732536000000,98268.10,98390.00,94665.40,96040.40,112741.637
1732550400000,96040.40,96562.70,94467.40,94723.60,64872.212
1732564800000,94723.70,95366.80,92666.00,93064.00,75734.866
1732579200000,93064.00,94981.80,92800.10,94537.80,39545.582
1732593600000,94537.70,95064.00,93533.90,93842.10,24648.316
1732608000000,93842.10,93846.10,91553.00,92420.00,90231.256
1732622400000,92420.00,93639.50,91809.90,92877.40,73826.177
1732636800000,92877.40,94745.20,91650.60,91760.00,67285.049
1732651200000,91760.00,92443.20,90866.40,92021.40,49392.853
1732665600000,92021.50,93133.00,91864.00,92645.30,30203.735
1732680000000,92645.20,93721.80,92413.20,93651.30,23144.634
1732694400000,93651.30,93939.00,93167.20,93423.80,21517.494
1732708800000,93423.80,95908.00,92903.40,95610.50,67850.746
1732723200000,95610.40,96687.40,95238.70,96670.00,54604.299
1732737600000,96670.10,97250.00,95776.60,95905.20,39685.079
1732752000000,95905.20,96627.60,94878.20,95523.10,30725.546
1732766400000,95523.10,95985.10,95135.80,95371.60,21039.487
1732780800000,95371.50,95862.00,94700.10,95509.90,28019.076
1732795200000,95509.90,96284.00,94950.00,95067.30,35794.858
1732809600000,95067.30,95521.50,94863.80,95196.30,18747.366
1732824000000,95196.40,96082.70,94768.00,95694.40,19680.693
1732838400000,95694.40,96932.90,95404.50,96646.40,24959.608
1732852800000,96646.50,96684.40,95669.40,95690.20,19223.755
1732867200000,95690.20,97437.10,95690.10,97302.20,30200.689
1732881600000,97302.20,98713.30,96822.00,98076.20,60395.647
1732896000000,98076.30,98514.90,96903.20,97380.00,41569.331
1732910400000,97380.00,97687.40,97036.90,97516.30,14171.919
1732924800000,97516.20,97522.10,96400.00,96708.10,23965.592
1732939200000,96708.10,97300.00,96599.80,96843.30,19485.822
1732953600000,96843.30,97047.20,96150.00,96321.30,16897.440
1732968000000,96321.30,96800.00,96300.00,96707.40,11979.631
1732982400000,96707.40,97128.40,96581.90,97072.50,10495.275
1732996800000,97072.60,97109.10,96380.00,96475.10,10250.458
1733011200000,96475.20,96746.30,95736.50,96404.00,26132.180
1733025600000,96404.00,96585.00,96249.10,96525.40,9153.515
1733040000000,96525.40,97250.00,96480.00,97163.70,21533.374
1733054400000,97163.70,97481.30,96705.30,97081.40,20941.010
1733068800000,97081.50,97632.80,97029.50,97242.00,15616.016
1733083200000,97242.10,97933.00,96852.70,97265.10,19846.895
1733097600000,97265.00,98266.00,96402.50,96549.80,29835.063
1733112000000,96549.90,97000.00,95788.40,96053.60,39372.545
1733126400000,96053.50,96177.90,94887.00,95191.30,43471.871
1733140800000,95191.40,97286.20,94826.00,97106.50,60495.623
1733155200000,97106.60,97435.00,94400.00,95873.90,63080.969
1733169600000,95873.90,96389.90,95171.50,95890.50,21357.840
1733184000000,95890.60,96375.00,95463.60,96136.80,18629.132
1733198400000,96136.80,96324.90,95336.30,95608.80,17487.710
1733212800000,95608.80,95739.80,94661.30,95045.80,25645.596
1733227200000,95045.90,96315.50,93605.00,95743.70,85647.457
1733241600000,95744.70,96236.30,94925.80,95512.70,38288.732
1733256000000,95512.60,96200.00,95337.20,95913.30,20903.353
1733270400000,95913.30,96740.00,95271.60,95852.00,27822.359
1733284800000,95852.10,96799.90,95783.50,96652.10,18405.832
1733299200000,96652.20,97041.10,96239.70,96270.00,20925.907
1733313600000,96270.10,96634.60,95398.10,95813.00,54479.082
1733328000000,95813.00,97310.30,94650.80,97283.40,67941.454
1733342400000,97283.40,99099.90,97189.30,98669.80,86374.571
1733356800000,98669.80,104630.40,97970.50,103084.80,155798.412
1733371200000,103084.70,103696.70,101359.80,102292.10,69178.653
1733385600000,102292.10,103228.90,102290.30,102668.20,31253.697
1733400000000,102668.20,103661.70,100932.60,101350.10,82540.521
1733414400000,101350.10,102063.80,98704.60,99111.60,78445.371
1733428800000,99111.50,99542.90,90200.00,97001.50,163060.737
1733443200000,97001.60,98858.60,96429.50,97802.70,54871.518
1733457600000,97802.70,98356.60,97422.80,98209.60,23490.730
1733472000000,98209.70,98765.40,97705.20,98127.40,34097.618
1733486400000,98127.40,99592.10,97550.00,99358.50,67051.277
1733500800000,99358.50,101900.00,98800.00,101532.60,67789.279
1733515200000,101532.60,101988.80,99111.00,99802.50,35069.186
1733529600000,99802.50,100499.00,99361.00,99383.00,19615.533
1733544000000,99383.00,99741.00,98876.90,99442.60,21001.060
1733558400000,99442.60,99895.30,99314.80,99660.40,12084.542
1733572800000,99660.30,99890.00,99101.70,99811.40,15668.723
1733587200000,99811.50,100336.80,99528.00,100140.60,15477.404
1733601600000,100140.70,100497.50,99655.00,99899.20,12011.396
1733616000000,99899.20,100415.00,99686.40,99996.70,10362.305
1733630400000,99996.70,100100.00,99388.50,99741.50,11720.725
1733644800000,99741.60,99898.00,98709.40,99755.30,24081.257
1733659200000,99755.20,100597.50,99409.30,99975.00,29860.114
1733673600000,99974.90,100272.20,99538.40,100182.30,14904.590
1733688000000,100182.40,101457.90,99800.00,101200.00,18826.685
1733702400000,101200.10,101300.00,98500.10,99180.00,41149.178
1733716800000,99179.90,99798.10,98374.30,99637.10,29272.885
1733731200000,99637.20,99757.50,98112.00,98157.40,37959.165
1733745600000,98157.50,100481.30,97555.00,97856.00,78567.275
1733760000000,97856.10,98448.50,97029.50,97126.80,42609.820
1733774400000,97126.80,97627.30,94039.70,97349.10,97415.267
1733788800000,97349.10,98197.80,95591.90,96958.00,47046.703
1733803200000,96957.90,97540.80,95923.80,97217.70,28323.888
1733817600000,97217.70,97948.00,96961.10,97745.80,20244.349
1733832000000,97745.70,98320.60,95639.50,95687.90,69046.590
1733846400000,95674.80,96566.80,94265.50,95862.90,98509.952
1733860800000,95862.90,97238.90,95621.10,96602.40,28319.262
1733875200000,96602.30,97643.00,95650.00,97406.80,37997.227
1733889600000,97406.90,97800.00,97185.70,97337.90,14407.389
1733904000000,97337.90,98499.90,97310.60,98289.70,24609.143
1733918400000,98289.70,100798.60,98047.50,100352.70,66071.763
1733932800000,100352.70,101136.60,99583.40,101094.10,50125.706
1733947200000,101094.20,101880.00,100844.60,101115.30,28596.477
1733961600000,101115.30,101812.30,100309.80,101000.00,27234.965
1733976000000,101000.00,101162.10,100359.60,100481.60,17652.590
1733990400000,100481.50,101122.40,100150.00,100339.80,20809.100
1734004800000,100339.80,101850.00,100336.30,101775.10,56891.436
1734019200000,101775.10,102538.40,99280.20,99455.10,64519.390
1734033600000,99455.10,100461.50,99428.60,99982.40,28111.594
1734048000000,99982.30,100333.00,99149.60,99690.60,21321.108
1734062400000,99690.60,100215.00,99446.40,100100.00,15814.867
1734076800000,100099.90,100770.00,99863.50,100331.30,17660.896
1734091200000,100331.30,101339.00,99653.60,99831.00,38171.736
1734105600000,99831.00,101869.50,99750.00,101416.00,45302.268
1734120000000,101416.10,101822.40,101028.70,101371.90,14166.443
1734134400000,101371.90,102638.00,101106.10,102040.70,30294.884
1734148800000,102040.70,102113.60,101557.80,101787.00,12566.304
1734163200000,101787.00,101840.20,101298.40,101562.70,9813.394
1734177600000,101562.60,101729.20,100777.00,101601.90,26386.649
1734192000000,101601.90,101716.30,100806.00,101293.00,17681.995
1734206400000,101293.10,101450.00,100559.80,101381.00,10937.323
1734220800000,101381.00,102165.40,101200.10,101700.10,15592.176
1734235200000,101700.00,102900.00,101460.80,101671.90,27541.411
1734249600000,101671.80,102666.00,101525.20,102623.10,15406.991
1734264000000,102623.00,103362.30,102438.00,102668.50,31971.916
1734278400000,102668.50,103498.90,102556.30,103227.70,18789.402
1734292800000,103227.80,105374.60,102592.40,104460.40,48432.020
1734307200000,104460.50,106665.80,104245.20,104560.00,62637.778
1734321600000,104560.00,105390.00,104439.30,104949.90,18270.625
1734336000000,104950.00,104991.70,103585.20,103717.80,24163.793
1734350400000,103717.90,106466.90,103264.60,106281.20,72852.537
1734364800000,106281.10,107777.00,105769.00,106546.00,71322.401
1734379200000,106546.10,106618.20,105424.00,106023.20,25148.622
1734393600000,106023.20,106980.00,105623.00,106824.40,21309.575
1734408000000,106824.40,107113.90,106331.60,106784.00,16950.593
1734422400000,106784.00,107493.90,106671.70,106777.20,21219.982
1734436800000,106777.10,108366.80,105674.00,106429.90,71086.715
1734451200000,106429.90,107596.00,106104.60,106450.50,40303.166
1734465600000,106450.40,106877.30,105252.00,106074.60,26903.881
1734480000000,106074.60,106484.60,104527.60,104716.80,36652.409
1734494400000,104716.80,104716.90,103065.60,104200.10,46474.659
1734508800000,104200.10,104993.70,103683.90,104978.60,21989.201
1734523200000,104978.60,105343.80,103611.70,104395.10,45761.763
1734537600000,104395.20,104959.40,102777.10,102782.10,60569.290
1734552000000,102781.80,102954.80,99951.10,100181.10,117134.613
1734566400000,100181.20,101305.10,98744.00,101163.30,68598.754
1734580800000,101163.40,101694.90,100613.20,101615.20,19507.702
1734595200000,101615.10,102600.00,101338.80,102419.90,23149.224
1734609600000,102420.00,102756.70,99455.00,100631.10,75610.020
1734624000000,100631.10,101162.50,96233.70,97172.10,121737.036
1734638400000,97172.20,98391.40,95681.20,97434.40,64365.727
1734652800000,97434.30,97795.50,95946.90,97083.20,42560.281
1734667200000,97083.20,98243.00,96350.10,97826.10,44423.807
1734681600000,97826.10,97867.50,92613.70,92715.10,108658.870
1734696000000,92715.10,97555.00,92272.60,96961.30,115205.819
1734710400000,96961.40,97721.00,96254.00,97079.60,53735.933
1734724800000,97079.60,97777.00,95393.80,97764.40,31604.085
1734739200000,97764.50,97773.10,97142.00,97444.90,16567.071
1734753600000,97444.90,99485.00,97330.00,98988.10,32678.501
1734768000000,98988.00,99137.50,97757.80,98225.30,25724.796
1734782400000,98225.40,98253.50,96375.00,97486.50,42516.701
1734796800000,97486.60,97695.00,96800.00,97242.20,22571.885
1734811200000,97242.30,98084.90,96520.00,97261.80,21199.526
1734825600000,97261.70,97437.90,96532.00,96965.10,16009.718
1734840000000,96965.10,97057.00,95867.30,96192.10,22249.568
1734854400000,96192.10,97322.10,96172.10,97054.80,16254.938
1734868800000,97054.70,97266.60,95085.00,95341.00,35517.211
1734883200000,95341.00,96426.70,94642.40,94795.40,27681.696
1734897600000,94795.40,95787.70,94200.00,95153.50,30401.604
1734912000000,95153.40,96019.80,93655.30,95989.90,43781.728
1734926400000,95989.80,96488.80,94639.50,95360.50,28583.122
1734940800000,95360.50,96499.00,94974.20,95899.40,21634.571
1734955200000,95899.40,96377.20,93060.30,93217.60,63342.199
1734969600000,93217.70,94249.30,92634.70,92997.70,49457.666
1734984000000,92997.70,95480.40,92464.40,94861.10,40412.569
1734998400000,94861.00,94861.10,93525.60,94330.10,24731.379
1735012800000,94330.10,94638.60,93774.40,94200.00,14943.809
1735027200000,94199.90,94618.00,93800.00,94369.00,14932.806
1735041600000,94368.30,98274.90,94039.80,98243.50,66173.325
1735056000000,98243.50,99450.00,97522.50,97558.50,60647.937
1735070400000,97558.40,99074.80,97226.20,98627.20,30181.376
1735084800000,98626.90,98848.40,97681.30,98000.00,16945.268
1735099200000,98000.10,98539.50,97807.50,98049.70,11793.716
1735113600000,98049.80,99323.30,97709.90,97889.30,28204.972
1735128000000,97888.40,98797.90,97570.00,98493.30,27000.386
1735142400000,98493.30,99258.00,98100.00,98981.30,16271.137
1735156800000,98981.30,99580.70,98331.50,99379.70,24481.413
1735171200000,99379.60,99950.00,98400.10,98957.70,30003.867
1735185600000,98957.70,98957.70,97647.20,97669.60,20353.109
1735200000000,97669.50,97721.80,95153.00,95662.70,61946.222
1735214400000,95662.60,96227.40,95200.10,95993.50,37273.370
1735228800000,95993.10,96580.00,95400.00,96064.80,28521.113
1735243200000,96064.80,96079.90,95276.40,95751.00,16759.970
1735257600000,95750.90,96419.00,95350.10,96377.80,24193.173
1735272000000,96377.80,96580.00,94620.00,95074.40,33137.794
1735286400000,95080.10,97564.50,95080.10,96900.30,47936.629
1735300800000,96900.30,96999.00,93982.40,94539.90,46582.934
1735315200000,94539.90,94979.90,93440.00,94720.30,38793.661
1735329600000,94720.20,94794.00,94094.00,94258.90,15364.052
1735344000000,94258.90,94687.60,94100.00,94550.60,9504.565
1735358400000,94550.60,94762.30,94256.90,94334.70,7504.281
1735372800000,94334.60,94850.00,94261.70,94711.30,8716.735
1735387200000,94711.30,95346.10,94320.00,94407.70,20174.431
