timestamp,open,high,low,close,volume
1764241200000,91613.52000000,91619.36000000,91307.69000000,91371.88000000,326.30294000
1764244800000,91371.87000000,91457.36000000,90950.00000000,90986.56000000,641.34239000
1764248400000,90986.56000000,91075.99000000,90438.43000000,90852.78000000,1344.11260000
1764252000000,90852.79000000,90978.49000000,90579.77000000,90789.68000000,539.81726000
1764255600000,90789.68000000,90988.00000000,90629.98000000,90958.30000000,396.23776000
1764259200000,90958.29000000,91562.00000000,90850.77000000,91467.13000000,778.41704000
1764262800000,91467.12000000,91635.79000000,91299.06000000,91479.30000000,704.33875000
1764266400000,91479.30000000,91843.59000000,91347.21000000,91791.99000000,433.08181000
1764270000000,91791.99000000,91791.99000000,91506.94000000,91528.21000000,363.77786000
1764273600000,91528.22000000,91596.76000000,91400.00000000,91433.17000000,259.27901000
1764277200000,91433.18000000,91600.00000000,91217.17000000,91416.99000000,272.08151000
1764280800000,91416.99000000,91590.00000000,91114.52000000,91317.65000000,289.90354000
1764284400000,91317.66000000,91566.00000000,91213.79000000,91333.95000000,269.52758000
1764288000000,91333.94000000,91417.99000000,91072.30000000,91207.34000000,405.71832000
1764291600000,91207.34000000,91209.82000000,90800.30000000,90804.56000000,495.69936000
1764295200000,90804.56000000,91135.69000000,90652.55000000,91083.08000000,665.69948000
1764298800000,91083.08000000,91306.63000000,91000.88000000,91208.85000000,362.93677000
1764302400000,91208.85000000,91486.29000000,91130.00000000,91424.02000000,286.91882000
1764306000000,91424.02000000,91707.79000000,91304.28000000,91612.09000000,444.39646000
1764309600000,91612.09000000,91612.09000000,91156.24000000,91300.69000000,441.82209000
1764313200000,91300.69000000,91568.98000000,90867.43000000,90910.87000000,700.78640000
1764316800000,90910.87000000,91717.00000000,90907.98000000,91690.00000000,899.46359000
1764320400000,91689.99000000,91850.00000000,91439.34000000,91599.99000000,578.77610000
1764324000000,91600.00000000,91874.86000000,91480.28000000,91850.49000000,786.48217000
1764327600000,91850.49000000,92030.00000000,91065.13000000,91437.64000000,910.59811000
1764331200000,91437.64000000,91692.30000000,91405.69000000,91513.40000000,360.31623000
1764334800000,91513.40000000,92635.00000000,91380.94000000,92377.01000000,1231.35483000
1764338400000,92377.00000000,93092.00000000,91818.35000000,92250.01000000,2337.42844000
1764342000000,92250.00000000,92796.00000000,91976.59000000,92362.49000000,1117.51350000
1764345600000,92362.50000000,92376.00000000,90880.00000000,90936.23000000,1386.76661000
1764349200000,90936.24000000,91208.43000000,90180.63000000,90663.98000000,3368.69380000
1764352800000,90661.57000000,90958.57000000,90421.88000000,90830.57000000,663.11655000
1764356400000,90830.57000000,91202.55000000,90821.60000000,91157.44000000,360.61967000
1764360000000,91157.44000000,91225.45000000,90867.89000000,91201.10000000,310.35586000
1764363600000,91201.09000000,91247.16000000,90888.00000000,90888.01000000,223.95974000
1764367200000,90888.01000000,91159.89000000,90705.57000000,91122.00000000,276.05655000
1764370800000,91122.00000000,91195.68000000,90890.70000000,90890.70000000,215.38067000
1764374400000,90890.71000000,90968.00000000,90768.13000000,90884.01000000,186.84042000
1764378000000,90884.01000000,91119.99000000,90797.36000000,90881.20000000,189.90490000
1764381600000,90881.20000000,90926.90000000,90546.36000000,90798.89000000,360.30420000
1764385200000,90798.90000000,90874.03000000,90661.12000000,90680.26000000,203.76865000
1764388800000,90680.26000000,90911.36000000,90551.12000000,90901.56000000,194.82906000
1764392400000,90901.55000000,90931.56000000,90733.22000000,90747.16000000,201.02788000
1764396000000,90747.16000000,90832.57000000,90311.92000000,90565.29000000,551.99620000
1764399600000,90565.30000000,90666.00000000,90375.01000000,90567.67000000,281.69639000
1764403200000,90567.66000000,90738.17000000,90477.44000000,90629.67000000,209.42959000
1764406800000,90629.67000000,90665.37000000,90500.00000000,90560.08000000,255.33197000
1764410400000,90560.08000000,90647.98000000,90376.37000000,90552.47000000,287.88192000
1764414000000,90552.47000000,90682.33000000,90458.17000000,90673.19000000,204.80457000
1764417600000,90673.20000000,90810.45000000,90530.93000000,90616.01000000,253.50149000
1764421200000,90616.01000000,90805.99000000,90591.35000000,90783.17000000,243.41960000
1764424800000,90783.16000000,90783.17000000,90610.41000000,90621.72000000,231.55273000
1764428400000,90621.73000000,91110.36000000,90621.72000000,91063.50000000,419.55316000
1764432000000,91063.50000000,91165.65000000,90862.22000000,91004.03000000,256.29667000
1764435600000,91004.03000000,91019.00000000,90421.21000000,90421.21000000,800.09236000
1764439200000,90421.21000000,90719.16000000,90155.47000000,90690.84000000,837.40131000
1764442800000,90690.85000000,90850.83000000,90600.10000000,90640.78000000,298.72853000
1764446400000,90640.77000000,91035.27000000,90400.21000000,90963.29000000,336.13338000
1764450000000,90963.29000000,91051.87000000,90814.02000000,91008.68000000,179.69384000
1764453600000,91008.68000000,91008.69000000,90700.65000000,90753.02000000,311.96344000
1764457200000,90753.03000000,90896.97000000,90690.23000000,90802.44000000,133.73065000
1764460800000,90802.44000000,90945.59000000,90765.12000000,90893.94000000,127.74315000
1764464400000,90893.94000000,91055.50000000,90863.05000000,90913.31000000,246.89699000
1764468000000,90913.30000000,91032.18000000,90749.90000000,90795.51000000,321.82107000
1764471600000,90795.52000000,90917.96000000,90471.00000000,90909.35000000,418.70941000
1764475200000,90909.35000000,90970.36000000,90799.91000000,90858.00000000,98.98576000
1764478800000,90857.99000000,90857.99000000,90670.40000000,90783.75000000,146.33614000
1764482400000,90783.76000000,90937.50000000,90717.51000000,90898.68000000,134.34933000
1764486000000,90898.69000000,91037.72000000,90860.01000000,90968.16000000,170.24658000
1764489600000,90968.16000000,91438.99000000,90927.16000000,91184.45000000,999.62290000
1764493200000,91184.45000000,91632.00000000,91138.65000000,91413.07000000,857.09997000
1764496800000,91413.07000000,91467.36000000,91200.00000000,91234.31000000,215.61141000
1764500400000,91234.31000000,91397.33000000,90998.34000000,91048.78000000,443.35776000
1764504000000,91048.79000000,91535.10000000,91009.00000000,91469.51000000,391.37581000
1764507600000,91469.51000000,92000.01000000,91398.69000000,91769.99000000,1268.05794000
1764511200000,91770.00000000,91779.94000000,91256.88000000,91499.99000000,479.45512000
1764514800000,91499.98000000,91612.83000000,91326.59000000,91435.31000000,490.26099000
1764518400000,91435.31000000,91850.00000000,91406.97000000,91825.18000000,328.17239000
1764522000000,91825.18000000,91825.18000000,91313.26000000,91488.19000000,322.55187000
1764525600000,91488.20000000,91488.20000000,91159.42000000,91459.90000000,239.73146000
1764529200000,91459.91000000,91500.00000000,91298.40000000,91460.79000000,158.56074000
1764532800000,91460.79000000,91626.75000000,91178.00000000,91315.60000000,260.58782000
1764536400000,91315.59000000,91332.18000000,90888.48000000,91174.22000000,497.10764000
1764540000000,91174.23000000,91351.61000000,91049.22000000,91225.28000000,263.92188000
1764543600000,91225.28000000,91256.36000000,90336.90000000,90360.00000000,807.17762000
1764547200000,90360.01000000,90417.00000000,86959.99000000,87000.00000000,4607.45526000
1764550800000,87000.00000000,87749.99000000,86941.40000000,87168.91000000,1588.04096000
1764554400000,87168.90000000,87500.00000000,86474.34000000,86722.29000000,2052.19788000
1764558000000,86722.30000000,86800.00000000,86161.61000000,86346.13000000,2001.96556000
1764561600000,86346.13000000,86350.01000000,85695.44000000,85801.03000000,1863.01351000
1764565200000,85801.03000000,86006.85000000,85604.00000000,86001.08000000,749.36259000
1764568800000,86001.08000000,86357.43000000,85974.66000000,86234.16000000,931.60740000
1764572400000,86234.17000000,86578.06000000,86049.90000000,86550.30000000,1393.18357000
1764576000000,86550.30000000,86890.77000000,86390.25000000,86869.51000000,948.06769000
1764579600000,86869.50000000,86938.01000000,86518.18000000,86704.86000000,866.92667000
1764583200000,86704.85000000,86814.00000000,86552.00000000,86647.73000000,366.02338000
1764586800000,86647.73000000,86699.99000000,86131.01000000,86149.15000000,824.75013000
1764590400000,86146.59000000,86231.52000000,84756.00000000,85430.64000000,2098.18769000
1764594000000,85430.64000000,86166.43000000,85350.00000000,85986.85000000,1097.45554000
1764597600000,85986.85000000,86674.00000000,85868.00000000,86067.90000000,1654.56841000
1764601200000,86067.90000000,86137.17000000,83822.76000000,84677.87000000,3274.16077000
1764604800000,84677.87000000,85463.12000000,84030.95000000,84571.80000000,2152.34019000
1764608400000,84571.80000000,85265.66000000,84442.75000000,84920.30000000,917.46569000
1764612000000,84925.01000000,85555.00000000,84723.83000000,85199.48000000,911.27586000
1764615600000,85199.48000000,85299.14000000,84603.97000000,85024.50000000,617.02121000
1764619200000,85024.50000000,85833.01000000,85007.69000000,85518.00000000,1007.05350000
1764622800000,85518.01000000,86507.30000000,85499.99000000,86436.65000000,1202.40704000
1764626400000,86436.64000000,86860.00000000,86300.00000000,86572.65000000,780.37442000
1764630000000,86572.65000000,86833.55000000,86249.80000000,86286.01000000,604.10735000
1764633600000,86286.01000000,86674.53000000,86184.39000000,86513.33000000,887.97566000
1764637200000,86513.33000000,87350.00000000,86394.00000000,86454.93000000,1192.01967000
1764640800000,86454.93000000,86857.79000000,86272.55000000,86554.47000000,522.02975000
1764644400000,86554.46000000,87106.62000000,86214.99000000,86976.99000000,643.79096000
1764648000000,86977.00000000,87288.48000000,86900.79000000,86970.28000000,689.46639000
1764651600000,86970.28000000,87125.36000000,86818.14000000,87008.20000000,320.12167000
1764655200000,87008.20000000,87179.22000000,86870.00000000,87090.46000000,385.60175000
1764658800000,87090.46000000,87117.18000000,86882.23000000,87012.65000000,338.04553000
1764662400000,87012.64000000,87058.41000000,86296.21000000,86471.89000000,1046.58604000
1764666000000,86471.88000000,86999.00000000,86450.60000000,86769.87000000,806.33465000
1764669600000,86769.88000000,87628.78000000,86760.01000000,87272.44000000,661.40198000
1764673200000,87272.44000000,87602.47000000,86985.51000000,87368.92000000,846.71300000
1764676800000,87368.92000000,87560.77000000,87208.68000000,87264.20000000,839.51657000
1764680400000,87264.20000000,87883.43000000,87032.75000000,87731.41000000,1559.34030000
1764684000000,87731.41000000,89275.54000000,87600.00000000,89271.99000000,2529.97385000
1764687600000,89271.99000000,91200.00000000,89263.06000000,90850.01000000,4371.66947000
1764691200000,90850.01000000,91296.72000000,90201.00000000,90759.15000000,2014.14601000
1764694800000,90759.15000000,91990.00000000,90736.05000000,91458.40000000,1594.71699000
1764698400000,91458.40000000,92237.15000000,91326.22000000,91954.49000000,1650.85803000
1764702000000,91954.49000000,92307.65000000,91850.00000000,91903.39000000,892.95903000
1764705600000,91903.38000000,91930.09000000,90720.87000000,91026.67000000,1812.81861000
1764709200000,91026.66000000,91631.49000000,90965.02000000,91562.43000000,750.79479000
1764712800000,91562.42000000,92000.00000000,91510.60000000,91981.91000000,1005.03850000
1764716400000,91981.91000000,91981.91000000,91269.38000000,91277.88000000,848.30812000
1764720000000,91277.88000000,91747.99000000,90990.23000000,91660.12000000,1282.57519000
1764723600000,91660.13000000,92482.02000000,91468.21000000,92251.63000000,1105.16296000
1764727200000,92251.64000000,93051.64000000,92158.00000000,92817.92000000,1322.86837000
1764730800000,92817.93000000,93087.09000000,92597.26000000,92628.91000000,714.46982000
1764734400000,92628.91000000,93482.87000000,92625.00000000,93362.21000000,1228.95814000
1764738000000,93362.21000000,93660.00000000,93116.02000000,93642.92000000,1042.55272000
1764741600000,93642.92000000,93958.58000000,93146.26000000,93431.80000000,1068.27612000
1764745200000,93431.81000000,93468.43000000,92871.03000000,92999.99000000,1206.67241000
1764748800000,93000.00000000,93173.93000000,92682.10000000,92765.65000000,908.28425000
1764752400000,92765.64000000,93217.52000000,92709.41000000,93178.46000000,651.04477000
1764756000000,93178.45000000,93389.62000000,92861.88000000,92939.40000000,644.12113000
1764759600000,92939.40000000,93054.93000000,92666.00000000,93005.68000000,566.65244000
1764763200000,93005.68000000,93112.10000000,92672.55000000,92937.39000000,609.37614000
1764766800000,92937.39000000,93258.53000000,92886.59000000,93130.88000000,653.22336000
1764770400000,93130.89000000,93700.00000000,91697.00000000,92357.54000000,3444.53920000
1764774000000,92357.54000000,92993.98000000,91922.21000000,92373.30000000,1816.10102000
1764777600000,92373.30000000,92739.09000000,91786.99000000,92242.24000000,1045.70106000
1764781200000,92242.24000000,93040.00000000,92199.72000000,92956.22000000,952.33734000
1764784800000,92956.22000000,93500.00000000,92383.05000000,92623.86000000,1065.25501000
1764788400000,92623.85000000,93099.47000000,92528.75000000,93024.99000000,561.39144000
1764792000000,93025.00000000,93400.00000000,92825.56000000,92980.43000000,993.99987000
1764795600000,92981.45000000,93769.23000000,92860.00000000,93700.00000000,961.39093000
1764799200000,93700.01000000,94150.00000000,93301.87000000,93781.01000000,1201.71927000
1764802800000,93781.01000000,94091.71000000,93377.58000000,93429.95000000,665.85289000
1764806400000,93429.95000000,93480.00000000,92669.82000000,93054.86000000,1095.83853000
1764810000000,93054.87000000,93750.73000000,92981.35000000,93195.07000000,1304.15700000
1764813600000,93195.07000000,94070.70000000,93117.80000000,93943.24000000,944.67997000
1764817200000,93943.24000000,94080.00000000,93402.38000000,93543.04000000,500.02470000
1764820800000,93543.03000000,93588.48000000,93231.56000000,93360.58000000,388.95379000
1764824400000,93360.58000000,93380.39000000,92775.00000000,92979.25000000,931.22487000
1764828000000,92979.25000000,93371.12000000,92824.32000000,93140.74000000,1076.30029000
1764831600000,93140.75000000,93413.39000000,92888.00000000,93397.67000000,674.02891000
1764835200000,93397.67000000,93600.00000000,93044.41000000,93260.63000000,411.88207000
1764838800000,93260.64000000,93621.31000000,93235.50000000,93454.70000000,402.88554000
1764842400000,93454.71000000,93553.69000000,93156.42000000,93260.00000000,373.45816000
1764846000000,93260.00000000,93318.17000000,92736.90000000,92948.31000000,728.79798000
1764849600000,92948.32000000,93200.00000000,92782.48000000,92990.18000000,474.71729000
1764853200000,92990.18000000,93060.63000000,92424.00000000,92516.38000000,997.53962000
1764856800000,92516.38000000,92821.26000000,91801.00000000,91894.01000000,1176.07323000
1764860400000,91894.00000000,93257.00000000,91886.55000000,92971.49000000,1647.82775000
1764864000000,92971.49000000,93174.55000000,92268.76000000,92431.72000000,1073.45255000
1764867600000,92431.71000000,92536.00000000,91756.57000000,92426.76000000,1204.88261000
1764871200000,92426.77000000,92550.86000000,91890.32000000,92127.52000000,605.69240000
1764874800000,92127.53000000,92174.91000000,90889.00000000,91975.44000000,1976.68364000
1764878400000,91975.43000000,92532.42000000,91688.92000000,92476.25000000,812.83088000
1764882000000,92476.25000000,92718.53000000,92086.00000000,92158.23000000,581.65983000
1764885600000,92158.24000000,92497.25000000,92151.79000000,92348.78000000,231.66801000
1764889200000,92348.78000000,92461.03000000,92076.66000000,92078.06000000,188.68097000
1764892800000,92078.06000000,92474.00000000,92058.82000000,92299.08000000,300.89002000
1764896400000,92299.09000000,92600.00000000,92227.44000000,92358.03000000,512.17408000
1764900000000,92358.03000000,92692.36000000,92252.66000000,92518.40000000,403.18655000
1764903600000,92518.40000000,92665.56000000,91959.92000000,92142.75000000,535.04122000
1764907200000,92142.75000000,92386.31000000,91813.37000000,92028.14000000,507.97714000
1764910800000,92028.15000000,92204.69000000,91880.13000000,91932.85000000,239.31127000
1764914400000,91932.85000000,92286.77000000,91905.83000000,92275.26000000,277.29503000
1764918000000,92275.27000000,92497.51000000,92203.34000000,92258.65000000,362.60812000
1764921600000,92258.64000000,92258.65000000,91892.86000000,92112.04000000,447.11606000
1764925200000,92112.04000000,92112.04000000,90956.25000000,91128.56000000,1077.36085000
1764928800000,91128.55000000,91488.00000000,91083.87000000,91272.85000000,493.57021000
1764932400000,91272.85000000,91563.70000000,91128.40000000,91351.43000000,413.65104000
1764936000000,91351.44000000,91432.69000000,91081.57000000,91242.40000000,357.37789000
1764939600000,91242.40000000,91352.56000000,90215.51000000,90465.14000000,1524.52886000
1764943200000,90465.14000000,90744.24000000,89874.70000000,90287.67000000,1551.13670000
1764946800000,90287.67000000,91478.67000000,90258.24000000,90459.35000000,1911.11908000
1764950400000,90459.34000000,90498.59000000,88056.00000000,88810.89000000,3451.73023000
1764954000000,88810.88000000,89540.71000000,88607.25000000,89336.13000000,1157.12551000
1764957600000,89335.53000000,89795.59000000,88908.53000000,88936.04000000,857.04766000
1764961200000,88936.04000000,89800.00000000,88814.88000000,89629.26000000,1041.63454000
1764964800000,89629.27000000,89745.37000000,89181.91000000,89301.75000000,1024.68482000
1764968400000,89301.75000000,89484.00000000,89075.91000000,89177.68000000,695.18131000
1764972000000,89177.68000000,89376.03000000,88901.60000000,89232.47000000,401.94285000
1764975600000,89232.48000000,89383.46000000,88940.20000000,89330.04000000,249.28114000
1764979200000,89330.04000000,89466.34000000,89030.67000000,89422.25000000,286.14614000
1764982800000,89422.25000000,89500.00000000,89205.03000000,89333.83000000,226.80640000
1764986400000,89333.84000000,89404.00000000,89175.00000000,89390.90000000,233.24940000
1764990000000,89390.90000000,89806.43000000,89390.90000000,89688.35000000,784.83107000
1764993600000,89688.35000000,89721.76000000,89521.12000000,89659.01000000,185.11807000
1764997200000,89659.00000000,89740.00000000,89524.03000000,89604.98000000,147.31042000
1765000800000,89604.97000000,89764.19000000,89527.26000000,89688.65000000,140.21424000
1765004400000,89688.65000000,89720.00000000,89459.19000000,89597.13000000,296.88077000
1765008000000,89597.14000000,89647.12000000,89217.59000000,89277.14000000,423.86292000
1765011600000,89277.14000000,89669.13000000,89264.74000000,89574.12000000,336.18462000
1765015200000,89574.12000000,89687.86000000,89462.00000000,89506.00000000,175.95561000
1765018800000,89506.01000000,89750.01000000,89500.00000000,89631.28000000,568.70187000
1765022400000,89631.29000000,89648.96000000,89566.00000000,89581.19000000,256.02717000
1765026000000,89581.19000000,89788.56000000,89581.19000000,89673.73000000,252.86068000
1765029600000,89673.73000000,90289.97000000,89659.00000000,90004.76000000,1068.00125000
1765033200000,90004.76000000,90042.54000000,89490.98000000,89758.77000000,475.19156000
1765036800000,89758.77000000,89981.20000000,89680.34000000,89707.80000000,304.47551000
1765040400000,89707.80000000,89846.98000000,89615.38000000,89712.85000000,310.78613000
1765044000000,89712.85000000,89787.99000000,89529.90000000,89646.71000000,180.17034000
1765047600000,89646.70000000,89744.62000000,89077.60000000,89405.64000000,688.16416000
1765051200000,89405.65000000,89553.82000000,89311.99000000,89548.88000000,135.59159000
1765054800000,89548.88000000,89615.34000000,89390.01000000,89420.28000000,217.83026000
1765058400000,89420.29000000,89523.37000000,89257.48000000,89285.94000000,165.36534000
1765062000000,89285.93000000,89329.38000000,88908.01000000,89236.79000000,549.77464000
1765065600000,89236.80000000,89553.82000000,89176.52000000,89392.39000000,248.83948000
1765069200000,89392.39000000,89588.23000000,89300.00000000,89300.00000000,132.20570000
1765072800000,89300.00000000,89695.65000000,89300.00000000,89621.96000000,175.80697000
1765076400000,89621.95000000,89749.59000000,89553.81000000,89722.37000000,155.63502000
1765080000000,89722.37000000,89799.96000000,89487.41000000,89535.95000000,280.51949000
1765083600000,89535.94000000,89564.55000000,89427.00000000,89515.01000000,130.12741000
1765087200000,89515.01000000,89710.00000000,89488.28000000,89709.99000000,107.62861000
1765090800000,89710.00000000,89733.33000000,89200.00000000,89379.72000000,220.78651000
1765094400000,89379.73000000,89538.70000000,89190.97000000,89316.61000000,173.05781000
1765098000000,89316.61000000,89395.65000000,89050.01000000,89104.23000000,229.27162000
1765101600000,89104.23000000,89388.00000000,89103.97000000,89240.18000000,200.63018000
1765105200000,89240.18000000,89277.59000000,89141.87000000,89149.18000000,183.64055000
1765108800000,89149.18000000,89585.12000000,89111.40000000,89475.90000000,246.12366000
1765112400000,89475.90000000,89519.10000000,88652.00000000,89053.74000000,519.89031000
1765116000000,89053.74000000,89106.00000000,87719.28000000,88220.53000000,1908.61044000
1765119600000,88220.53000000,89707.54000000,88169.08000000,89554.52000000,1242.29675000
1765123200000,89554.52000000,89908.17000000,89115.85000000,89893.38000000,675.40594000
1765126800000,89893.39000000,91271.77000000,89624.00000000,90945.17000000,1918.39408000
1765130400000,90945.18000000,91760.00000000,90945.17000000,91363.78000000,996.37071000
1765134000000,91363.79000000,91545.95000000,91213.37000000,91425.52000000,248.14000000
1765137600000,91425.51000000,91510.40000000,91308.82000000,91439.04000000,186.94503000
1765141200000,91439.05000000,91439.05000000,89871.00000000,90231.32000000,807.41124000
1765144800000,90231.31000000,90241.80000000,88995.33000000,89597.03000000,1508.70162000
1765148400000,89597.03000000,90471.66000000,89522.08000000,90395.31000000,524.67272000
1765152000000,90395.32000000,90627.11000000,89860.00000000,90346.70000000,491.62319000
1765155600000,90346.70000000,91700.00000000,90301.86000000,90910.70000000,968.78312000
1765159200000,90910.70000000,91436.94000000,90811.25000000,91364.18000000,597.40749000
1765162800000,91364.18000000,91420.00000000,90988.91000000,91068.29000000,395.79035000
1765166400000,91068.30000000,91470.58000000,91023.06000000,91291.33000000,255.62144000
1765170000000,91291.33000000,91444.00000000,91037.43000000,91334.03000000,299.94508000
1765173600000,91334.04000000,91649.87000000,91241.27000000,91464.54000000,485.82587000
1765177200000,91464.54000000,91868.76000000,91360.00000000,91565.46000000,551.09583000
1765180800000,91565.46000000,91938.67000000,91486.46000000,91833.90000000,393.73282000
1765184400000,91833.89000000,92287.15000000,91792.38000000,91912.02000000,790.37467000
1765188000000,91912.02000000,92222.00000000,91808.09000000,92133.40000000,425.18961000
1765191600000,92133.39000000,92188.31000000,91851.08000000,91968.29000000,343.75755000
1765195200000,91968.29000000,91992.30000000,91653.94000000,91768.96000000,573.34646000
1765198800000,91768.97000000,92122.08000000,91301.45000000,91467.82000000,804.38449000
1765202400000,91467.83000000,91777.00000000,90790.00000000,90852.56000000,1807.88526000
1765206000000,90852.57000000,90998.95000000,89612.00000000,89961.37000000,2037.53824000
1765209600000,89961.36000000,90499.99000000,89679.79000000,89978.48000000,1042.18438000
1765213200000,89978.47000000,90339.36000000,89694.24000000,90257.98000000,645.64705000
1765216800000,90257.98000000,90527.30000000,89724.72000000,89921.68000000,559.47994000
1765220400000,89921.68000000,90366.39000000,89860.07000000,90124.48000000,342.53116000
1765224000000,90124.49000000,90917.23000000,90124.49000000,90799.92000000,565.06678000
1765227600000,90799.92000000,91374.00000000,90675.00000000,91316.01000000,579.83297000
1765231200000,91316.00000000,91373.69000000,90726.40000000,90833.86000000,391.90576000
1765234800000,90833.85000000,91026.52000000,90490.76000000,90634.34000000,444.68936000
1765238400000,90634.35000000,90846.26000000,90355.00000000,90396.73000000,288.37623000
1765242000000,90396.72000000,90569.98000000,89966.00000000,90055.80000000,537.66391000
1765245600000,90055.80000000,90368.00000000,89979.21000000,90068.20000000,312.17000000
1765249200000,90068.21000000,90442.77000000,89795.84000000,90405.01000000,1217.20174000
1765252800000,90405.02000000,90500.00000000,89737.47000000,89917.53000000,488.51951000
1765256400000,89917.52000000,90209.96000000,89500.00000000,89899.35000000,650.65388000
1765260000000,89899.35000000,90232.76000000,89775.67000000,90166.84000000,321.30432000
1765263600000,90166.85000000,90528.67000000,90091.56000000,90496.80000000,407.14103000
1765267200000,90496.80000000,90600.00000000,90366.35000000,90498.72000000,400.27808000
1765270800000,90498.72000000,90498.72000000,90129.21000000,90131.59000000,285.35023000
1765274400000,90131.60000000,90345.39000000,89912.48000000,90298.45000000,489.74956000
1765278000000,90298.44000000,90396.01000000,90140.02000000,90384.55000000,387.10655000
1765281600000,90384.54000000,90690.35000000,90331.00000000,90580.00000000,401.62507000
1765285200000,90580.01000000,90850.00000000,90174.66000000,90431.03000000,643.67225000
1765288800000,90431.02000000,90644.02000000,90004.73000000,90357.59000000,710.07225000
1765292400000,90357.60000000,92876.92000000,90288.10000000,92707.51000000,3162.30439000
1765296000000,92707.50000000,94488.64000000,92693.50000000,94187.81000000,4040.15610000
1765299600000,94187.81000000,94588.99000000,93538.93000000,93917.99000000,1823.80002000
1765303200000,93918.00000000,94178.31000000,93661.45000000,93920.48000000,704.49653000
1765306800000,93920.48000000,94225.00000000,93651.68000000,93800.83000000,735.99959000
1765310400000,93800.83000000,93857.47000000,92767.71000000,93116.76000000,1097.12749000
1765314000000,93116.76000000,93243.12000000,92254.92000000,92640.00000000,879.12299000
1765317600000,92640.01000000,93045.89000000,92506.67000000,92884.00000000,731.02631000
1765321200000,92884.00000000,92977.98000000,92550.00000000,92678.80000000,525.51211000
1765324800000,92678.81000000,92786.35000000,92061.00000000,92130.81000000,598.49502000
1765328400000,92130.82000000,92400.00000000,91976.00000000,92316.36000000,529.89686000
1765332000000,92316.35000000,92570.54000000,92027.89000000,92495.68000000,611.21334000
1765335600000,92495.89000000,92553.23000000,92348.66000000,92410.62000000,257.39408000
1765339200000,92410.62000000,92659.99000000,92386.83000000,92552.62000000,310.96334000
1765342800000,92552.63000000,92725.00000000,92517.53000000,92556.28000000,373.62942000
1765346400000,92556.28000000,92757.58000000,92396.24000000,92700.00000000,314.97149000
1765350000000,92700.01000000,92782.92000000,92500.00000000,92782.91000000,364.28563000
1765353600000,92782.91000000,92790.00000000,92549.81000000,92605.00000000,321.85602000
1765357200000,92604.99000000,92972.07000000,92439.40000000,92920.01000000,472.03746000
1765360800000,92920.00000000,93291.50000000,92135.09000000,92272.66000000,859.47741000
1765364400000,92272.66000000,92438.98000000,91763.69000000,92120.45000000,969.68906000
1765368000000,92120.45000000,92216.55000000,91815.35000000,91987.22000000,467.90168000
1765371600000,91987.22000000,92226.00000000,91939.42000000,92093.66000000,432.08812000
1765375200000,92093.65000000,92112.57000000,91600.81000000,91831.24000000,883.60779000
1765378800000,91831.24000000,92149.06000000,91563.15000000,92063.69000000,739.55204000
1765382400000,92063.69000000,92595.11000000,91899.10000000,92174.11000000,785.95701000
1765386000000,92174.11000000,92515.82000000,92102.44000000,92396.23000000,598.06235000
1765389600000,92396.23000000,93056.00000000,92000.00000000,92503.48000000,870.70118000
1765393200000,92503.49000000,93243.59000000,91684.39000000,92957.67000000,3165.76426000
1765396800000,92957.67000000,94476.00000000,92259.25000000,92453.89000000,3153.97141000
1765400400000,92453.89000000,92777.34000000,91878.00000000,92356.38000000,1001.00392000
1765404000000,92356.39000000,92695.31000000,91954.54000000,92509.94000000,585.06287000
1765407600000,92509.94000000,92593.96000000,91942.56000000,92015.37000000,331.09907000
1765411200000,92015.38000000,92080.32000000,91051.00000000,91386.17000000,916.87916000
1765414800000,91386.17000000,91407.04000000,90658.24000000,90674.74000000,818.48242000
1765418400000,90674.75000000,90674.75000000,89876.81000000,90074.00000000,1250.21688000
1765422000000,90073.99000000,90074.01000000,89389.63000000,89880.01000000,1095.56844000
1765425600000,89880.00000000,90480.14000000,89694.81000000,90436.55000000,943.40562000
1765429200000,90436.55000000,90436.56000000,90048.20000000,90316.72000000,404.63689000
1765432800000,90316.72000000,90450.97000000,89975.89000000,90301.35000000,525.01502000
1765436400000,90301.35000000,90333.49000000,90088.00000000,90272.75000000,372.27346000
1765440000000,90272.76000000,90272.76000000,89971.11000000,90183.71000000,511.95493000
1765443600000,90183.71000000,90504.19000000,90123.01000000,90234.19000000,439.70575000
1765447200000,90234.19000000,90352.59000000,90172.61000000,90320.15000000,273.39760000
1765450800000,90320.15000000,90417.30000000,90210.44000000,90242.35000000,278.90060000
1765454400000,90242.36000000,90377.63000000,90006.01000000,90032.31000000,428.00948000
1765458000000,90032.31000000,90169.26000000,89870.00000000,90103.53000000,567.79082000
1765461600000,90103.53000000,90482.01000000,89260.63000000,89545.24000000,1363.14038000
1765465200000,89545.23000000,90653.33000000,89406.79000000,89872.51000000,1182.11834000
1765468800000,89872.51000000,90178.04000000,89333.00000000,89737.11000000,842.22519000
1765472400000,89737.11000000,90260.00000000,89627.74000000,89983.23000000,670.94481000
1765476000000,89983.23000000,91197.70000000,89891.87000000,90710.50000000,1286.99073000
1765479600000,90710.50000000,91538.26000000,90592.14000000,90839.81000000,843.83016000
1765483200000,90839.81000000,91831.20000000,90797.76000000,91792.99000000,787.89331000
1765486800000,91792.98000000,93555.00000000,91706.06000000,92858.39000000,2439.34782000
1765490400000,92858.40000000,93195.84000000,92068.90000000,92352.00000000,976.14915000
1765494000000,92352.00000000,92800.00000000,92337.91000000,92513.38000000,753.71062000
1765497600000,92513.38000000,92651.93000000,91448.31000000,91573.88000000,787.76417000
1765501200000,91573.88000000,92314.69000000,91532.16000000,92170.00000000,490.58557000
1765504800000,92170.00000000,92748.98000000,91927.27000000,92588.79000000,586.94037000
1765508400000,92588.79000000,92754.00000000,92178.37000000,92283.40000000,299.42318000
1765512000000,92283.40000000,92462.02000000,92114.99000000,92396.69000000,511.34339000
1765515600000,92396.69000000,92500.00000000,92078.91000000,92444.42000000,312.09266000
1765519200000,92444.41000000,92720.00000000,92400.00000000,92513.34000000,346.60354000
1765522800000,92513.34000000,92565.83000000,92257.80000000,92425.34000000,324.16244000
1765526400000,92425.33000000,92487.25000000,92044.80000000,92342.39000000,626.20872000
1765530000000,92342.38000000,92553.33000000,92094.00000000,92520.56000000,361.00119000
1765533600000,92520.56000000,92650.01000000,92408.33000000,92492.32000000,429.06609000
1765537200000,92492.32000000,92492.33000000,92275.86000000,92418.19000000,207.72939000
1765540800000,92418.19000000,92420.00000000,92070.55000000,92419.99000000,537.64944000
1765544400000,92420.00000000,92531.38000000,92240.14000000,92302.79000000,478.10614000
1765548000000,92302.79000000,92660.74000000,91903.34000000,92444.00000000,1038.44620000
1765551600000,92444.00000000,92445.94000000,89780.00000000,89935.14000000,3505.93103000
1765555200000,89935.13000000,90441.17000000,89480.00000000,90046.54000000,2093.36319000
1765558800000,90046.53000000,90623.72000000,89826.75000000,90083.09000000,1168.98586000
1765562400000,90083.09000000,90666.00000000,90044.93000000,90372.00000000,894.36594000
1765566000000,90372.00000000,90399.99000000,90017.05000000,90198.22000000,502.61326000
1765569600000,90198.23000000,90334.77000000,89898.61000000,90214.08000000,503.97114000
1765573200000,90214.08000000,90345.94000000,90100.00000000,90193.94000000,320.83820000
1765576800000,90193.94000000,90395.53000000,90184.92000000,90335.92000000,184.26184000
1765580400000,90335.93000000,90404.13000000,90233.16000000,90268.42000000,167.73874000
1765584000000,90268.43000000,90444.28000000,90207.20000000,90323.01000000,184.81820000
1765587600000,90323.01000000,90359.32000000,90120.00000000,90229.91000000,171.54055000
1765591200000,90229.92000000,90318.00000000,90221.98000000,90232.77000000,158.12998000
1765594800000,90232.77000000,90469.71000000,90205.52000000,90345.54000000,134.27456000
1765598400000,90345.55000000,90410.50000000,90268.91000000,90371.81000000,120.09938000
1765602000000,90371.81000000,90387.51000000,90269.00000000,90342.91000000,103.66062000
1765605600000,90342.92000000,90380.00000000,90270.65000000,90351.45000000,106.97274000
1765609200000,90351.45000000,90400.00000000,90318.56000000,90329.97000000,120.80251000
1765612800000,90329.98000000,90575.28000000,90318.67000000,90458.19000000,326.23501000
1765616400000,90458.20000000,90513.53000000,90387.99000000,90422.57000000,164.09529000
1765620000000,90422.57000000,90634.55000000,90418.49000000,90595.13000000,395.80418000
1765623600000,90595.14000000,90612.32000000,90290.00000000,90330.36000000,639.73871000
1765627200000,90330.36000000,90470.30000000,90276.13000000,90341.05000000,491.58704000
1765630800000,90341.05000000,90450.00000000,90194.34000000,90245.87000000,344.68696000
1765634400000,90245.88000000,90331.74000000,89932.99000000,90079.70000000,600.45706000
1765638000000,90079.71000000,90289.60000000,90031.38000000,90092.16000000,470.25787000
1765641600000,90092.17000000,90268.13000000,90025.65000000,90087.28000000,226.25798000
1765645200000,90087.28000000,90102.08000000,89981.00000000,90052.61000000,193.07435000
1765648800000,90052.61000000,90184.34000000,90047.40000000,90119.89000000,145.63725000
1765652400000,90119.90000000,90224.80000000,90109.62000000,90178.16000000,110.26780000
1765656000000,90178.17000000,90209.56000000,90037.57000000,90088.31000000,107.22878000
1765659600000,90088.31000000,90184.59000000,89766.39000000,90175.97000000,284.30101000
1765663200000,90175.97000000,90250.00000000,89997.14000000,90140.10000000,154.46161000
1765666800000,90140.10000000,90280.76000000,90051.02000000,90240.01000000,141.31844000
1765670400000,90240.00000000,90472.40000000,90117.05000000,90340.00000000,291.19891000
1765674000000,90340.00000000,90442.00000000,90208.00000000,90293.29000000,137.11035000
1765677600000,90293.29000000,90384.00000000,90240.01000000,90290.17000000,156.14118000
1765681200000,90290.18000000,90303.08000000,90245.60000000,90258.98000000,126.49087000
1765684800000,90258.99000000,90329.24000000,90127.99000000,90201.50000000,114.76912000
1765688400000,90201.50000000,90228.66000000,90050.74000000,90199.06000000,171.78190000
1765692000000,90199.06000000,90245.34000000,90092.86000000,90145.26000000,269.90290000
1765695600000,90145.27000000,90279.42000000,90072.97000000,90245.60000000,133.38192000
1765699200000,90245.60000000,90280.01000000,90108.27000000,90108.28000000,116.07960000
1765702800000,90108.28000000,90151.02000000,90001.10000000,90020.06000000,187.97686000
1765706400000,90020.07000000,90136.22000000,89785.00000000,89853.69000000,322.19368000
1765710000000,89853.69000000,89853.70000000,88687.27000000,89360.00000000,1409.87783000
1765713600000,89360.01000000,89666.00000000,89101.00000000,89431.65000000,410.39848000
1765717200000,89431.66000000,89500.00000000,89088.00000000,89489.50000000,410.01233000
1765720800000,89489.51000000,89556.83000000,88884.26000000,89118.04000000,568.79065000
1765724400000,89118.04000000,89176.69000000,88882.66000000,89022.91000000,340.50491000
1765728000000,89022.92000000,89398.71000000,88531.34000000,88836.98000000,723.59164000
1765731600000,88836.99000000,89032.39000000,88606.73000000,88810.67000000,407.92480000
1765735200000,88810.67000000,89073.18000000,88722.19000000,88997.28000000,248.72689000
1765738800000,88997.27000000,88997.28000000,88497.02000000,88644.88000000,304.96489000
1765742400000,88644.88000000,88827.71000000,88356.90000000,88558.97000000,585.18797000
1765746000000,88558.97000000,88714.66000000,88345.94000000,88443.85000000,309.77088000
1765749600000,88443.85000000,88605.06000000,88017.00000000,88415.29000000,614.71972000
1765753200000,88415.29000000,88609.22000000,87577.36000000,88172.17000000,1055.44176000
1765756800000,88172.16000000,88692.30000000,88074.37000000,88465.90000000,626.14158000
1765760400000,88465.90000000,89338.01000000,88428.07000000,89242.32000000,767.16149000
1765764000000,89242.33000000,90052.64000000,89235.72000000,89321.85000000,985.65880000
1765767600000,89321.85000000,89543.88000000,89225.91000000,89282.60000000,320.69878000
1765771200000,89282.60000000,89786.89000000,89272.88000000,89667.64000000,408.51835000
1765774800000,89667.64000000,89749.47000000,89492.00000000,89615.24000000,221.82498000
1765778400000,89615.25000000,89918.48000000,89476.98000000,89735.88000000,262.41654000
1765782000000,89735.89000000,89824.47000000,89516.00000000,89753.42000000,424.17802000
1765785600000,89753.43000000,89900.00000000,89655.52000000,89770.01000000,250.02319000
1765789200000,89770.00000000,89986.68000000,89770.00000000,89865.12000000,310.45690000
1765792800000,89865.13000000,89981.64000000,89717.34000000,89858.95000000,470.70514000
1765796400000,89858.96000000,89900.00000000,89572.05000000,89641.28000000,493.20463000
1765800000000,89641.28000000,89762.56000000,89431.52000000,89695.75000000,392.24774000
1765803600000,89695.76000000,89736.90000000,89274.44000000,89432.00000000,415.38225000
1765807200000,89432.01000000,89876.42000000,87840.00000000,88050.01000000,1787.73645000
1765810800000,88050.00000000,88184.28000000,86621.91000000,87033.22000000,3292.66278000
1765814400000,87033.21000000,87220.00000000,86062.67000000,86400.01000000,1613.22350000
1765818000000,86400.00000000,86496.89000000,85599.99000000,85762.87000000,1557.38170000
1765821600000,85762.86000000,86272.23000000,85146.64000000,86185.39000000,1482.06005000
1765825200000,86185.40000000,86560.40000000,85880.00000000,86149.96000000,1136.56389000
1765828800000,86149.96000000,86199.63000000,85610.88000000,85787.04000000,692.94245000
1765832400000,85787.04000000,86307.36000000,85530.01000000,86243.78000000,691.57648000
1765836000000,86243.77000000,86259.32000000,85827.98000000,86259.31000000,440.84932000
1765839600000,86259.32000000,86472.70000000,86103.67000000,86432.08000000,735.07689000
1765843200000,86432.08000000,86535.22000000,85836.60000000,85865.48000000,556.05003000
1765846800000,85865.49000000,86169.62000000,85651.92000000,85891.02000000,527.35929000
1765850400000,85891.02000000,86227.99000000,85800.00000000,85944.01000000,492.40216000
1765854000000,85944.01000000,86019.76000000,85386.00000000,85875.92000000,697.04602000
1765857600000,85875.91000000,85925.77000000,85266.00000000,85838.51000000,611.35109000
1765861200000,85838.50000000,86200.00000000,85812.61000000,86028.11000000,355.99172000
1765864800000,86028.12000000,86611.69000000,86028.12000000,86508.00000000,522.68260000
1765868400000,86508.01000000,86615.38000000,85850.00000000,86021.51000000,943.04227000
1765872000000,86021.51000000,86380.00000000,85930.97000000,86281.18000000,426.54563000
1765875600000,86281.17000000,86426.07000000,86201.10000000,86350.00000000,366.58293000
1765879200000,86350.00000000,87327.70000000,86275.06000000,86980.01000000,956.84103000
1765882800000,86980.01000000,87330.00000000,86820.00000000,87261.45000000,667.27630000
1765886400000,87261.46000000,87480.00000000,87077.41000000,87212.98000000,861.57452000
1765890000000,87212.98000000,87786.88000000,86410.01000000,86443.02000000,2144.73917000
1765893600000,86443.02000000,87763.92000000,86107.43000000,87297.99000000,1799.42456000
1765897200000,87298.00000000,88175.98000000,86839.35000000,87977.43000000,1924.39377000
1765900800000,87977.44000000,88050.17000000,87333.08000000,87588.26000000,1300.81662000
1765904400000,87588.26000000,87844.01000000,87093.79000000,87131.99000000,779.27901000
1765908000000,87132.00000000,88019.88000000,87061.23000000,87781.35000000,863.99314000
1765911600000,87781.35000000,87800.00000000,87294.11000000,87585.77000000,553.66943000
1765915200000,87585.76000000,87836.47000000,87343.75000000,87573.23000000,378.71665000
1765918800000,87573.22000000,87906.29000000,87496.05000000,87768.59000000,268.86536000
1765922400000,87768.60000000,87931.48000000,87636.37000000,87783.34000000,255.64480000
1765926000000,87783.35000000,87874.66000000,87602.34000000,87863.42000000,201.76207000
1765929600000,87863.43000000,87863.43000000,87426.06000000,87537.21000000,344.84512000
1765933200000,87537.22000000,87950.00000000,87489.12000000,87552.30000000,293.20917000
1765936800000,87552.30000000,87587.14000000,87188.37000000,87483.04000000,275.84035000
1765940400000,87483.04000000,87615.27000000,87150.01000000,87213.59000000,265.75670000
1765944000000,87213.60000000,87398.54000000,86721.86000000,86752.26000000,378.79516000
1765947600000,86752.27000000,86756.74000000,86209.11000000,86626.39000000,634.29318000
1765951200000,86626.40000000,87005.27000000,86587.82000000,86777.98000000,454.66393000
1765954800000,86777.98000000,87169.37000000,86593.55000000,87045.59000000,627.05868000
1765958400000,87045.59000000,87045.59000000,86326.80000000,86395.66000000,456.87442000
1765962000000,86395.67000000,86615.38000000,86262.85000000,86417.46000000,334.04163000
1765965600000,86417.45000000,86837.63000000,86238.91000000,86624.49000000,386.26358000
1765969200000,86624.50000000,87137.42000000,86565.23000000,86983.26000000,504.05307000
1765972800000,86983.26000000,87215.97000000,86828.00000000,87029.55000000,620.91109000
1765976400000,87029.56000000,87860.00000000,86817.27000000,87631.37000000,984.05009000
1765980000000,87631.37000000,89685.17000000,87161.39000000,89675.85000000,2426.70710000
1765983600000,89675.85000000,90365.85000000,87136.97000000,87233.44000000,4100.60903000
1765987200000,87233.44000000,87769.23000000,86166.66000000,86986.51000000,2213.28706000
1765990800000,86986.50000000,87103.44000000,86265.15000000,86427.12000000,812.72770000
1765994400000,86427.12000000,86850.64000000,85662.46000000,85829.22000000,910.41728000
1765998000000,85829.25000000,86195.38000000,85314.00000000,86018.53000000,1109.18442000
1766001600000,86018.53000000,86252.16000000,85644.09000000,85891.18000000,709.05939000
1766005200000,85890.36000000,86049.17000000,85700.00000000,85982.88000000,262.46393000
1766008800000,85982.88000000,86431.14000000,85888.20000000,86339.09000000,477.50595000
1766012400000,86339.10000000,86340.60000000,85950.00000000,86243.22000000,251.49926000
1766016000000,86243.23000000,86313.71000000,86056.56000000,86230.74000000,267.87743000
1766019600000,86230.74000000,86242.15000000,85863.93000000,86119.21000000,322.24363000
1766023200000,86119.27000000,86863.75000000,86011.20000000,86699.64000000,501.47272000
1766026800000,86699.64000000,86699.64000000,86270.59000000,86618.34000000,624.40718000
1766030400000,86618.35000000,86901.40000000,86607.34000000,86765.43000000,404.83110000
1766034000000,86765.44000000,86768.78000000,86384.61000000,86440.90000000,380.26204000
1766037600000,86440.90000000,86660.61000000,86411.62000000,86645.93000000,241.79517000
1766041200000,86645.93000000,86863.75000000,86593.07000000,86833.84000000,524.31368000
1766044800000,86833.83000000,87126.22000000,86685.14000000,86978.98000000,699.07640000
1766048400000,86978.98000000,87392.43000000,86803.06000000,87280.95000000,575.12681000
1766052000000,87280.95000000,87453.63000000,87213.27000000,87341.95000000,387.02725000
1766055600000,87342.00000000,87356.81000000,87067.26000000,87300.74000000,233.58665000
1766059200000,87300.50000000,87428.00000000,87109.76000000,87259.99000000,364.92164000
1766062800000,87259.99000000,89203.23000000,87259.99000000,88851.70000000,2595.36979000
1766066400000,88851.70000000,89477.61000000,87727.25000000,88345.20000000,2494.91228000
1766070000000,88345.19000000,89362.79000000,87966.24000000,88513.44000000,1859.88413000
1766073600000,88513.43000000,88533.61000000,87852.00000000,88014.00000000,962.80719000
1766077200000,88014.00000000,88022.63000000,85481.22000000,86483.56000000,2784.29449000
1766080800000,86483.56000000,86889.04000000,85720.00000000,85970.00000000,1482.84371000
1766084400000,85970.00000000,86010.00000000,84481.31000000,84483.79000000,4102.16356000
1766088000000,84483.80000000,85268.41000000,84450.01000000,84582.65000000,1888.57496000
1766091600000,84582.64000000,85835.90000000,84559.21000000,85630.95000000,999.89541000
1766095200000,85630.96000000,85750.85000000,85288.01000000,85582.88000000,409.43501000
1766098800000,85582.89000000,85619.99000000,85322.07000000,85516.41000000,298.29540000
1766102400000,85516.41000000,85604.88000000,85295.20000000,85604.88000000,318.70597000
1766106000000,85604.88000000,85604.88000000,85110.24000000,85320.43000000,357.58384000
1766109600000,85320.42000000,85929.06000000,85135.39000000,85643.44000000,554.49887000
1766113200000,85643.44000000,87568.99000000,85610.47000000,86891.39000000,2080.88033000
1766116800000,86891.39000000,87380.00000000,86846.15000000,87103.34000000,691.06624000
1766120400000,87103.34000000,87223.98000000,86647.51000000,87139.95000000,797.75888000
1766124000000,87139.95000000,87484.00000000,86907.80000000,87483.41000000,424.48329000
1766127600000,87483.41000000,88449.06000000,87473.53000000,87953.40000000,1800.28697000
1766131200000,87953.39000000,88222.00000000,87742.60000000,88102.78000000,559.50769000
1766134800000,88102.78000000,88165.27000000,87898.36000000,88105.03000000,362.43771000
1766138400000,88105.03000000,88341.29000000,87921.41000000,88267.09000000,527.07869000
1766142000000,88267.09000000,88385.06000000,88138.51000000,88198.70000000,348.79773000
1766145600000,88198.70000000,88280.06000000,87846.03000000,87855.92000000,788.49881000
1766149200000,87855.92000000,88220.41000000,87825.19000000,87997.14000000,815.39060000
1766152800000,87997.13000000,88552.17000000,87514.59000000,88180.01000000,1848.73686000
1766156400000,88180.00000000,89399.97000000,87692.77000000,87951.87000000,2536.09207000
1766160000000,87951.86000000,88882.55000000,87872.91000000,87983.25000000,1009.42568000
1766163600000,87983.24000000,88346.96000000,86873.14000000,86943.25000000,1787.60684000
1766167200000,86943.26000000,87466.09000000,86846.16000000,87155.44000000,656.70102000
1766170800000,87155.43000000,88125.67000000,87134.60000000,87845.92000000,1130.87692000
1766174400000,87845.92000000,88416.00000000,87614.79000000,88099.60000000,970.95933000
1766178000000,88099.59000000,88099.60000000,87800.00000000,87839.40000000,343.56863000
1766181600000,87839.39000000,88426.85000000,87839.39000000,88344.78000000,328.59939000
1766185200000,88344.77000000,88360.00000000,88133.85000000,88136.94000000,217.10768000
1766188800000,88136.95000000,88188.00000000,87961.60000000,88005.63000000,238.63486000
1766192400000,88005.63000000,88165.27000000,88005.62000000,88075.89000000,236.74301000
1766196000000,88075.89000000,88311.87000000,87988.67000000,88204.04000000,365.01084000
1766199600000,88204.03000000,88339.27000000,88176.45000000,88214.98000000,144.05844000
1766203200000,88214.98000000,88338.31000000,88123.07000000,88295.37000000,198.26731000
1766206800000,88295.38000000,88573.07000000,88275.19000000,88295.31000000,306.24924000
1766210400000,88295.31000000,88444.54000000,88275.92000000,88305.81000000,99.47233000
1766214000000,88305.81000000,88328.84000000,88189.67000000,88275.41000000,193.88304000
1766217600000,88275.41000000,88428.00000000,88257.21000000,88257.21000000,190.13912000
1766221200000,88257.21000000,88339.05000000,88220.61000000,88224.00000000,171.15417000
1766224800000,88224.00000000,88288.21000000,88129.27000000,88163.99000000,255.88825000
1766228400000,88163.99000000,88313.20000000,88107.35000000,88277.66000000,204.54149000
1766232000000,88277.66000000,88335.00000000,88195.51000000,88256.08000000,140.78522000
1766235600000,88256.07000000,88343.73000000,87795.76000000,88270.39000000,491.51954000
1766239200000,88270.39000000,88287.84000000,88012.00000000,88260.88000000,329.36375000
1766242800000,88260.89000000,88267.10000000,88025.96000000,88178.71000000,354.00686000
1766246400000,88178.72000000,88242.55000000,88133.65000000,88149.72000000,141.45563000
1766250000000,88149.72000000,88258.22000000,88103.54000000,88181.80000000,145.06220000
1766253600000,88181.80000000,88418.73000000,88151.97000000,88313.21000000,203.88068000
1766257200000,88313.22000000,88329.03000000,88201.14000000,88232.92000000,83.70640000
1766260800000,88232.92000000,88312.72000000,88211.17000000,88271.60000000,128.50977000
1766264400000,88271.60000000,88443.44000000,88184.96000000,88208.73000000,169.66114000
1766268000000,88208.74000000,88339.99000000,88154.06000000,88279.35000000,182.03760000
1766271600000,88279.34000000,88423.31000000,88252.78000000,88360.90000000,149.10105000
1766275200000,88360.91000000,88433.64000000,88306.00000000,88387.92000000,134.46825000
1766278800000,88387.93000000,88387.93000000,88011.83000000,88011.83000000,279.93502000
1766282400000,88011.84000000,88149.99000000,87869.35000000,87943.76000000,392.18461000
1766286000000,87943.76000000,88150.00000000,87934.48000000,88070.64000000,184.82899000
1766289600000,88070.64000000,88149.13000000,88050.00000000,88065.83000000,180.33962000
1766293200000,88065.83000000,88150.01000000,88054.05000000,88138.95000000,67.73322000
1766296800000,88138.95000000,88201.59000000,88068.36000000,88090.72000000,107.24070000
1766300400000,88090.73000000,88174.79000000,88054.61000000,88174.79000000,100.25965000
1766304000000,88174.79000000,88767.20000000,88141.87000000,88537.87000000,426.66802000
1766307600000,88537.88000000,89081.77000000,88500.30000000,88892.82000000,535.95501000
1766311200000,88892.82000000,88979.94000000,88580.52000000,88669.78000000,321.68195000
1766314800000,88669.78000000,88750.00000000,88588.11000000,88601.57000000,155.51107000
1766318400000,88601.57000000,88920.01000000,88463.78000000,88638.01000000,273.81982000
1766322000000,88638.01000000,88694.32000000,87600.04000000,87670.10000000,1029.34323000
1766325600000,87670.10000000,88148.34000000,87615.07000000,88065.18000000,535.83684000
1766329200000,88065.19000000,88272.34000000,87813.00000000,88067.95000000,367.50892000
1766332800000,88067.96000000,88369.00000000,87985.11000000,88359.18000000,434.13180000
1766336400000,88359.18000000,88494.97000000,88280.67000000,88324.14000000,292.57922000
1766340000000,88324.14000000,88451.84000000,87950.00000000,88445.09000000,223.91956000
1766343600000,88445.08000000,88600.00000000,88201.58000000,88484.01000000,289.83713000
1766347200000,88484.01000000,88500.00000000,88230.76000000,88230.96000000,127.78210000
1766350800000,88230.97000000,88368.83000000,88091.96000000,88162.86000000,151.57667000
1766354400000,88162.86000000,88494.99000000,88120.99000000,88483.63000000,176.80431000
1766358000000,88483.64000000,88823.52000000,88374.74000000,88658.86000000,342.92687000
1766361600000,88658.87000000,89627.24000000,88613.87000000,88622.40000000,1109.80548000
1766365200000,88622.40000000,89279.31000000,88516.00000000,88626.31000000,593.85875000
1766368800000,88626.31000000,88658.22000000,87900.00000000,88458.27000000,639.02818000
1766372400000,88458.27000000,88850.00000000,88283.40000000,88774.12000000,277.28751000
1766376000000,88774.13000000,89034.44000000,88712.11000000,88904.99000000,316.78715000
1766379600000,88905.00000000,89000.00000000,88762.43000000,88831.34000000,260.18369000
1766383200000,88831.34000000,89008.00000000,88730.07000000,88909.26000000,222.60970000
1766386800000,88909.26000000,89200.00000000,88891.63000000,89170.10000000,491.12288000
1766390400000,89170.10000000,89908.71000000,89093.44000000,89334.20000000,921.73946000
1766394000000,89334.21000000,89836.89000000,89301.00000000,89829.60000000,441.59532000
1766397600000,89829.60000000,89868.00000000,89615.38000000,89778.94000000,435.91534000
1766401200000,89778.95000000,90118.00000000,89656.38000000,89945.43000000,823.65187000
1766404800000,89945.43000000,90588.23000000,89866.00000000,90208.48000000,1081.30015000
1766408400000,90208.49000000,90319.98000000,89731.72000000,89912.37000000,614.87382000
1766412000000,89912.38000000,90293.28000000,89440.50000000,90126.43000000,1047.85448000
1766415600000,90126.44000000,90454.74000000,89196.42000000,89726.92000000,1198.69370000
1766419200000,89726.93000000,90127.00000000,89523.22000000,89550.00000000,654.12884000
1766422800000,89550.01000000,89579.81000000,89092.09000000,89308.92000000,588.68917000
1766426400000,89308.91000000,89523.23000000,89140.00000000,89150.04000000,385.95267000
1766430000000,89150.04000000,89150.04000000,87965.76000000,88052.43000000,980.77862000
1766433600000,88052.42000000,88486.12000000,87911.79000000,88351.03000000,544.44938000
1766437200000,88351.03000000,88619.13000000,88235.09000000,88275.06000000,405.03635000
1766440800000,88275.05000000,88833.33000000,88150.00000000,88660.07000000,389.08575000
1766444400000,88660.07000000,88700.00000000,88430.43000000,88620.79000000,248.79144000
1766448000000,88620.79000000,88940.00000000,88504.78000000,88770.47000000,270.13686000
1766451600000,88770.47000000,88889.76000000,88430.00000000,88513.71000000,241.89286000
1766455200000,88513.72000000,88755.24000000,88091.21000000,88206.80000000,579.81965000
1766458800000,88206.80000000,88355.56000000,87800.00000000,88170.00000000,413.85546000
1766462400000,88170.00000000,88368.10000000,87930.99000000,87930.99000000,308.91036000
1766466000000,87931.00000000,88025.71000000,87614.79000000,87765.01000000,482.98475000
1766469600000,87765.01000000,87780.00000000,87051.52000000,87400.01000000,787.33301000
1766473200000,87400.01000000,87698.82000000,87373.22000000,87574.79000000,417.20250000
1766476800000,87574.78000000,87699.99000000,87433.20000000,87477.15000000,347.82336000
1766480400000,87477.14000000,87630.76000000,87297.69000000,87531.85000000,429.48493000
1766484000000,87531.85000000,87659.90000000,87510.60000000,87615.93000000,241.30517000
1766487600000,87615.92000000,87890.00000000,87564.29000000,87856.65000000,413.76507000
1766491200000,87856.66000000,87963.03000000,87600.00000000,87789.18000000,403.03862000
1766494800000,87789.18000000,87902.00000000,87426.70000000,87616.67000000,558.41583000
1766498400000,87616.66000000,87829.20000000,86601.90000000,86874.00000000,1406.81005000
1766502000000,86873.99000000,87550.00000000,86720.00000000,87443.45000000,1039.72862000
1766505600000,87443.45000000,88189.64000000,87325.40000000,88003.63000000,1214.11389000
1766509200000,88003.63000000,88275.40000000,87180.00000000,87180.01000000,705.26293000
1766512800000,87180.00000000,88177.98000000,87162.39000000,87975.01000000,814.37143000
1766516400000,87975.02000000,88043.94000000,87650.00000000,87752.87000000,487.08154000
1766520000000,87752.88000000,88372.35000000,87524.58000000,87691.50000000,807.56489000
1766523600000,87691.51000000,87856.37000000,87540.87000000,87722.89000000,406.59734000
1766527200000,87722.90000000,87779.25000000,87250.00000000,87399.45000000,627.85138000
1766530800000,87399.45000000,87520.87000000,87180.00000000,87486.00000000,504.97854000
1766534400000,87486.00000000,87672.26000000,87264.00000000,87660.47000000,394.43819000
1766538000000,87660.47000000,87839.66000000,87500.00000000,87632.51000000,313.39351000
1766541600000,87632.51000000,87658.07000000,86940.76000000,87134.39000000,587.21641000
1766545200000,87134.39000000,87392.61000000,86863.88000000,87336.23000000,303.84075000
1766548800000,87336.23000000,87458.54000000,87083.50000000,87147.65000000,288.59994000
1766552400000,87147.64000000,87248.79000000,86796.65000000,86957.90000000,344.84105000
1766556000000,86957.89000000,87071.64000000,86802.03000000,87019.21000000,370.38507000
1766559600000,87019.21000000,87184.57000000,86911.52000000,86911.53000000,345.81136000
1766563200000,86911.53000000,87077.67000000,86769.32000000,86795.56000000,315.09263000
1766566800000,86795.56000000,86903.17000000,86724.05000000,86812.80000000,230.63616000
1766570400000,86812.80000000,87196.00000000,86812.79000000,87077.66000000,292.48243000
1766574000000,87077.66000000,87359.59000000,87077.66000000,87203.94000000,350.15883000
1766577600000,87203.94000000,87478.59000000,87129.47000000,87428.51000000,308.22922000
1766581200000,87428.50000000,87440.24000000,87038.44000000,87286.90000000,403.57201000
1766584800000,87286.90000000,87448.49000000,86420.00000000,86994.70000000,906.39237000
1766588400000,86994.70000000,87218.69000000,86580.00000000,87049.99000000,682.33537000
1766592000000,87050.00000000,87670.00000000,86917.25000000,87283.23000000,859.06821000
1766595600000,87283.23000000,87576.68000000,87255.06000000,87322.77000000,412.56130000
1766599200000,87322.77000000,87500.67000000,87233.93000000,87470.65000000,257.68600000
1766602800000,87470.64000000,87578.81000000,87329.90000000,87566.06000000,217.13377000
1766606400000,87566.07000000,87679.05000000,87516.77000000,87556.20000000,186.42889000
1766610000000,87556.21000000,87795.65000000,87556.20000000,87696.33000000,184.56137000
1766613600000,87696.34000000,88049.89000000,87696.33000000,88009.81000000,324.48249000
1766617200000,88009.82000000,88023.57000000,87599.14000000,87669.45000000,261.49587000
1766620800000,87669.44000000,87749.00000000,87508.52000000,87568.37000000,172.91056000
1766624400000,87568.37000000,87748.78000000,87567.42000000,87699.99000000,127.73475000
1766628000000,87700.00000000,87967.50000000,87563.87000000,87892.66000000,207.01020000
1766631600000,87892.66000000,87925.08000000,87767.84000000,87840.42000000,145.20674000
1766635200000,87840.42000000,87843.38000000,87743.00000000,87773.33000000,132.58221000
1766638800000,87773.34000000,87787.92000000,87661.17000000,87750.55000000,171.99245000
1766642400000,87750.56000000,87842.53000000,87692.67000000,87836.42000000,122.21291000
1766646000000,87836.43000000,87862.20000000,87755.94000000,87837.59000000,141.89666000
1766649600000,87837.59000000,87888.00000000,87351.96000000,87584.65000000,461.19047000
1766653200000,87584.65000000,87603.78000000,87450.01000000,87526.48000000,318.47286000
1766656800000,87526.47000000,87533.36000000,87251.60000000,87414.14000000,276.87514000
1766660400000,87414.15000000,87591.32000000,87414.14000000,87519.44000000,147.21369000
1766664000000,87519.45000000,87586.92000000,87476.49000000,87566.00000000,142.98872000
1766667600000,87566.00000000,87683.87000000,87398.78000000,87638.25000000,370.11784000
1766671200000,87638.25000000,87759.33000000,87550.00000000,87718.21000000,282.91916000
1766674800000,87718.22000000,88592.74000000,87714.00000000,88371.27000000,1137.44680000
1766678400000,88371.27000000,88478.00000000,87993.21000000,88086.72000000,533.77153000
1766682000000,88086.73000000,88211.18000000,88000.32000000,88139.08000000,203.97629000
1766685600000,88139.07000000,88314.37000000,88139.07000000,88241.26000000,193.54871000
