timestamp,open,high,low,close,volume
1772420400000,66276.77000000,66598.19000000,66101.07000000,66493.01000000,131.31343000
1772421300000,66493.01000000,66867.09000000,66465.16000000,66779.82000000,131.75754000
1772422200000,66779.83000000,67037.22000000,66708.62000000,66893.47000000,153.81685000
1772423100000,66893.46000000,67025.35000000,66810.00000000,66820.03000000,92.52458000
1772424000000,66820.03000000,66843.65000000,66678.22000000,66744.06000000,107.75763000
1772424900000,66744.07000000,66946.19000000,66667.23000000,66937.99000000,115.81827000
1772425800000,66937.99000000,66975.74000000,66633.32000000,66818.55000000,353.31916000
1772426700000,66818.54000000,66862.12000000,66633.13000000,66862.12000000,173.75697000
1772427600000,66862.11000000,66900.00000000,66547.81000000,66710.40000000,255.61597000
1772428500000,66710.39000000,66823.37000000,66596.71000000,66679.80000000,179.19886000
1772429400000,66679.81000000,66995.64000000,66670.50000000,66976.90000000,235.06733000
1772430300000,66976.90000000,66977.28000000,66684.69000000,66730.78000000,217.31242000
1772431200000,66730.78000000,66739.45000000,66516.11000000,66609.38000000,144.21179000
1772432100000,66609.38000000,66637.39000000,66066.53000000,66275.90000000,202.76688000
1772433000000,66275.90000000,66313.00000000,66193.24000000,66269.90000000,89.53931000
1772433900000,66269.90000000,66269.90000000,66062.83000000,66204.90000000,241.24169000
1772434800000,66204.90000000,66209.46000000,65608.30000000,65698.37000000,449.28448000
1772435700000,65698.38000000,65859.44000000,65542.60000000,65800.01000000,414.91266000
1772436600000,65800.00000000,65983.67000000,65782.01000000,65964.88000000,276.68110000
1772437500000,65964.89000000,66029.42000000,65901.78000000,66007.52000000,153.98081000
1772438400000,66007.80000000,66064.00000000,65664.13000000,66058.05000000,428.69025000
1772439300000,66058.05000000,66126.68000000,65654.54000000,65736.37000000,245.89172000
1772440200000,65736.38000000,66026.14000000,65725.71000000,65980.23000000,127.68015000
1772441100000,65980.23000000,66306.00000000,65974.27000000,66282.00000000,302.14920000
1772442000000,66281.99000000,66492.20000000,66210.00000000,66393.40000000,129.37563000
1772442900000,66393.41000000,66720.84000000,66385.44000000,66395.85000000,623.93640000
1772443800000,66395.86000000,66538.99000000,66316.64000000,66380.44000000,650.82426000
1772444700000,66380.44000000,66383.98000000,66164.96000000,66168.62000000,382.14797000
1772445600000,66168.61000000,66352.00000000,66079.24000000,66144.63000000,159.80785000
1772446500000,66144.62000000,66263.71000000,66141.83000000,66259.70000000,57.36592000
1772447400000,66259.71000000,66381.74000000,66153.86000000,66282.61000000,86.52320000
1772448300000,66282.61000000,66318.41000000,66135.44000000,66316.40000000,132.59341000
1772449200000,66316.39000000,66316.40000000,66061.22000000,66088.10000000,251.85202000
1772450100000,66088.10000000,66236.01000000,66024.91000000,66064.89000000,363.80450000
1772451000000,66064.88000000,66366.74000000,66003.59000000,66289.63000000,293.04094000
1772451900000,66289.62000000,66462.40000000,66251.60000000,66359.68000000,126.08229000
1772452800000,66359.67000000,66391.38000000,66251.60000000,66338.92000000,92.88086000
1772453700000,66338.92000000,66338.93000000,66083.94000000,66134.90000000,88.19845000
1772454600000,66134.91000000,66147.88000000,65948.50000000,65985.39000000,176.40881000
1772455500000,65985.39000000,66047.09000000,65874.92000000,65963.43000000,405.60562000
1772456400000,65963.43000000,66000.00000000,65782.64000000,65858.82000000,293.29622000
1772457300000,65858.82000000,66157.28000000,65760.34000000,65815.35000000,425.18015000
1772458200000,65815.35000000,65941.67000000,65506.49000000,65587.56000000,394.17212000
1772459100000,65587.55000000,65641.01000000,65350.00000000,65440.01000000,464.16496000
1772460000000,65440.01000000,65609.02000000,65259.21000000,65548.99000000,680.10155000
1772460900000,65548.98000000,65665.99000000,65382.35000000,65589.08000000,238.47167000
1772461800000,65589.08000000,66674.86000000,65582.55000000,66626.06000000,919.77734000
1772462700000,66626.05000000,67220.81000000,66481.25000000,67177.06000000,1176.78657000
1772463600000,67177.05000000,68453.37000000,66975.29000000,68425.10000000,1554.32123000
1772464500000,68425.10000000,68800.00000000,68252.42000000,68556.00000000,1094.90330000
1772465400000,68555.99000000,69530.00000000,68431.99000000,69516.47000000,1460.07703000
1772466300000,69516.47000000,69617.74000000,68791.59000000,69130.20000000,1367.26718000
1772467200000,69130.20000000,69775.91000000,68933.69000000,69665.12000000,1044.88410000
1772468100000,69665.11000000,69749.71000000,69278.70000000,69383.65000000,652.75899000
1772469000000,69383.64000000,69880.00000000,69070.60000000,69861.03000000,699.92790000
1772469900000,69861.03000000,70096.00000000,69408.39000000,69428.62000000,1042.46089000
1772470800000,69428.62000000,69578.00000000,69260.00000000,69418.51000000,320.28052000
1772471700000,69418.51000000,69550.00000000,69175.41000000,69406.33000000,349.12674000
1772472600000,69406.33000000,69445.32000000,68803.18000000,68844.77000000,481.15621000
1772473500000,68844.76000000,69200.00000000,68793.88000000,69198.00000000,294.87803000
1772474400000,69198.00000000,69198.00000000,68727.83000000,69190.32000000,265.65627000
1772475300000,69190.32000000,69199.36000000,68958.00000000,69089.06000000,247.36787000
1772476200000,69089.07000000,69268.15000000,68926.66000000,69125.47000000,311.93677000
1772477100000,69125.47000000,69174.80000000,68820.50000000,68877.67000000,230.78219000
1772478000000,68877.67000000,68938.66000000,68576.18000000,68745.59000000,303.89194000
1772478900000,68745.59000000,68965.97000000,68743.51000000,68824.00000000,210.10866000
1772479800000,68824.00000000,69049.32000000,68717.70000000,68782.88000000,219.65949000
1772480700000,68782.88000000,69012.82000000,68764.40000000,68966.53000000,153.23105000
1772481600000,68966.52000000,69209.71000000,68584.90000000,68738.01000000,383.31289000
1772482500000,68738.00000000,69058.32000000,68669.30000000,68951.73000000,104.77384000
1772483400000,68951.74000000,69229.75000000,68912.00000000,69229.75000000,156.41510000
1772484300000,69229.74000000,69505.00000000,69077.57000000,69106.58000000,383.63642000
1772485200000,69106.58000000,69297.60000000,69000.71000000,69281.63000000,143.01358000
1772486100000,69281.63000000,69432.15000000,69174.70000000,69414.60000000,68.91085000
1772487000000,69414.60000000,69481.46000000,69337.99000000,69456.82000000,115.46362000
1772487900000,69457.18000000,69539.77000000,69385.19000000,69413.82000000,113.99577000
1772488800000,69413.82000000,69501.62000000,69219.51000000,69241.53000000,201.05718000
1772489700000,69241.53000000,69378.00000000,69136.36000000,69364.45000000,504.09004000
1772490600000,69364.45000000,69439.77000000,69290.98000000,69410.88000000,233.81577000
1772491500000,69410.88000000,69440.49000000,69241.46000000,69440.49000000,391.62939000
1772492400000,69440.48000000,69479.58000000,69215.40000000,69223.24000000,121.09607000
1772493300000,69223.25000000,69261.69000000,68990.98000000,69002.93000000,223.74767000
1772494200000,69002.92000000,69014.26000000,68758.40000000,68796.86000000,195.86863000
1772495100000,68796.86000000,68965.67000000,68740.00000000,68830.06000000,97.01741000
1772496000000,68830.06000000,69004.40000000,68750.68000000,68809.99000000,168.97074000
1772496900000,68810.00000000,68882.00000000,68644.38000000,68801.99000000,93.28242000
1772497800000,68802.00000000,69166.61000000,68680.51000000,69108.17000000,241.07059000
1772498700000,69108.18000000,69166.00000000,68898.37000000,69092.88000000,99.58700000
1772499600000,69092.89000000,69258.08000000,68924.75000000,69132.08000000,87.55531000
1772500500000,69132.08000000,69144.17000000,68886.28000000,68909.32000000,142.55735000
1772501400000,68909.31000000,69068.54000000,68760.00000000,69032.82000000,129.89980000
1772502300000,69032.83000000,69050.00000000,68755.00000000,68760.01000000,92.45752000
1772503200000,68760.01000000,68774.13000000,68408.08000000,68603.60000000,216.62166000
1772504100000,68603.61000000,68650.13000000,68210.71000000,68461.73000000,407.64982000
1772505000000,68459.98000000,68530.13000000,68374.99000000,68458.49000000,109.34661000
1772505900000,68458.50000000,68630.23000000,68439.62000000,68512.17000000,114.65096000
1772506800000,68512.17000000,68550.00000000,68335.26000000,68465.48000000,115.28048000
1772507700000,68465.48000000,68488.25000000,68231.47000000,68419.34000000,215.08526000
1772508600000,68419.35000000,68544.56000000,68355.74000000,68419.12000000,76.40021000
1772509500000,68419.12000000,68425.89000000,68315.84000000,68377.94000000,51.68140000
1772510400000,68377.94000000,68454.63000000,68323.61000000,68370.00000000,90.06591000
1772511300000,68369.37000000,68411.52000000,68285.43000000,68323.53000000,63.62982000
1772512200000,68323.53000000,68390.45000000,68163.87000000,68194.90000000,155.09574000
1772513100000,68194.90000000,68208.62000000,68050.11000000,68123.20000000,127.66996000
1772514000000,68123.19000000,68391.35000000,68044.00000000,68391.35000000,113.14783000
1772514900000,68391.34000000,68617.42000000,68320.87000000,68408.81000000,287.96742000
1772515800000,68408.81000000,68416.66000000,68066.67000000,68079.39000000,255.80105000
1772516700000,68079.39000000,68119.21000000,67845.84000000,67947.75000000,256.93715000
1772517600000,67947.75000000,68038.59000000,67830.70000000,67970.60000000,151.56698000
1772518500000,67970.60000000,68000.00000000,67878.95000000,67887.00000000,196.02434000
1772519400000,67887.00000000,68000.00000000,67859.57000000,67995.05000000,252.78140000
1772520300000,67995.05000000,68250.24000000,67800.00000000,68106.73000000,220.82015000
1772521200000,68106.73000000,68172.40000000,67951.24000000,68172.39000000,266.15992000
1772522100000,68172.39000000,68275.20000000,68082.48000000,68245.30000000,334.71073000
1772523000000,68245.31000000,68245.31000000,68059.11000000,68218.18000000,447.25960000
1772523900000,68218.17000000,68250.00000000,68122.31000000,68172.80000000,117.47494000
1772524800000,68172.79000000,68311.83000000,67981.23000000,68010.75000000,144.48707000
1772525700000,68010.76000000,68099.30000000,67703.79000000,67747.78000000,602.53708000
1772526600000,67747.77000000,67752.77000000,67305.08000000,67347.00000000,568.56870000
1772527500000,67346.99000000,67362.00000000,66905.00000000,67003.30000000,567.85935000
1772528400000,67003.30000000,67184.71000000,66878.43000000,67090.79000000,451.51155000
1772529300000,67090.79000000,67138.49000000,66589.87000000,66629.37000000,425.51598000
1772530200000,66629.37000000,66705.17000000,66340.14000000,66540.84000000,621.01028000
1772531100000,66540.84000000,66665.33000000,66408.47000000,66647.98000000,269.84555000
1772532000000,66647.98000000,66663.63000000,66461.63000000,66486.76000000,253.29613000
1772532900000,66486.76000000,66700.00000000,66440.46000000,66512.33000000,253.53453000
1772533800000,66512.34000000,66717.29000000,66448.22000000,66707.75000000,311.94651000
1772534700000,66707.75000000,67030.75000000,66707.75000000,66860.30000000,340.73015000
1772535600000,66860.30000000,67077.39000000,66808.46000000,66963.61000000,283.42964000
1772536500000,66963.60000000,67006.59000000,66779.37000000,66837.45000000,260.95815000
1772537400000,66837.44000000,67092.31000000,66823.77000000,67075.29000000,174.28855000
1772538300000,67075.29000000,67166.50000000,66948.11000000,67026.61000000,553.23990000
1772539200000,67026.60000000,67973.20000000,67025.93000000,67741.08000000,569.11178000
1772540100000,67741.09000000,67765.10000000,67398.83000000,67585.20000000,334.23852000
1772541000000,67585.20000000,67591.75000000,67290.26000000,67360.15000000,217.00770000
1772541900000,67360.14000000,67491.34000000,67260.32000000,67399.85000000,203.15279000
1772542800000,67399.85000000,67435.00000000,66969.56000000,66979.93000000,180.03205000
1772543700000,66979.93000000,67199.74000000,66972.00000000,67107.29000000,145.73967000
1772544600000,67107.29000000,67107.29000000,66850.00000000,66861.13000000,166.45361000
1772545500000,66861.14000000,66965.51000000,66635.30000000,66931.31000000,217.53285000
1772546400000,66931.32000000,67254.89000000,66859.86000000,67170.00000000,247.64360000
1772547300000,67170.01000000,67354.67000000,67015.11000000,67118.32000000,195.16781000
1772548200000,67118.31000000,67603.94000000,66367.10000000,66464.00000000,794.82648000
1772549100000,66463.99000000,66814.67000000,66158.00000000,66568.95000000,477.18674000
1772550000000,66568.95000000,66893.69000000,66502.25000000,66871.99000000,435.10769000
1772550900000,66872.00000000,67019.23000000,66471.79000000,66820.95000000,285.78869000
1772551800000,66820.94000000,67834.93000000,66815.44000000,67529.21000000,554.32274000
1772552700000,67529.21000000,67823.19000000,67486.77000000,67725.81000000,419.97608000
1772553600000,67725.82000000,68620.00000000,67659.75000000,68474.02000000,748.02655000
1772554500000,68474.01000000,68999.00000000,68266.57000000,68828.97000000,546.30521000
1772555400000,68828.96000000,68828.96000000,67473.09000000,67726.29000000,736.19283000
1772556300000,67726.30000000,68464.00000000,67710.28000000,68175.90000000,551.38684000
1772557200000,68175.89000000,68227.50000000,67626.53000000,67941.36000000,413.93185000
1772558100000,67941.36000000,68292.18000000,67879.71000000,68234.65000000,212.50204000
1772559000000,68234.64000000,68234.64000000,67766.50000000,68148.91000000,163.43314000
1772559900000,68148.91000000,68400.00000000,68009.25000000,68318.66000000,192.28145000
1772560800000,68318.66000000,68441.03000000,67976.47000000,68083.68000000,178.02376000
1772561700000,68083.69000000,68599.58000000,68083.69000000,68465.88000000,391.09803000
1772562600000,68465.87000000,68914.01000000,68430.45000000,68689.60000000,288.13881000
1772563500000,68689.60000000,68773.95000000,68544.08000000,68628.49000000,116.86942000
1772564400000,68628.50000000,68691.04000000,68312.83000000,68620.96000000,178.57808000
1772565300000,68620.97000000,68888.88000000,68485.20000000,68654.25000000,346.10822000
1772566200000,68654.25000000,68799.25000000,68351.30000000,68702.21000000,298.00443000
1772567100000,68702.21000000,68758.26000000,68430.19000000,68435.00000000,123.81953000
1772568000000,68435.00000000,68506.10000000,68155.43000000,68156.11000000,164.38192000
1772568900000,68156.00000000,68484.87000000,68149.30000000,68390.95000000,157.17721000
1772569800000,68390.96000000,68591.24000000,68342.40000000,68483.57000000,113.95048000
1772570700000,68483.57000000,68499.90000000,68092.10000000,68266.00000000,157.48912000
1772571600000,68265.99000000,68265.99000000,67848.26000000,68047.99000000,163.81169000
1772572500000,68048.00000000,68110.48000000,67832.30000000,67936.44000000,96.54826000
1772573400000,67936.45000000,68043.24000000,67886.86000000,68030.55000000,95.53179000
1772574300000,68030.56000000,68098.00000000,67974.86000000,68024.62000000,164.03190000
1772575200000,68024.63000000,68524.54000000,68024.62000000,68310.74000000,177.62550000
1772576100000,68310.74000000,68388.11000000,68172.99000000,68259.87000000,131.90055000
1772577000000,68259.87000000,68398.01000000,68187.77000000,68398.00000000,158.98565000
1772577900000,68398.01000000,68430.36000000,68200.00000000,68327.20000000,105.36086000
1772578800000,68327.20000000,68860.00000000,68245.64000000,68695.92000000,246.63522000
1772579700000,68695.92000000,68712.00000000,68440.05000000,68490.46000000,146.15650000
1772580600000,68490.46000000,68582.83000000,68411.76000000,68456.39000000,78.87310000
1772581500000,68456.40000000,68512.40000000,68252.00000000,68338.00000000,103.82387000
1772582400000,68338.01000000,68338.01000000,68093.10000000,68111.53000000,95.41727000
1772583300000,68111.53000000,68413.90000000,68111.53000000,68293.87000000,329.76995000
1772584200000,68293.87000000,68336.84000000,67857.61000000,67965.94000000,227.62808000
1772585100000,67965.94000000,68252.10000000,67965.93000000,68093.19000000,114.80393000
1772586000000,68093.20000000,68274.46000000,68050.16000000,68124.00000000,419.30476000
1772586900000,68124.01000000,68341.12000000,67963.28000000,68251.99000000,201.93795000
1772587800000,68251.99000000,68909.34000000,68212.00000000,68711.48000000,348.97682000
1772588700000,68711.47000000,68720.84000000,68365.08000000,68405.00000000,324.40375000
1772589600000,68405.00000000,68447.72000000,68181.82000000,68229.14000000,216.24543000
1772590500000,68229.15000000,68299.44000000,68037.55000000,68067.01000000,127.27008000
1772591400000,68067.01000000,68151.12000000,67984.56000000,68135.86000000,114.75507000
1772592300000,68135.86000000,68396.50000000,68106.15000000,68323.33000000,339.84270000
1772593200000,68323.33000000,68356.01000000,68090.11000000,68265.27000000,326.35912000
1772594100000,68265.27000000,68383.63000000,67950.00000000,67976.25000000,171.46906000
1772595000000,67976.25000000,67995.79000000,67400.00000000,67571.46000000,360.76261000
1772595900000,67571.46000000,67752.35000000,67442.80000000,67732.20000000,95.91692000
1772596800000,67732.19000000,67954.89000000,67569.42000000,67816.15000000,165.32718000
1772597700000,67816.15000000,67847.60000000,67513.15000000,67600.01000000,206.02772000
1772598600000,67600.00000000,67694.56000000,67467.60000000,67641.75000000,388.87994000
1772599500000,67641.75000000,67850.91000000,67600.45000000,67786.00000000,306.15496000
1772600400000,67786.00000000,67917.96000000,67684.77000000,67914.25000000,97.53960000
1772601300000,67914.25000000,67958.15000000,67682.64000000,67831.48000000,158.03151000
1772602200000,67831.49000000,68304.64000000,67733.21000000,68206.36000000,155.63237000
1772603100000,68206.35000000,68397.84000000,68117.22000000,68206.59000000,255.08421000
1772604000000,68206.58000000,68276.69000000,68073.39000000,68196.79000000,299.91565000
1772604900000,68196.79000000,68213.11000000,68048.63000000,68128.53000000,101.16595000
1772605800000,68128.54000000,68677.38000000,68126.74000000,68665.31000000,474.74720000
1772606700000,68665.32000000,68678.76000000,68457.72000000,68508.02000000,412.65228000
1772607600000,68508.02000000,68625.84000000,68382.64000000,68401.54000000,302.75936000
1772608500000,68401.53000000,68766.46000000,68349.49000000,68766.45000000,394.64923000
1772609400000,68766.45000000,68983.13000000,68646.93000000,68969.41000000,467.64827000
1772610300000,68969.41000000,69668.00000000,68888.11000000,69493.13000000,902.62526000
1772611200000,69493.14000000,69717.60000000,69362.23000000,69418.74000000,768.74925000
1772612100000,69418.73000000,69418.74000000,69098.91000000,69316.41000000,694.44587000
1772613000000,69316.42000000,69920.00000000,69305.62000000,69880.00000000,784.91313000
1772613900000,69880.00000000,71163.00000000,69880.00000000,71011.40000000,2427.24825000
1772614800000,71011.40000000,71283.81000000,70724.26000000,71072.59000000,1336.48921000
1772615700000,71072.59000000,71522.00000000,71072.59000000,71310.00000000,1207.89288000
1772616600000,71310.00000000,71878.70000000,71214.96000000,71767.23000000,928.03142000
1772617500000,71767.24000000,71893.00000000,71343.82000000,71520.76000000,723.77653000
1772618400000,71520.76000000,71878.17000000,71423.47000000,71655.44000000,677.20976000
1772619300000,71655.44000000,71700.44000000,71341.59000000,71526.61000000,473.64113000
1772620200000,71526.61000000,71554.98000000,71284.25000000,71322.40000000,490.44649000
1772621100000,71322.40000000,71461.92000000,71200.00000000,71348.92000000,438.09408000
1772622000000,71348.92000000,71450.00000000,71210.70000000,71427.72000000,245.55459000
1772622900000,71427.71000000,71499.75000000,71201.51000000,71225.69000000,162.05581000
1772623800000,71225.70000000,71308.59000000,70928.25000000,71109.22000000,509.61962000
1772624700000,71109.22000000,71225.19000000,70951.00000000,71111.40000000,277.92975000
1772625600000,71111.40000000,71145.00000000,70816.66000000,70880.40000000,284.94007000
1772626500000,70880.39000000,70925.31000000,70616.11000000,70628.57000000,359.33619000
1772627400000,70628.56000000,71046.35000000,70588.00000000,70973.65000000,416.65303000
1772628300000,70973.65000000,71364.14000000,70886.81000000,71339.71000000,425.60629000
1772629200000,71339.72000000,71624.99000000,71279.82000000,71300.00000000,354.42330000
1772630100000,71300.00000000,71421.77000000,71214.40000000,71364.49000000,226.38934000
1772631000000,71364.48000000,71543.20000000,71250.00000000,71432.98000000,609.08635000
1772631900000,71432.99000000,71520.00000000,71320.37000000,71477.17000000,378.36941000
1772632800000,71477.17000000,71830.00000000,71396.84000000,71807.12000000,566.53252000
1772633700000,71807.11000000,72000.00000000,71584.08000000,71751.67000000,799.10158000
1772634600000,71751.68000000,72633.00000000,71408.90000000,71416.59000000,2158.79980000
1772635500000,71416.59000000,71802.07000000,71300.10000000,71621.04000000,614.64560000
1772636400000,71621.03000000,72247.08000000,71580.62000000,72003.76000000,770.86288000
1772637300000,72003.76000000,72997.00000000,71983.87000000,72972.15000000,1026.62769000
1772638200000,72972.15000000,73097.08000000,72576.10000000,72705.65000000,1131.11311000
1772639100000,72705.65000000,73479.75000000,72694.34000000,73396.88000000,1255.75628000
1772640000000,73396.87000000,73500.00000000,72748.78000000,72843.20000000,1283.76162000
1772640900000,72843.20000000,73049.30000000,72541.69000000,72964.39000000,539.54723000
1772641800000,72964.39000000,73300.00000000,72898.14000000,73140.32000000,420.14995000
1772642700000,73140.33000000,73458.00000000,73079.14000000,73294.84000000,384.10093000
1772643600000,73294.84000000,73700.00000000,73180.64000000,73545.44000000,668.09974000
1772644500000,73545.44000000,73759.99000000,72932.80000000,73053.05000000,783.20017000
1772645400000,73053.05000000,73282.18000000,73053.05000000,73141.80000000,497.74975000
1772646300000,73141.80000000,73400.00000000,73111.38000000,73218.92000000,309.82864000
1772647200000,73218.93000000,73411.76000000,72912.11000000,73042.63000000,311.68912000
1772648100000,73042.63000000,73418.44000000,73018.35000000,73405.90000000,267.25276000
1772649000000,73405.91000000,73545.17000000,73142.00000000,73518.89000000,289.91565000
1772649900000,73518.88000000,73700.00000000,73426.04000000,73693.50000000,252.67937000
1772650800000,73693.50000000,74005.00000000,73573.50000000,73870.54000000,964.11221000
1772651700000,73870.53000000,74050.00000000,73522.12000000,73557.99000000,795.40666000
1772652600000,73558.00000000,73868.41000000,73516.00000000,73707.15000000,306.11902000
1772653500000,73708.31000000,73789.86000000,73579.67000000,73611.10000000,591.39340000
1772654400000,73611.67000000,73716.00000000,73305.68000000,73430.17000000,231.60197000
1772655300000,73430.18000000,73590.00000000,73253.91000000,73469.95000000,180.97739000
1772656200000,73469.95000000,73567.45000000,73318.47000000,73496.36000000,178.31511000
1772657100000,73496.37000000,73541.78000000,73001.05000000,73019.68000000,313.63265000
1772658000000,73019.69000000,73143.44000000,72878.00000000,73060.84000000,288.87923000
1772658900000,73060.85000000,73211.70000000,72956.00000000,73161.57000000,243.20707000
1772659800000,73161.57000000,73297.82000000,73064.56000000,73237.60000000,171.93826000
1772660700000,73237.60000000,73322.93000000,73168.31000000,73309.72000000,132.50240000
1772661600000,73309.73000000,73523.31000000,73243.90000000,73244.25000000,183.68794000
1772662500000,73244.25000000,73358.12000000,73189.73000000,73260.00000000,139.63196000
1772663400000,73260.00000000,73305.26000000,72800.00000000,72917.01000000,238.91542000
1772664300000,72917.00000000,72917.01000000,72638.29000000,72705.86000000,332.56324000
1772665200000,72705.86000000,72821.20000000,72647.99000000,72718.57000000,148.24030000
1772666100000,72718.57000000,72880.88000000,72483.69000000,72538.00000000,216.98788000
1772667000000,72538.00000000,72768.25000000,72313.04000000,72756.80000000,336.56747000
1772667900000,72756.81000000,72830.01000000,72603.84000000,72666.77000000,488.37619000
1772668800000,72666.77000000,72854.00000000,72553.65000000,72705.48000000,329.75836000
1772669700000,72705.47000000,72972.23000000,72679.48000000,72827.70000000,225.45426000
1772670600000,72827.70000000,72993.29000000,72727.48000000,72905.00000000,266.44117000
1772671500000,72905.01000000,73000.00000000,72705.37000000,72760.00000000,183.12267000
1772672400000,72759.99000000,73306.82000000,72682.08000000,73126.28000000,272.31124000
1772673300000,73126.27000000,73228.49000000,72782.28000000,72945.09000000,189.38465000
1772674200000,72945.09000000,72959.97000000,72581.78000000,72651.07000000,139.28738000
1772675100000,72651.07000000,72683.99000000,72409.10000000,72538.72000000,220.20525000
1772676000000,72538.72000000,72858.39000000,72514.26000000,72804.72000000,219.66361000
1772676900000,72804.73000000,72916.50000000,72665.97000000,72716.18000000,116.51719000
1772677800000,72716.19000000,72719.14000000,72336.76000000,72357.94000000,151.72378000
1772678700000,72357.95000000,72595.67000000,72349.20000000,72506.19000000,140.72321000
1772679600000,72506.18000000,72750.00000000,72481.47000000,72624.85000000,153.94031000
1772680500000,72624.85000000,72670.07000000,72484.67000000,72531.91000000,223.43796000
1772681400000,72531.90000000,72540.95000000,72344.51000000,72349.06000000,170.58626000
1772682300000,72349.06000000,72550.29000000,72344.52000000,72497.89000000,120.40753000
1772683200000,72497.89000000,72716.84000000,72447.96000000,72668.43000000,121.04551000
1772684100000,72668.42000000,72832.91000000,72579.41000000,72793.66000000,95.54742000
1772685000000,72793.66000000,72959.22000000,72536.58000000,72922.81000000,250.55332000
1772685900000,72922.81000000,73081.08000000,72693.73000000,72815.70000000,282.86085000
1772686800000,72815.70000000,72912.82000000,72711.17000000,72820.00000000,145.59207000
1772687700000,72820.00000000,72820.01000000,72450.10000000,72480.45000000,196.42072000
1772688600000,72480.45000000,72646.87000000,72357.04000000,72414.65000000,352.28350000
1772689500000,72414.65000000,72500.00000000,72260.74000000,72412.15000000,391.60167000
1772690400000,72412.15000000,72449.66000000,72037.56000000,72150.71000000,487.09386000
1772691300000,72150.71000000,72545.09000000,72066.47000000,72399.07000000,234.99580000
1772692200000,72399.07000000,72527.00000000,72301.50000000,72422.64000000,195.21520000
1772693100000,72422.64000000,72655.23000000,72395.57000000,72553.62000000,145.80004000
1772694000000,72553.63000000,72666.40000000,72429.79000000,72647.81000000,194.33546000
1772694900000,72647.80000000,72675.07000000,72527.27000000,72527.28000000,140.29454000
1772695800000,72527.28000000,72527.28000000,72180.71000000,72181.81000000,338.85358000
1772696700000,72181.82000000,72248.80000000,71759.95000000,72055.50000000,773.53104000
1772697600000,72055.50000000,72083.68000000,71786.00000000,71825.43000000,275.32680000
1772698500000,71825.43000000,72065.89000000,71757.17000000,71829.90000000,273.33370000
1772699400000,71829.90000000,72206.51000000,71796.78000000,72178.73000000,442.51341000
1772700300000,72178.72000000,72370.21000000,72110.00000000,72333.70000000,430.00507000
1772701200000,72333.70000000,72775.20000000,72298.83000000,72613.16000000,461.17778000
1772702100000,72613.15000000,72749.76000000,72480.55000000,72690.81000000,208.50967000
1772703000000,72690.80000000,72875.85000000,72478.98000000,72553.65000000,275.04090000
1772703900000,72553.65000000,72614.36000000,72424.00000000,72591.59000000,216.05313000
1772704800000,72591.59000000,72760.43000000,72517.06000000,72722.10000000,149.35982000
1772705700000,72722.09000000,73385.72000000,72666.04000000,73151.80000000,812.61519000
1772706600000,73151.80000000,73514.99000000,73142.01000000,73308.18000000,361.79073000
1772707500000,73308.17000000,73558.15000000,73249.74000000,73388.92000000,265.50206000
1772708400000,73388.91000000,73449.96000000,73053.54000000,73190.73000000,630.39613000
1772709300000,73190.74000000,73190.74000000,72910.02000000,73122.37000000,252.17141000
1772710200000,73122.37000000,73122.37000000,72766.75000000,72837.66000000,549.93523000
1772711100000,72837.67000000,72949.51000000,72790.39000000,72915.79000000,658.64941000
1772712000000,72915.80000000,73024.20000000,72666.93000000,72947.28000000,240.99214000
1772712900000,72947.28000000,72964.12000000,72706.54000000,72809.10000000,210.17582000
1772713800000,72809.10000000,72943.80000000,72700.00000000,72903.29000000,115.20069000
1772714700000,72903.28000000,73063.38000000,72886.59000000,72890.73000000,163.62287000
1772715600000,72890.73000000,72935.30000000,72588.30000000,72670.10000000,174.93357000
1772716500000,72670.10000000,72773.65000000,72333.85000000,72523.38000000,253.42923000
1772717400000,72523.39000000,72538.63000000,72189.70000000,72518.31000000,274.55806000
1772718300000,72518.31000000,72694.23000000,72400.75000000,72467.79000000,406.06773000
1772719200000,72467.79000000,72633.70000000,72320.65000000,72613.91000000,210.68690000
1772720100000,72613.91000000,72624.63000000,72414.76000000,72552.36000000,176.44946000
1772721000000,72552.37000000,72835.73000000,71944.18000000,72004.99000000,647.00071000
1772721900000,72004.99000000,72772.97000000,71967.38000000,72609.29000000,412.49792000
1772722800000,72609.30000000,72770.00000000,71610.57000000,71798.63000000,762.05161000
1772723700000,71798.63000000,71910.98000000,71252.10000000,71278.46000000,633.21074000
1772724600000,71278.46000000,71664.85000000,71168.65000000,71457.50000000,577.68676000
1772725500000,71457.50000000,71745.27000000,71309.92000000,71652.77000000,348.99402000
1772726400000,71652.77000000,71654.65000000,70786.06000000,71005.23000000,869.13797000
1772727300000,71005.23000000,71132.83000000,70805.29000000,70995.76000000,300.25593000
1772728200000,70995.76000000,71632.08000000,70985.16000000,71340.62000000,412.76978000
1772729100000,71340.62000000,71419.00000000,71205.17000000,71305.92000000,154.08740000
1772730000000,71305.92000000,71572.00000000,71012.71000000,71171.52000000,396.71114000
1772730900000,71171.53000000,71200.00000000,70893.88000000,70928.41000000,220.66828000
1772731800000,70928.41000000,71014.00000000,70717.14000000,70857.95000000,330.76918000
1772732700000,70857.94000000,70928.41000000,70645.47000000,70704.41000000,275.22233000
1772733600000,70703.37000000,71044.00000000,70656.63000000,71027.55000000,224.99703000
1772734500000,71027.54000000,71066.78000000,70779.25000000,70818.87000000,198.17048000
1772735400000,70818.86000000,71090.32000000,70800.00000000,70950.57000000,158.98419000
1772736300000,70950.57000000,71021.86000000,70817.02000000,70990.65000000,138.40403000
1772737200000,70990.66000000,71421.15000000,70990.66000000,71368.40000000,256.95256000
1772738100000,71368.40000000,71430.78000000,71044.05000000,71107.41000000,149.50571000
1772739000000,71107.40000000,71160.34000000,70929.98000000,71006.80000000,114.93449000
1772739900000,71006.81000000,71117.81000000,70870.00000000,70918.07000000,105.08468000
1772740800000,70918.08000000,71109.93000000,70840.00000000,71100.00000000,156.35584000
1772741700000,71100.00000000,71338.41000000,71072.80000000,71178.64000000,132.06255000
1772742600000,71178.63000000,71394.45000000,71130.00000000,71155.91000000,83.98476000
1772743500000,71155.91000000,71350.00000000,71042.85000000,71236.51000000,124.33726000
1772744400000,71236.51000000,71349.63000000,71231.29000000,71301.71000000,68.11015000
1772745300000,71301.71000000,71572.30000000,71295.72000000,71517.81000000,269.94508000
1772746200000,71517.80000000,71567.75000000,71113.33000000,71189.00000000,131.70032000
1772747100000,71188.99000000,71322.55000000,71023.52000000,71141.93000000,76.73136000
1772748000000,71141.93000000,71255.99000000,71093.46000000,71165.24000000,298.53753000
1772748900000,71165.25000000,71295.86000000,71074.45000000,71160.45000000,300.12445000
1772749800000,71160.45000000,71364.45000000,71151.22000000,71276.46000000,117.12409000
1772750700000,71276.46000000,71341.63000000,71208.53000000,71208.54000000,118.83958000
1772751600000,71208.54000000,71281.19000000,71183.47000000,71197.02000000,112.63766000
1772752500000,71197.02000000,71292.44000000,71162.00000000,71213.98000000,411.35088000
1772753400000,71213.99000000,71219.26000000,70811.44000000,70919.43000000,223.44605000
1772754300000,70919.43000000,70951.85000000,70777.00000000,70890.72000000,319.64171000
1772755200000,70891.02000000,71047.95000000,70833.36000000,71018.30000000,187.54243000
1772756100000,71018.29000000,71043.33000000,70863.69000000,70915.99000000,293.21878000
1772757000000,70915.99000000,71007.13000000,70888.90000000,70899.15000000,94.65526000
1772757900000,70899.14000000,71007.83000000,70784.00000000,70988.19000000,98.04433000
1772758800000,70988.19000000,71020.00000000,70768.61000000,70800.00000000,293.57295000
1772759700000,70799.99000000,70899.31000000,70344.03000000,70465.03000000,346.65950000
1772760600000,70465.03000000,71166.83000000,70455.84000000,71161.19000000,258.37809000
1772761500000,71161.19000000,71301.74000000,71076.46000000,71257.20000000,159.28337000
1772762400000,71257.20000000,71379.41000000,71169.80000000,71330.30000000,113.32681000
1772763300000,71330.29000000,71419.98000000,71036.00000000,71335.89000000,220.61865000
1772764200000,71335.90000000,71355.71000000,71142.00000000,71347.25000000,128.20669000
1772765100000,71347.24000000,71368.75000000,71186.13000000,71252.43000000,290.33177000
1772766000000,71252.43000000,71305.42000000,71028.33000000,71067.90000000,119.54317000
1772766900000,71067.90000000,71259.99000000,71000.00000000,71181.00000000,107.22718000
1772767800000,71181.00000000,71227.44000000,71067.90000000,71092.01000000,147.03217000
1772768700000,71092.01000000,71147.99000000,71019.80000000,71080.38000000,174.29151000
1772769600000,71080.37000000,71120.17000000,70902.22000000,70910.91000000,88.38225000
1772770500000,70910.92000000,70977.25000000,70867.93000000,70871.89000000,63.49636000
1772771400000,70871.88000000,70961.64000000,70270.21000000,70524.00000000,370.69741000
1772772300000,70524.00000000,70620.00000000,70488.51000000,70613.61000000,145.24810000
1772773200000,70613.61000000,70658.01000000,70392.00000000,70538.79000000,151.22088000
1772774100000,70538.79000000,70635.00000000,70326.00000000,70393.09000000,307.33101000
1772775000000,70393.10000000,70501.86000000,70165.24000000,70201.81000000,262.96273000
1772775900000,70201.80000000,70499.18000000,70143.19000000,70436.19000000,244.60081000
1772776800000,70436.18000000,70443.73000000,70261.23000000,70308.12000000,132.43931000
1772777700000,70308.12000000,70520.97000000,70308.12000000,70425.92000000,97.81793000
1772778600000,70425.91000000,70677.66000000,70379.21000000,70669.01000000,214.45439000
1772779500000,70669.02000000,70853.37000000,70575.00000000,70597.23000000,227.60204000
1772780400000,70597.23000000,70813.45000000,70468.97000000,70553.66000000,216.56971000
1772781300000,70553.66000000,70878.24000000,70546.87000000,70858.50000000,124.21236000
1772782200000,70858.50000000,71082.52000000,70858.50000000,71075.56000000,213.10081000
1772783100000,71075.56000000,71192.76000000,71040.94000000,71056.44000000,228.17498000
1772784000000,71056.44000000,71067.58000000,70890.28000000,70941.69000000,211.45374000
1772784900000,70941.69000000,70993.49000000,70833.58000000,70934.14000000,104.46879000
1772785800000,70934.13000000,71026.42000000,70870.40000000,70914.05000000,99.75349000
1772786700000,70914.05000000,70946.17000000,70735.85000000,70789.49000000,153.74967000
1772787600000,70789.49000000,70808.65000000,70520.38000000,70572.00000000,202.80302000
1772788500000,70573.24000000,70603.60000000,70360.44000000,70411.58000000,161.05304000
1772789400000,70411.57000000,70555.53000000,70300.00000000,70551.88000000,171.66472000
1772790300000,70551.88000000,70628.78000000,70453.05000000,70565.56000000,102.45482000
1772791200000,70565.56000000,70716.38000000,70524.01000000,70689.57000000,68.41479000
1772792100000,70689.57000000,70800.00000000,70648.68000000,70778.98000000,82.41298000
1772793000000,70778.97000000,70799.99000000,70509.89000000,70565.63000000,93.68557000
1772793900000,70565.64000000,70621.20000000,70467.88000000,70527.93000000,225.30543000
1772794800000,70527.93000000,70610.00000000,70418.53000000,70552.31000000,148.44863000
1772795700000,70552.32000000,70578.93000000,70513.71000000,70547.97000000,74.52630000
1772796600000,70547.97000000,70643.27000000,70361.30000000,70383.34000000,293.10307000
1772797500000,70383.33000000,70394.69000000,70184.01000000,70212.95000000,247.85739000
1772798400000,70212.94000000,70224.84000000,69793.84000000,69927.54000000,953.44960000
1772799300000,69927.54000000,70195.86000000,69918.35000000,70004.19000000,356.32421000
1772800200000,70004.19000000,70049.82000000,69701.00000000,69754.35000000,241.99745000
1772801100000,69753.78000000,70062.18000000,69660.00000000,69907.00000000,355.66500000
1772802000000,69907.00000000,70146.99000000,69904.69000000,70003.03000000,345.75791000
1772802900000,70003.02000000,70227.47000000,69843.03000000,70060.84000000,143.19541000
1772803800000,70060.84000000,70341.76000000,69750.00000000,70094.14000000,668.03541000
1772804700000,70094.13000000,70094.14000000,69208.00000000,69208.00000000,912.74088000
1772805600000,69213.18000000,69273.87000000,68642.57000000,68826.06000000,1045.64409000
1772806500000,68826.06000000,69100.01000000,68726.69000000,68986.01000000,657.26275000
1772807400000,68986.01000000,69095.51000000,68400.00000000,68743.00000000,799.66678000
1772808300000,68743.00000000,68901.62000000,68176.47000000,68409.89000000,645.93317000
1772809200000,68409.89000000,68661.81000000,68323.00000000,68624.02000000,434.10014000
1772810100000,68625.15000000,69023.99000000,68564.00000000,68886.86000000,385.10537000
1772811000000,68886.86000000,69100.00000000,68697.86000000,68753.55000000,289.57676000
1772811900000,68753.54000000,68756.65000000,68306.00000000,68504.71000000,319.90322000
1772812800000,68504.71000000,68795.44000000,68274.06000000,68333.77000000,270.51052000
1772813700000,68333.77000000,68555.93000000,68222.00000000,68537.47000000,294.28564000
1772814600000,68537.47000000,68670.17000000,68336.71000000,68589.74000000,174.84090000
1772815500000,68589.74000000,68714.83000000,68340.30000000,68446.52000000,215.37243000
1772816400000,68446.52000000,68642.69000000,68400.00000000,68403.61000000,230.68664000
1772817300000,68403.60000000,68583.28000000,68200.00000000,68245.83000000,211.34951000
1772818200000,68245.83000000,68291.65000000,67744.78000000,67832.33000000,546.73163000
1772819100000,67832.33000000,68052.61000000,67832.33000000,67955.10000000,248.02145000
1772820000000,67955.10000000,68380.14000000,67955.10000000,68329.24000000,160.70088000
1772820900000,68329.24000000,68426.57000000,68258.00000000,68292.00000000,134.88278000
1772821800000,68291.99000000,68476.47000000,68269.69000000,68433.17000000,88.61255000
1772822700000,68433.18000000,68470.03000000,68162.31000000,68181.20000000,130.78447000
1772823600000,68181.20000000,68463.56000000,68181.20000000,68438.52000000,176.21462000
1772824500000,68438.51000000,68485.01000000,68098.39000000,68216.47000000,241.25889000
1772825400000,68216.46000000,68311.61000000,68140.00000000,68143.98000000,84.53025000
1772826300000,68143.98000000,68173.05000000,68004.15000000,68131.79000000,115.63116000
1772827200000,68131.79000000,68285.71000000,68000.00000000,68014.44000000,180.20568000
1772828100000,68014.44000000,68136.62000000,67777.00000000,67832.74000000,176.75075000
1772829000000,67832.73000000,68072.00000000,67812.45000000,67989.00000000,163.81140000
1772829900000,67989.00000000,68178.18000000,67985.70000000,68111.03000000,147.85047000
1772830800000,68111.03000000,68189.17000000,68074.16000000,68148.66000000,92.21870000
1772831700000,68148.66000000,68173.20000000,67919.72000000,68005.64000000,113.97877000
1772832600000,68005.64000000,68244.34000000,67969.88000000,68238.56000000,297.56784000
1772833500000,68238.56000000,68333.33000000,68194.61000000,68289.10000000,101.04365000
1772834400000,68289.11000000,68366.30000000,68265.70000000,68290.97000000,77.69867000
1772835300000,68290.97000000,68388.18000000,68252.94000000,68288.91000000,59.46740000
1772836200000,68288.91000000,68422.35000000,68221.38000000,68372.19000000,104.02954000
1772837100000,68372.20000000,68440.92000000,68308.90000000,68319.89000000,63.71700000
1772838000000,68319.90000000,68341.01000000,68248.00000000,68334.55000000,258.32491000
1772838900000,68334.54000000,68371.24000000,68306.90000000,68347.76000000,70.17683000
1772839800000,68347.76000000,68351.01000000,68167.12000000,68251.22000000,159.32625000
1772840700000,68251.22000000,68251.22000000,68105.71000000,68114.02000000,123.54770000
1772841600000,68114.02000000,68260.95000000,68105.73000000,68214.04000000,274.05790000
1772842500000,68214.04000000,68258.70000000,68116.00000000,68210.27000000,260.24598000
1772843400000,68210.26000000,68394.09000000,68210.26000000,68297.84000000,81.03028000
1772844300000,68297.84000000,68358.33000000,68284.59000000,68290.45000000,38.04689000
1772845200000,68290.46000000,68369.11000000,68200.00000000,68240.16000000,68.50832000
1772846100000,68240.17000000,68268.00000000,68180.95000000,68225.06000000,122.45863000
1772847000000,68225.06000000,68273.31000000,68185.99000000,68273.30000000,79.42408000
1772847900000,68273.31000000,68343.36000000,68256.12000000,68262.01000000,45.67042000
1772848800000,68262.01000000,68300.00000000,68212.49000000,68240.01000000,49.95583000
1772849700000,68240.01000000,68264.51000000,68107.01000000,68107.02000000,78.90552000
1772850600000,68107.02000000,68200.09000000,68060.60000000,68166.88000000,118.33731000
1772851500000,68166.87000000,68367.73000000,68166.01000000,68350.04000000,69.76543000
1772852400000,68350.05000000,68551.04000000,68329.89000000,68515.19000000,160.60318000
1772853300000,68515.19000000,68515.20000000,68233.79000000,68233.79000000,83.94381000
1772854200000,68233.80000000,68269.76000000,68175.27000000,68175.27000000,82.61843000
1772855100000,68175.28000000,68217.55000000,68095.50000000,68095.50000000,123.15469000
1772856000000,68095.50000000,68115.18000000,67817.00000000,67952.25000000,323.72139000
1772856900000,67952.25000000,68063.32000000,67941.93000000,68028.25000000,117.95534000
1772857800000,68028.24000000,68147.73000000,67972.60000000,68132.73000000,118.64588000
1772858700000,68132.74000000,68132.74000000,68060.11000000,68063.43000000,61.34248000
1772859600000,68063.42000000,68140.49000000,67961.22000000,68005.05000000,114.41524000
1772860500000,68005.05000000,68050.58000000,67908.00000000,68020.40000000,224.47993000
1772861400000,68020.39000000,68097.11000000,67950.00000000,68081.80000000,78.20655000
1772862300000,68081.81000000,68114.52000000,67983.30000000,68018.26000000,76.78600000
1772863200000,68018.27000000,68021.14000000,67942.11000000,67951.11000000,79.10807000
1772864100000,67951.12000000,67990.38000000,67852.71000000,67865.10000000,86.43610000
1772865000000,67865.10000000,67930.91000000,67765.56000000,67930.91000000,127.15012000
1772865900000,67930.90000000,67954.91000000,67612.21000000,67690.86000000,196.67154000
1772866800000,67690.86000000,67704.96000000,67446.41000000,67636.18000000,389.27417000
1772867700000,67636.18000000,67770.59000000,67608.14000000,67727.60000000,126.20378000
1772868600000,67727.60000000,67796.64000000,67664.43000000,67794.85000000,124.20161000
1772869500000,67794.86000000,67865.23000000,67767.11000000,67842.67000000,129.06943000
1772870400000,67842.67000000,67872.64000000,67774.13000000,67872.63000000,109.30543000
1772871300000,67872.64000000,68045.07000000,67872.63000000,67946.49000000,159.35794000
1772872200000,67946.49000000,68013.90000000,67882.00000000,67900.01000000,82.73277000
1772873100000,67900.01000000,67918.61000000,67720.98000000,67795.40000000,114.55717000
1772874000000,67795.40000000,67970.88000000,67738.31000000,67970.87000000,91.16837000
1772874900000,67970.87000000,68074.97000000,67924.15000000,67958.52000000,91.83058000
1772875800000,67958.52000000,68029.99000000,67940.68000000,67965.98000000,79.62067000
1772876700000,67965.97000000,68032.86000000,67963.39000000,68000.00000000,69.84257000
1772877600000,68000.00000000,68102.73000000,67964.26000000,68093.04000000,110.59855000
1772878500000,68093.04000000,68093.04000000,67913.22000000,67972.08000000,91.38280000
1772879400000,67972.08000000,68000.00000000,67908.37000000,67950.81000000,60.40247000
1772880300000,67950.81000000,67982.58000000,67870.43000000,67880.31000000,57.03657000
1772881200000,67880.31000000,68217.75000000,67841.67000000,68186.93000000,117.62097000
1772882100000,68186.94000000,68232.27000000,68099.09000000,68145.55000000,109.61590000
1772883000000,68145.55000000,68160.66000000,68058.45000000,68132.09000000,80.73693000
1772883900000,68132.09000000,68132.09000000,68010.00000000,68010.01000000,64.26769000
1772884800000,68010.00000000,68083.60000000,67959.20000000,68000.01000000,54.35397000
1772885700000,68000.00000000,68085.41000000,67988.68000000,68025.00000000,211.14938000
1772886600000,68024.99000000,68034.31000000,67920.01000000,67937.64000000,55.01414000
1772887500000,67937.64000000,68022.00000000,67900.01000000,67992.54000000,38.52118000
1772888400000,67992.54000000,68081.16000000,67940.94000000,68038.70000000,71.53566000
1772889300000,68038.69000000,68079.35000000,67961.06000000,67992.43000000,102.32010000
1772890200000,67992.43000000,68048.89000000,67855.82000000,67879.66000000,103.21991000
1772891100000,67879.66000000,67964.17000000,67871.65000000,67931.06000000,41.16069000
1772892000000,67931.06000000,67931.06000000,67609.44000000,67748.01000000,219.24054000
1772892900000,67748.00000000,67829.14000000,67711.79000000,67807.42000000,47.48466000
1772893800000,67807.42000000,68083.79000000,67800.03000000,68016.77000000,152.56916000
1772894700000,68016.77000000,68080.11000000,67978.12000000,68016.70000000,53.98007000
1772895600000,68016.70000000,68020.53000000,67916.37000000,67920.17000000,293.40944000
1772896500000,67920.18000000,67987.89000000,67856.71000000,67962.07000000,121.37896000
1772897400000,67962.06000000,68034.67000000,67782.87000000,67824.68000000,101.89572000
1772898300000,67824.68000000,67914.61000000,67769.89000000,67877.45000000,61.16056000
1772899200000,67877.45000000,67889.68000000,67800.01000000,67879.57000000,49.01475000
1772900100000,67879.57000000,67883.24000000,67754.00000000,67772.22000000,124.18383000
1772901000000,67772.23000000,67831.39000000,67702.20000000,67788.22000000,100.62693000
1772901900000,67788.21000000,67832.96000000,67758.03000000,67783.63000000,75.44359000
1772902800000,67783.63000000,67860.00000000,67783.62000000,67838.59000000,37.88125000
1772903700000,67838.58000000,67935.01000000,67814.35000000,67882.83000000,46.68175000
1772904600000,67882.83000000,67882.84000000,67861.48000000,67882.83000000,56.39801000
1772905500000,67882.83000000,67888.25000000,67768.97000000,67788.41000000,76.72003000
1772906400000,67788.40000000,67788.41000000,67480.00000000,67624.70000000,180.63249000
1772907300000,67624.70000000,67696.00000000,67578.05000000,67662.00000000,413.72684000
1772908200000,67662.00000000,67666.04000000,67489.97000000,67663.00000000,355.33344000
1772909100000,67663.01000000,67672.29000000,67557.79000000,67568.13000000,230.55505000
1772910000000,67568.13000000,67572.35000000,67500.00000000,67500.01000000,142.52809000
1772910900000,67500.00000000,67558.00000000,67177.00000000,67227.72000000,315.88850000
1772911800000,67227.71000000,67347.15000000,67195.40000000,67211.99000000,391.96284000
1772912700000,67211.99000000,67275.75000000,66915.26000000,67080.34000000,461.85077000
1772913600000,67080.33000000,67292.23000000,67068.01000000,67242.67000000,141.01616000
1772914500000,67242.68000000,67305.39000000,67192.58000000,67250.47000000,65.86565000
1772915400000,67250.48000000,67419.35000000,67250.48000000,67395.55000000,105.76640000
1772916300000,67395.56000000,67437.50000000,67313.41000000,67402.98000000,277.82297000
1772917200000,67402.98000000,67483.05000000,67345.17000000,67402.02000000,116.74590000
1772918100000,67402.02000000,67472.89000000,67390.01000000,67448.56000000,178.38471000
1772919000000,67448.56000000,67460.89000000,67281.34000000,67369.99000000,101.56596000
1772919900000,67369.99000000,67452.98000000,67291.62000000,67452.98000000,242.30338000
1772920800000,67452.97000000,67469.87000000,67322.44000000,67332.35000000,65.03047000
1772921700000,67332.34000000,67372.50000000,67259.82000000,67276.43000000,61.95112000
1772922600000,67276.43000000,67314.88000000,67101.31000000,67241.00000000,309.38666000
1772923500000,67241.00000000,67364.11000000,67221.05000000,67258.65000000,270.44499000
1772924400000,67258.65000000,67381.66000000,67183.39000000,67329.39000000,78.61951000
1772925300000,67329.39000000,67403.85000000,67315.12000000,67378.22000000,184.47894000
1772926200000,67378.23000000,67398.26000000,67317.82000000,67339.36000000,70.72631000
1772927100000,67339.36000000,67365.99000000,67234.46000000,67262.91000000,61.14001000
1772928000000,67262.91000000,67461.22000000,67258.94000000,67395.99000000,122.88486000
1772928900000,67395.99000000,67481.96000000,67326.36000000,67347.61000000,121.70484000
1772929800000,67347.62000000,67365.78000000,67247.23000000,67326.01000000,196.76299000
1772930700000,67326.01000000,67326.01000000,67181.04000000,67194.77000000,110.91785000
1772931600000,67194.77000000,67311.68000000,67158.00000000,67277.16000000,71.78384000
1772932500000,67277.16000000,67321.12000000,67219.75000000,67219.99000000,193.74948000
1772933400000,67220.00000000,67316.97000000,67090.00000000,67310.81000000,258.80835000
1772934300000,67310.82000000,67353.57000000,67291.51000000,67297.27000000,41.51396000
1772935200000,67297.27000000,67318.00000000,67217.57000000,67317.99000000,121.93258000
1772936100000,67317.99000000,67353.57000000,67208.73000000,67223.65000000,182.82348000
1772937000000,67223.64000000,67426.52000000,67114.53000000,67404.29000000,157.43651000
1772937900000,67404.29000000,67404.29000000,66833.58000000,66925.44000000,303.71454000
1772938800000,66925.45000000,67029.82000000,66850.00000000,66976.70000000,260.13326000
1772939700000,66976.69000000,67083.10000000,66976.69000000,67005.10000000,96.14735000
1772940600000,67005.10000000,67047.57000000,66940.47000000,66994.82000000,242.65576000
1772941500000,66994.81000000,67071.04000000,66969.99000000,67000.26000000,400.46987000
1772942400000,67000.26000000,67076.40000000,66931.29000000,67029.30000000,403.20249000
1772943300000,67029.31000000,67100.01000000,66965.65000000,67008.78000000,258.09446000
1772944200000,67008.78000000,67017.80000000,66914.81000000,66960.41000000,126.46362000
1772945100000,66960.41000000,66965.10000000,66547.15000000,66637.36000000,419.12257000
1772946000000,66637.35000000,66988.57000000,66617.76000000,66978.72000000,99.43318000
1772946900000,66978.71000000,67197.11000000,66959.41000000,67126.61000000,114.98995000
1772947800000,67126.61000000,67207.88000000,67104.00000000,67192.25000000,54.11905000
1772948700000,67192.25000000,67250.24000000,67132.84000000,67149.93000000,133.46135000
1772949600000,67149.93000000,67231.86000000,67092.41000000,67099.27000000,51.61334000
1772950500000,67099.26000000,67167.41000000,67046.92000000,67055.04000000,81.52758000
1772951400000,67055.04000000,67146.96000000,67035.18000000,67120.00000000,43.05228000
1772952300000,67120.00000000,67220.73000000,67114.98000000,67161.52000000,70.43915000
1772953200000,67161.52000000,67423.22000000,67154.91000000,67384.20000000,182.03754000
1772954100000,67384.20000000,67465.11000000,67288.80000000,67368.15000000,316.39073000
1772955000000,67368.14000000,67378.06000000,67264.00000000,67313.44000000,332.96957000
1772955900000,67313.44000000,67332.00000000,67249.67000000,67319.91000000,179.18118000
1772956800000,67319.90000000,67399.01000000,67168.54000000,67239.55000000,401.60012000
1772957700000,67239.55000000,67302.54000000,67156.93000000,67276.85000000,189.10005000
1772958600000,67276.85000000,67564.52000000,67232.97000000,67500.11000000,333.20263000
1772959500000,67500.11000000,67577.36000000,67445.56000000,67539.33000000,84.72180000
1772960400000,67539.34000000,67846.15000000,67474.00000000,67762.83000000,240.77551000
1772961300000,67762.83000000,67905.03000000,67706.54000000,67847.63000000,443.28544000
1772962200000,67847.63000000,67856.67000000,67720.98000000,67752.19000000,172.61308000
1772963100000,67752.20000000,67764.28000000,67680.99000000,67681.00000000,255.20454000
1772964000000,67681.00000000,67879.30000000,67680.99000000,67879.29000000,142.86961000
1772964900000,67879.29000000,68200.00000000,67854.13000000,68057.83000000,218.93721000
1772965800000,68057.82000000,68077.36000000,67943.09000000,67985.01000000,206.05468000
1772966700000,67985.00000000,67985.00000000,67875.38000000,67904.14000000,78.36377000
1772967600000,67904.15000000,67904.15000000,67456.88000000,67556.63000000,183.78078000
1772968500000,67556.64000000,67737.17000000,67553.21000000,67679.48000000,84.91616000
1772969400000,67679.48000000,67810.55000000,67411.76000000,67499.46000000,165.63041000
1772970300000,67499.46000000,67566.49000000,67435.65000000,67515.00000000,102.34849000
1772971200000,67515.00000000,67650.94000000,67000.00000000,67053.16000000,449.45898000
1772972100000,67053.16000000,67444.55000000,66888.00000000,67431.46000000,251.37597000
1772973000000,67431.46000000,67485.95000000,67294.29000000,67412.21000000,127.85176000
1772973900000,67412.21000000,67418.00000000,67295.00000000,67324.72000000,73.72901000
1772974800000,67324.71000000,67431.81000000,66950.00000000,66974.10000000,204.10917000
1772975700000,66974.09000000,67199.54000000,66813.92000000,67163.88000000,1027.36790000
1772976600000,67163.88000000,67163.88000000,66761.68000000,67054.56000000,522.97791000
1772977500000,67054.57000000,67321.81000000,67051.43000000,67234.86000000,233.13472000
1772978400000,67234.86000000,67394.54000000,67200.00000000,67291.68000000,121.56731000
1772979300000,67291.67000000,67426.69000000,67246.92000000,67265.54000000,110.36575000
1772980200000,67265.54000000,67388.17000000,67056.94000000,67130.90000000,397.39189000
1772981100000,67130.90000000,67353.92000000,67055.73000000,67339.76000000,65.99204000
1772982000000,67339.75000000,67369.36000000,67207.06000000,67368.88000000,261.48349000
1772982900000,67368.88000000,67368.89000000,67140.95000000,67175.49000000,90.06928000
1772983800000,67175.49000000,67233.27000000,67124.33000000,67146.00000000,186.71392000
1772984700000,67146.00000000,67232.00000000,67080.00000000,67218.23000000,340.89486000
1772985600000,67218.23000000,67268.44000000,67091.76000000,67098.70000000,102.85494000
1772986500000,67098.71000000,67150.26000000,67040.00000000,67113.90000000,74.36683000
1772987400000,67113.90000000,67113.91000000,66841.33000000,67004.36000000,129.33796000
1772988300000,67004.35000000,67004.35000000,66802.47000000,66872.15000000,232.19617000
1772989200000,66872.15000000,67179.98000000,66800.01000000,67150.00000000,211.52947000
1772990100000,67150.01000000,67162.37000000,67051.93000000,67070.24000000,224.94101000
1772991000000,67070.24000000,67116.00000000,66982.16000000,67056.08000000,53.12545000
1772991900000,67056.09000000,67127.01000000,66942.20000000,67065.00000000,322.83253000
1772992800000,67065.00000000,67076.00000000,66900.00000000,66913.41000000,44.69073000
1772993700000,66913.42000000,66993.18000000,66763.82000000,66930.67000000,157.33134000
1772994600000,66930.68000000,66991.66000000,66747.71000000,66816.22000000,176.84029000
1772995500000,66816.23000000,66892.73000000,66745.54000000,66804.00000000,109.11543000
1772996400000,66803.99000000,67076.09000000,66779.82000000,67015.18000000,176.94194000
1772997300000,67015.18000000,67269.32000000,67000.33000000,67199.54000000,159.78326000
1772998200000,67199.54000000,67385.65000000,67199.54000000,67355.72000000,287.70875000
1772999100000,67356.65000000,67485.24000000,67274.40000000,67337.42000000,86.67274000
1773000000000,67337.41000000,67337.42000000,67091.01000000,67101.68000000,160.38971000
1773000900000,67101.68000000,67220.51000000,67031.79000000,67031.79000000,83.14780000
1773001800000,67031.80000000,67609.08000000,67028.45000000,67352.01000000,767.24505000
1773002700000,67352.00000000,67397.33000000,67200.00000000,67238.80000000,134.14971000
1773003600000,67238.79000000,67266.00000000,66712.69000000,66779.83000000,372.66492000
1773004500000,66779.83000000,66996.69000000,66778.61000000,66936.05000000,118.47145000
1773005400000,66936.42000000,67028.45000000,66894.69000000,67022.99000000,244.66852000
1773006300000,67022.98000000,67047.71000000,66921.99000000,67020.01000000,223.23042000
1773007200000,67020.01000000,67020.01000000,65684.77000000,66078.00000000,1624.98267000
1773008100000,66077.99000000,66180.57000000,65618.49000000,65915.08000000,567.39880000
1773009000000,65915.09000000,66282.87000000,65728.70000000,66045.09000000,360.02452000
1773009900000,66045.09000000,66309.53000000,66045.09000000,66236.80000000,189.61836000
1773010800000,66236.80000000,66436.47000000,66116.24000000,66328.45000000,175.86488000
1773011700000,66328.45000000,66569.24000000,66250.00000000,66470.01000000,147.27962000
1773012600000,66470.01000000,66514.31000000,66115.82000000,66121.73000000,118.57925000
1773013500000,66121.72000000,66224.27000000,65930.30000000,65971.20000000,238.22869000
1773014400000,65971.20000000,66402.23000000,65944.10000000,66324.43000000,175.61856000
1773015300000,66324.43000000,66378.15000000,65821.97000000,66170.40000000,220.49627000
1773016200000,66170.41000000,66773.00000000,66170.41000000,66448.00000000,384.30014000
1773017100000,66448.00000000,66564.00000000,66287.06000000,66370.01000000,170.94041000
1773018000000,66370.01000000,66433.42000000,66131.25000000,66363.19000000,513.76586000
1773018900000,66363.19000000,66650.74000000,66235.46000000,66480.85000000,1200.11345000
1773019800000,66480.84000000,66698.05000000,66401.25000000,66623.21000000,340.18594000
1773020700000,66623.20000000,66639.64000000,66182.20000000,66196.01000000,209.72357000
1773021600000,66196.01000000,66354.00000000,66009.10000000,66173.84000000,230.99370000
1773022500000,66173.84000000,66173.84000000,65959.00000000,66120.30000000,202.06127000
1773023400000,66120.30000000,66579.21000000,66092.63000000,66573.75000000,183.03765000
1773024300000,66573.75000000,66707.58000000,66529.07000000,66537.32000000,136.47852000
1773025200000,66537.32000000,67456.00000000,66512.88000000,67452.00000000,536.90699000
1773026100000,67451.99000000,67668.64000000,67092.77000000,67223.52000000,416.94076000
1773027000000,67223.52000000,67381.66000000,67072.40000000,67099.40000000,165.09674000
1773027900000,67099.40000000,67253.75000000,67050.00000000,67205.05000000,137.35033000
1773028800000,67205.06000000,67288.29000000,67166.42000000,67177.45000000,123.87137000
1773029700000,67177.44000000,67610.00000000,67170.22000000,67575.86000000,154.03710000
1773030600000,67575.86000000,67575.86000000,67411.10000000,67506.04000000,201.15620000
1773031500000,67506.03000000,67528.84000000,67093.09000000,67130.14000000,369.41295000
1773032400000,67131.10000000,67257.44000000,67113.02000000,67157.00000000,84.15150000
1773033300000,67157.01000000,67415.71000000,67130.49000000,67389.83000000,96.27160000
