timestamp,open,high,low,close,volume
1774560000000,68936.30,69213.30,68936.20,69116.10,996.987
1774560300000,69116.00,69116.00,68933.40,69051.70,602.150
1774560600000,69051.70,69100.00,68946.20,69032.60,448.246
1774560900000,69032.60,69050.30,68940.90,68963.40,251.919
1774561200000,68963.40,69050.40,68921.10,68992.00,284.373
1774561500000,68992.10,68995.50,68929.70,68974.40,139.161
1774561800000,68974.50,68977.10,68870.60,68901.90,255.604
1774562100000,68901.90,68943.60,68871.30,68885.80,286.914
1774562400000,68885.80,68982.20,68863.70,68898.90,261.367
1774562700000,68898.80,69000.00,68826.60,68864.60,292.051
1774563000000,68864.50,68996.90,68861.00,68928.90,347.600
1774563300000,68928.90,68949.40,68878.80,68915.00,159.351
1774563600000,68915.00,68926.20,68644.80,68732.30,1053.978
1774563900000,68732.30,68800.00,68542.50,68718.30,1229.761
1774564200000,68718.30,68804.50,68674.50,68798.10,547.776
1774564500000,68798.00,68798.00,68750.00,68764.40,308.708
1774564800000,68764.40,68795.70,68734.50,68768.60,188.946
1774565100000,68768.60,68799.40,68739.40,68797.90,214.572
1774565400000,68797.90,68824.70,68736.50,68821.60,317.886
1774565700000,68821.50,68862.50,68796.70,68862.50,180.577
1774566000000,68862.50,68968.90,68862.40,68923.80,553.795
1774566300000,68923.80,68939.20,68815.00,68815.10,184.691
1774566600000,68815.00,68841.40,68747.50,68789.80,496.758
1774566900000,68789.80,68822.80,68757.50,68822.80,212.302
1774567200000,68822.80,68822.80,68626.30,68676.10,597.604
1774567500000,68676.00,68708.50,68600.00,68708.50,451.464
1774567800000,68708.60,68711.30,68616.70,68656.60,280.372
1774568100000,68656.60,68752.30,68656.60,68679.60,246.211
1774568400000,68679.60,68730.00,68675.00,68726.70,143.400
1774568700000,68726.60,68762.70,68704.10,68762.70,134.360
1774569000000,68762.80,68818.80,68750.00,68803.70,210.945
1774569300000,68803.70,68816.20,68765.40,68788.00,151.373
1774569600000,68788.10,68804.50,68643.90,68752.90,1319.948
1774569900000,68752.80,68912.90,68741.40,68904.40,500.380
1774570200000,68904.40,68942.20,68823.30,68894.20,581.872
1774570500000,68894.20,68922.90,68835.00,68879.30,344.756
1774570800000,68879.30,68888.40,68702.80,68776.80,295.292
1774571100000,68776.80,68778.10,68688.20,68689.60,256.267
1774571400000,68689.60,68728.60,68658.60,68697.60,411.972
1774571700000,68697.70,68710.70,68458.50,68570.00,1014.088
1774572000000,68569.90,68752.40,68561.00,68679.60,633.299
1774572300000,68679.70,68679.70,68561.50,68607.60,249.023
1774572600000,68607.60,68734.00,68607.50,68694.70,294.644
1774572900000,68694.60,68757.20,68694.60,68746.40,146.437
1774573200000,68746.40,68822.20,68741.20,68742.90,416.215
1774573500000,68743.00,68772.60,68654.80,68768.60,287.015
1774573800000,68768.70,68843.70,68768.60,68829.90,319.632
1774574100000,68830.00,68893.60,68794.80,68847.40,430.803
1774574400000,68847.30,68900.80,68793.30,68894.00,232.889
1774574700000,68894.00,68919.70,68860.90,68877.00,200.177
1774575000000,68877.10,68907.70,68837.20,68850.00,260.425
1774575300000,68850.00,68877.50,68808.20,68837.00,154.792
1774575600000,68837.10,68882.20,68827.90,68867.60,157.625
1774575900000,68867.60,68952.10,68841.20,68939.30,236.002
1774576200000,68939.20,68940.10,68888.80,68930.10,179.860
1774576500000,68930.10,69033.30,68930.10,69016.40,532.024
1774576800000,69016.50,69094.00,69008.30,69066.00,517.425
1774577100000,69066.00,69084.70,69009.00,69084.70,287.595
1774577400000,69084.70,69142.70,69011.00,69017.70,403.861
1774577700000,69017.70,69017.80,68949.30,68963.00,183.831
1774578000000,68962.90,68998.40,68927.10,68960.00,179.971
1774578300000,68960.00,68990.30,68917.70,68990.20,120.397
1774578600000,68990.30,69043.30,68969.00,68976.20,213.122
1774578900000,68976.20,68979.20,68902.30,68902.30,132.179
1774579200000,68902.30,68915.00,68815.50,68885.00,269.695
1774579500000,68884.90,68911.90,68855.50,68888.70,130.931
1774579800000,68888.80,68947.30,68888.70,68909.40,115.902
1774580100000,68909.40,68919.50,68838.60,68870.80,164.175
1774580400000,68870.80,68888.40,68820.30,68820.30,156.389
1774580700000,68820.30,68820.40,68621.50,68680.50,1064.397
1774581000000,68680.40,68763.80,68630.00,68711.10,832.389
1774581300000,68711.20,68770.10,68699.40,68762.40,249.587
1774581600000,68762.30,68788.40,68679.40,68708.50,159.531
1774581900000,68708.60,68806.50,68708.60,68793.50,133.410
1774582200000,68793.60,68827.30,68759.90,68801.10,141.843
1774582500000,68801.10,68873.00,68787.40,68851.90,258.494
1774582800000,68851.80,68877.30,68825.00,68825.10,123.055
1774583100000,68825.10,68836.50,68792.40,68818.70,163.022
1774583400000,68818.60,68828.50,68795.50,68799.40,128.248
1774583700000,68799.40,68799.40,68725.80,68728.80,197.561
1774584000000,68728.80,68764.50,68353.60,68499.80,2658.614
1774584300000,68499.90,68536.40,68257.20,68296.00,1586.269
1774584600000,68295.90,68368.80,68273.50,68367.80,574.458
1774584900000,68367.90,68470.90,68350.70,68461.20,533.058
1774585200000,68461.20,68530.20,68450.00,68450.00,356.165
1774585500000,68450.00,68508.90,68428.10,68496.20,281.807
1774585800000,68496.20,68569.60,68463.30,68555.30,414.789
1774586100000,68555.20,68586.00,68546.30,68559.70,249.408
1774586400000,68559.60,68579.10,68536.00,68543.90,223.205
1774586700000,68543.90,68599.20,68543.80,68583.80,188.412
1774587000000,68583.70,68593.20,68544.30,68553.60,144.835
1774587300000,68553.60,68598.00,68527.00,68540.20,307.861
1774587600000,68540.10,68552.90,68508.80,68542.40,274.121
1774587900000,68542.50,68700.00,68515.90,68676.60,592.022
1774588200000,68676.60,68796.90,68640.70,68773.60,597.883
1774588500000,68773.60,68830.00,68740.20,68749.10,586.356
1774588800000,68749.10,68749.20,68640.00,68646.50,326.778
1774589100000,68646.50,68646.50,68546.10,68562.60,310.275
1774589400000,68562.50,68580.00,68453.60,68542.60,408.079
1774589700000,68542.50,68668.40,68538.40,68538.40,307.999
1774590000000,68538.10,68598.60,68513.60,68564.50,212.572
1774590300000,68564.50,68587.40,68547.20,68559.40,157.941
1774590600000,68559.30,68576.60,68522.90,68563.40,172.495
1774590900000,68563.40,68595.20,68563.10,68588.80,86.941
1774591200000,68588.80,68600.00,68563.20,68568.00,114.126
1774591500000,68567.90,68686.20,68530.60,68677.50,188.015
1774591800000,68677.40,68722.60,68643.00,68714.70,294.871
1774592100000,68714.70,68731.10,68670.70,68722.50,260.977
1774592400000,68722.60,68763.70,68689.00,68763.60,183.246
1774592700000,68763.60,68811.00,68704.30,68754.30,469.103
1774593000000,68754.20,68793.30,68702.60,68758.20,359.911
1774593300000,68758.10,68774.60,68702.60,68702.60,134.064
1774593600000,68702.60,68732.30,68692.30,68702.90,124.006
1774593900000,68702.90,68702.90,68610.00,68666.30,272.351
1774594200000,68666.40,68683.30,68654.10,68672.90,125.553
1774594500000,68672.90,68677.40,68600.00,68621.50,271.004
1774594800000,68621.50,68659.20,68619.30,68648.50,191.981
1774595100000,68648.60,68659.50,68570.00,68579.10,248.363
1774595400000,68579.10,68882.90,68576.90,68830.60,1097.162
1774595700000,68830.50,68903.00,68770.00,68878.70,638.501
1774596000000,68878.70,68925.00,68841.60,68841.70,507.216
1774596300000,68841.60,68911.10,68840.00,68883.80,247.966
1774596600000,68883.70,68918.00,68705.60,68723.30,717.200
1774596900000,68723.20,68723.30,68614.30,68623.90,686.045
1774597200000,68623.80,68633.50,68482.80,68562.50,1418.961
1774597500000,68562.50,68590.00,68502.00,68553.60,742.245
1774597800000,68553.50,68599.00,68517.40,68567.90,681.159
1774598100000,68567.80,68567.90,68416.50,68501.70,1091.192
1774598400000,68501.80,68619.90,68445.70,68550.10,956.198
1774598700000,68550.10,68550.10,68437.90,68452.40,364.240
1774599000000,68452.30,68472.80,68410.10,68429.50,474.364
1774599300000,68429.40,68476.20,68329.40,68338.00,916.917
1774599600000,68338.10,68381.90,68288.10,68339.50,816.506
1774599900000,68339.50,68361.60,68181.00,68200.90,1027.240
1774600200000,68201.00,68268.80,68170.80,68195.30,665.622
1774600500000,68195.40,68209.10,67560.00,67635.40,7555.436
1774600800000,67635.40,67790.60,67577.10,67780.50,2024.051
1774601100000,67780.40,67842.20,67720.00,67806.30,1029.803
1774601400000,67806.30,68030.00,67796.60,67924.80,1768.363
1774601700000,67924.80,67941.30,67866.40,67876.60,552.071
1774602000000,67876.70,67906.60,67745.70,67789.00,1535.298
1774602300000,67789.00,67789.00,67621.50,67639.90,1039.287
1774602600000,67639.80,67756.50,67500.20,67709.90,1552.593
1774602900000,67710.00,67826.50,67700.60,67811.60,639.250
1774603200000,67811.50,67854.40,67799.20,67822.20,437.536
1774603500000,67822.20,67912.10,67822.10,67901.50,421.371
1774603800000,67901.60,67905.50,67740.30,67755.20,759.054
1774604100000,67755.10,67800.00,67699.90,67761.50,442.764
1774604400000,67761.50,67767.70,67671.00,67685.30,533.146
1774604700000,67685.30,67818.00,67685.30,67789.60,368.492
1774605000000,67789.70,67850.90,67758.80,67802.20,395.300
1774605300000,67802.20,67809.10,67632.00,67651.90,810.624
1774605600000,67652.00,67735.30,67565.70,67638.40,734.331
1774605900000,67638.30,67713.50,67606.50,67681.90,330.892
1774606200000,67682.00,67692.80,67607.10,67625.30,267.150
1774606500000,67625.10,67709.20,67615.80,67654.20,217.841
1774606800000,67654.20,67737.90,67650.10,67695.10,269.738
1774607100000,67695.10,67737.90,67645.30,67725.50,256.691
1774607400000,67725.60,67734.30,67633.60,67649.50,335.492
1774607700000,67649.60,67649.60,66770.90,66942.80,10922.844
1774608000000,66942.80,67004.50,66720.40,66846.60,3920.131
1774608300000,66846.70,66891.70,66709.30,66767.90,2233.322
1774608600000,66767.90,66899.70,66508.00,66599.80,3138.259
1774608900000,66599.20,66599.20,66257.40,66456.40,3976.262
1774609200000,66456.40,66509.40,66175.40,66413.00,3114.208
1774609500000,66413.10,66492.90,66356.30,66360.40,1189.888
1774609800000,66360.40,66588.00,66360.30,66574.30,1471.695
1774610100000,66574.40,66687.30,66556.40,66646.10,1691.604
1774610400000,66646.10,66713.70,66590.00,66598.80,933.517
1774610700000,66598.80,66696.00,66575.80,66673.80,528.404
1774611000000,66673.70,66715.00,66612.00,66662.10,587.596
1774611300000,66662.20,66694.60,66603.00,66670.90,611.210
1774611600000,66670.80,66733.60,66656.60,66725.70,519.109
1774611900000,66725.80,66810.90,66682.60,66751.90,666.861
1774612200000,66752.00,66761.00,66625.40,66707.10,778.076
1774612500000,66707.10,66720.00,66633.90,66663.20,475.141
1774612800000,66663.30,66714.00,66593.00,66598.80,653.132
1774613100000,66598.80,66742.20,66580.00,66657.80,484.435
1774613400000,66657.80,66696.60,66563.00,66603.20,568.183
1774613700000,66603.20,66683.10,66573.70,66625.60,328.182
1774614000000,66625.50,66633.70,66524.00,66567.90,419.678
1774614300000,66568.00,66584.60,66481.80,66500.80,729.530
1774614600000,66500.70,66572.00,66420.00,66424.70,893.279
1774614900000,66424.70,66605.00,66388.00,66565.90,592.714
1774615200000,66565.90,66586.50,66520.00,66579.10,311.448
1774615500000,66579.10,66650.00,66446.10,66449.40,576.720
1774615800000,66449.40,66577.20,66441.80,66568.70,274.049
1774616100000,66568.70,66600.00,66541.60,66579.40,252.424
1774616400000,66579.40,66699.90,66579.30,66634.40,556.960
1774616700000,66634.40,66634.40,66496.80,66528.10,348.975
1774617000000,66528.10,66533.70,66479.80,66500.20,351.107
1774617300000,66500.10,66540.10,66452.00,66519.40,415.015
1774617600000,66519.40,66643.30,66519.30,66618.00,498.001
1774617900000,66617.90,66689.80,66611.40,66658.50,591.768
1774618200000,66658.60,66693.50,66309.70,66319.80,2069.056
1774618500000,66319.70,66459.70,66025.40,66411.10,3313.236
1774618800000,66411.10,66615.20,66389.30,66467.40,2027.788
1774619100000,66467.40,66538.00,66373.70,66385.90,880.938
1774619400000,66385.80,66386.20,66181.40,66198.20,1392.867
1774619700000,66198.30,66198.30,65950.00,66153.90,2936.790
1774620000000,66153.90,66274.40,66054.70,66271.10,1820.459
1774620300000,66271.10,66350.00,66233.80,66279.60,1163.696
1774620600000,66279.60,66375.20,66157.90,66321.00,871.274
1774620900000,66320.90,66340.60,66056.10,66088.30,857.514
1774621200000,66088.40,66095.20,65750.80,65882.50,4246.291
1774621500000,65882.40,65926.70,65681.50,65694.30,2930.567
1774621800000,65694.10,65890.10,65691.10,65855.50,1701.283
1774622100000,65855.50,65991.60,65712.00,65767.80,1390.427
1774622400000,65767.70,65879.50,65742.80,65862.60,993.464
1774622700000,65862.60,65921.80,65742.20,65921.80,741.400
1774623000000,65921.70,66058.00,65908.70,65943.50,1628.365
1774623300000,65943.50,66206.30,65943.50,66162.70,2452.411
1774623600000,66162.70,66238.00,66149.40,66194.60,1542.085
1774623900000,66194.50,66248.60,66052.00,66201.20,1342.358
1774624200000,66201.30,66265.20,66160.00,66209.80,1181.061
1774624500000,66209.80,66260.00,66060.00,66060.00,1248.351
1774624800000,66060.00,66435.60,65930.30,66170.30,2461.233
1774625100000,66170.20,66318.00,66084.70,66307.00,1741.226
1774625400000,66307.00,66498.90,66258.10,66498.90,1608.429
1774625700000,66498.90,66615.00,66401.00,66444.00,2325.016
1774626000000,66444.00,66450.00,66301.00,66372.50,877.261
1774626300000,66372.60,66438.90,66275.10,66318.10,1093.342
1774626600000,66318.20,66365.70,66157.30,66184.70,887.754
1774626900000,66184.60,66184.60,66051.20,66092.00,1232.585
1774627200000,66091.90,66092.00,65900.00,65922.40,1748.793
1774627500000,65922.40,65936.80,65731.80,65806.80,2467.018
1774627800000,65806.90,65980.00,65806.80,65943.30,989.285
1774628100000,65943.20,65958.40,65800.10,65944.10,791.973
1774628400000,65944.00,66070.60,65821.10,65823.90,1007.894
1774628700000,65823.90,65959.60,65780.00,65926.50,523.616
1774629000000,65926.60,65935.00,65862.90,65918.90,381.487
1774629300000,65918.90,65960.00,65782.00,65817.70,536.263
1774629600000,65817.70,66000.00,65785.00,65992.10,773.058
1774629900000,65992.10,66149.60,65937.70,66021.30,1342.221
1774630200000,66021.30,66021.30,65808.60,65919.60,581.092
1774630500000,65919.30,65988.50,65880.50,65945.50,297.241
1774630800000,65945.50,66017.90,65900.10,66001.80,496.416
1774631100000,66001.70,66267.40,65971.40,66132.80,1536.930
1774631400000,66132.80,66182.30,66106.60,66178.50,416.253
1774631700000,66178.40,66248.50,66055.50,66083.50,649.031
1774632000000,66083.60,66083.60,65872.20,65917.50,1320.237
1774632300000,65917.50,65920.10,65828.10,65828.10,576.435
1774632600000,65828.10,65901.30,65706.10,65865.80,942.984
1774632900000,65865.90,65895.20,65775.60,65840.10,360.467
1774633200000,65840.00,65894.40,65550.00,65589.90,2223.245
1774633500000,65589.90,65711.80,65556.20,65618.00,1073.386
1774633800000,65617.90,65707.00,65575.60,65646.90,572.255
1774634100000,65646.90,65685.20,65580.00,65604.00,558.406
1774634400000,65604.00,65733.80,65595.40,65648.50,685.996
1774634700000,65648.50,65762.60,65647.20,65677.30,510.170
1774635000000,65677.30,65729.80,65555.00,65590.10,609.147
1774635300000,65590.10,65807.80,65579.50,65770.80,631.279
1774635600000,65770.80,65838.50,65501.00,65570.80,770.686
1774635900000,65570.90,65750.00,65550.10,65728.00,716.730
1774636200000,65728.10,65838.00,65696.20,65806.20,910.823
1774636500000,65806.10,65838.20,65750.00,65794.90,296.919
1774636800000,65794.80,65848.70,65693.50,65771.90,611.352
1774637100000,65771.90,65867.10,65763.40,65858.20,401.247
1774637400000,65858.20,65939.10,65792.50,65815.20,448.022
1774637700000,65815.20,65855.00,65779.70,65804.00,205.542
1774638000000,65804.00,65823.80,65723.60,65736.90,303.482
1774638300000,65736.90,65793.70,65666.60,65762.60,443.672
1774638600000,65762.60,65774.00,65702.00,65750.40,321.232
1774638900000,65750.30,65910.00,65704.50,65888.30,507.781
1774639200000,65888.40,65901.50,65817.60,65853.50,364.542
1774639500000,65853.40,65910.00,65820.50,65892.50,263.385
1774639800000,65892.50,66019.90,65892.50,65968.70,614.447
1774640100000,65968.70,66000.10,65914.00,65960.50,345.490
1774640400000,65960.40,65963.70,65837.80,65895.10,394.853
1774640700000,65895.20,65942.00,65842.50,65942.00,218.951
1774641000000,65941.90,65980.70,65845.40,65921.90,418.850
1774641300000,65921.90,66119.60,65921.90,66005.40,1599.422
1774641600000,66005.50,66125.80,65975.80,66040.10,880.601
1774641900000,66040.00,66098.90,65981.40,65994.90,427.988
1774642200000,65995.00,66025.10,65959.50,65961.00,424.043
1774642500000,65961.10,66052.00,65960.40,66024.70,362.186
1774642800000,66024.60,66034.50,65957.10,65976.00,242.797
1774643100000,65975.90,65978.10,65766.10,65862.90,702.828
1774643400000,65862.90,65862.90,65783.70,65819.10,238.556
1774643700000,65819.20,65914.20,65800.70,65908.20,190.487
1774644000000,65908.10,65916.20,65844.90,65855.00,255.194
1774644300000,65855.00,65996.90,65844.70,65971.70,214.437
1774644600000,65971.60,66054.00,65963.70,66049.70,446.653
1774644900000,66049.70,66060.40,65972.50,65983.00,312.226
1774645200000,65983.10,66072.20,65972.60,66065.40,199.513
1774645500000,66065.40,66071.50,66044.00,66055.50,149.165
1774645800000,66055.40,66148.00,66027.50,66110.70,420.718
1774646100000,66110.60,66132.10,66066.00,66112.80,206.112
1774646400000,66112.90,66121.70,66089.80,66108.00,99.377
1774646700000,66108.00,66135.00,66101.20,66110.60,130.910
1774647000000,66110.70,66136.10,66105.80,66110.40,116.636
1774647300000,66110.40,66110.40,66003.40,66033.90,231.867
1774647600000,66033.90,66099.80,66002.00,66083.20,169.689
1774647900000,66083.10,66100.00,66053.50,66058.30,97.463
1774648200000,66058.30,66075.80,66012.90,66050.20,109.180
1774648500000,66050.10,66061.80,65989.50,66040.30,301.728
1774648800000,66040.40,66053.20,65993.90,65995.20,171.102
1774649100000,65995.20,65998.20,65909.80,65972.60,223.742
1774649400000,65972.60,65990.90,65939.10,65971.70,250.196
1774649700000,65971.70,65987.40,65943.80,65973.50,252.566
1774650000000,65973.60,65987.00,65964.70,65974.60,70.164
1774650300000,65974.80,65975.90,65903.60,65971.00,334.026
1774650600000,65971.00,66017.40,65950.80,65974.00,307.509
1774650900000,65973.90,65979.50,65874.40,65886.90,172.350
1774651200000,65886.90,66007.00,65886.80,66002.00,166.353
1774651500000,66001.90,66028.50,65990.50,66020.00,168.798
1774651800000,66020.10,66040.10,65981.80,65991.30,120.105
1774652100000,65991.40,66034.60,65973.40,65981.10,235.160
1774652400000,65981.10,65999.50,65959.60,65977.90,136.832
1774652700000,65977.90,66010.00,65931.50,65951.60,153.946
1774653000000,65951.70,66064.80,65951.70,66052.70,210.205
1774653300000,66052.60,66065.10,66024.60,66056.80,186.325
1774653600000,66056.90,66186.60,66056.80,66183.90,355.762
1774653900000,66183.90,66183.90,66137.90,66150.00,280.833
1774654200000,66149.90,66159.10,66118.20,66142.40,385.323
1774654500000,66142.40,66204.00,66134.10,66199.90,252.890
1774654800000,66199.90,66253.60,66163.20,66246.50,327.344
1774655100000,66246.50,66349.90,66246.00,66336.50,696.620
1774655400000,66336.40,66337.50,66277.30,66333.30,422.037
1774655700000,66333.20,66384.00,66314.90,66364.20,320.577
1774656000000,66364.10,66414.80,66311.90,66414.80,428.114
1774656300000,66414.80,66432.70,66314.90,66317.30,381.142
1774656600000,66317.30,66330.80,66239.90,66264.60,416.205
1774656900000,66264.60,66355.00,66264.60,66292.70,175.813
1774657200000,66292.70,66332.60,66292.70,66326.90,87.559
1774657500000,66326.90,66333.10,66289.20,66331.40,232.110
1774657800000,66331.40,66455.30,66331.30,66387.40,444.425
1774658100000,66387.30,66472.40,66387.30,66435.50,288.408
1774658400000,66435.50,66453.20,66377.00,66450.00,310.278
1774658700000,66450.00,66451.60,66395.00,66395.10,175.780
1774659000000,66395.00,66406.20,66366.40,66395.50,250.232
1774659300000,66395.60,66453.50,66381.10,66389.90,120.620
1774659600000,66389.90,66389.90,66283.50,66326.30,252.174
1774659900000,66326.30,66355.00,66255.20,66265.10,176.264
1774660200000,66265.20,66270.00,66039.10,66115.70,956.857
1774660500000,66115.70,66219.90,66110.80,66216.20,448.356
1774660800000,66216.20,66247.20,66205.20,66246.40,152.555
1774661100000,66246.30,66246.30,66162.00,66177.20,130.050
1774661400000,66177.10,66248.80,66173.30,66181.00,171.065
1774661700000,66181.00,66181.00,66006.10,66050.00,579.927
1774662000000,66050.00,66139.30,66043.00,66104.10,317.766
1774662300000,66104.00,66153.00,66095.40,66127.00,181.089
1774662600000,66127.00,66149.00,66082.10,66130.00,141.290
1774662900000,66130.00,66138.00,66067.00,66137.10,281.004
1774663200000,66137.20,66214.00,66115.60,66197.30,284.621
1774663500000,66197.30,66206.50,66125.70,66184.70,238.563
1774663800000,66184.60,66211.20,66155.90,66155.90,135.401
1774664100000,66156.00,66191.50,66000.00,66020.00,480.299
1774664400000,66020.00,66055.10,66000.00,66052.40,369.680
1774664700000,66052.40,66053.60,65970.70,66012.00,448.204
1774665000000,66012.10,66038.00,65888.00,65954.00,622.082
1774665300000,65954.10,66000.00,65933.30,65960.40,354.066
1774665600000,65960.40,66000.00,65950.00,66000.00,184.600
1774665900000,65999.90,66003.50,65927.10,65985.20,335.854
1774666200000,65985.30,66034.30,65985.20,65992.80,254.040
1774666500000,65992.70,66020.20,65985.70,66020.10,179.614
1774666800000,66020.00,66081.70,66020.00,66055.50,278.805
1774667100000,66055.60,66141.10,66055.50,66088.60,440.755
1774667400000,66088.60,66120.00,66083.30,66092.60,173.585
1774667700000,66092.60,66138.30,66092.60,66132.10,145.180
1774668000000,66132.20,66151.80,66121.50,66137.30,162.839
1774668300000,66137.40,66146.00,66105.10,66131.30,265.255
1774668600000,66131.30,66138.80,66103.60,66127.90,117.597
1774668900000,66128.00,66217.50,66120.40,66129.30,296.831
1774669200000,66129.20,66206.50,66129.20,66195.00,136.724
1774669500000,66195.10,66206.00,66143.90,66197.10,189.538
1774669800000,66197.00,66197.10,66142.10,66160.00,98.928
1774670100000,66160.10,66191.80,66160.00,66191.80,155.684
1774670400000,66191.80,66196.60,66110.20,66192.90,301.326
1774670700000,66192.90,66192.90,66094.90,66095.80,178.616
1774671000000,66095.70,66109.90,66068.30,66084.10,174.997
1774671300000,66084.10,66248.00,66084.10,66224.90,443.935
1774671600000,66225.00,66259.90,66221.40,66232.30,176.195
1774671900000,66232.40,66235.40,66204.60,66231.80,70.694
1774672200000,66231.90,66258.70,66229.30,66245.40,110.549
1774672500000,66245.30,66252.00,66220.80,66245.30,94.137
1774672800000,66245.20,66254.80,66212.00,66243.80,108.543
1774673100000,66243.80,66274.70,66232.60,66232.60,134.807
1774673400000,66232.60,66251.00,66232.60,66237.40,104.036
1774673700000,66237.50,66243.60,66193.30,66243.50,131.707
1774674000000,66243.60,66258.80,66192.60,66192.70,123.228
1774674300000,66192.70,66225.00,66190.00,66190.00,118.333
1774674600000,66190.00,66214.60,66169.00,66214.60,117.650
1774674900000,66214.50,66232.30,66188.80,66188.80,172.955
1774675200000,66188.80,66349.00,66186.30,66323.10,342.967
1774675500000,66323.10,66330.00,66283.70,66299.50,221.027
1774675800000,66299.50,66332.40,66290.70,66324.40,104.880
1774676100000,66324.30,66324.30,66273.90,66283.00,75.294
1774676400000,66282.90,66294.10,66245.80,66294.10,285.401
1774676700000,66294.10,66328.60,66276.60,66297.30,184.584
1774677000000,66297.30,66333.00,66297.30,66308.60,323.583
1774677300000,66308.50,66331.50,66303.40,66310.00,152.145
1774677600000,66310.00,66379.50,66270.90,66291.10,456.762
1774677900000,66291.00,66370.00,66291.00,66310.60,116.237
1774678200000,66310.60,66328.50,66286.30,66328.40,100.016
1774678500000,66328.40,66460.00,66321.70,66445.30,481.419
1774678800000,66445.40,66448.90,66383.90,66446.00,251.711
1774679100000,66446.10,66455.50,66391.00,66427.00,182.643
1774679400000,66427.10,66444.00,66404.30,66408.70,136.252
1774679700000,66408.70,66412.00,66382.40,66402.10,231.789
1774680000000,66402.00,66419.00,66392.40,66392.50,186.572
1774680300000,66392.50,66415.50,66315.00,66329.30,242.599
1774680600000,66329.40,66357.10,66320.20,66348.40,146.042
1774680900000,66348.50,66384.50,66341.00,66358.20,150.106
1774681200000,66358.10,66395.70,66352.30,66366.70,162.993
1774681500000,66366.80,66388.00,66341.30,66388.00,107.022
1774681800000,66387.90,66431.70,66380.80,66401.50,126.361
1774682100000,66401.50,66450.00,66393.70,66435.40,143.043
1774682400000,66435.50,66441.40,66426.30,66437.50,136.679
1774682700000,66437.60,66437.60,66410.00,66431.40,145.604
1774683000000,66431.30,66431.40,66393.70,66407.30,163.100
1774683300000,66407.30,66414.60,66391.70,66403.00,127.776
1774683600000,66403.00,66419.80,66403.00,66405.50,182.721
1774683900000,66405.60,66442.10,66403.10,66442.10,197.566
1774684200000,66442.10,66465.00,66434.90,66465.00,288.637
1774684500000,66464.90,66533.90,66459.40,66520.80,645.945
1774684800000,66520.90,66529.40,66450.00,66511.60,501.846
1774685100000,66511.60,66527.60,66452.70,66464.70,352.481
1774685400000,66464.70,66487.40,66430.20,66465.60,168.110
1774685700000,66465.60,66484.10,66462.60,66484.00,124.526
1774686000000,66484.10,66509.40,66484.00,66509.40,124.985
1774686300000,66509.40,66525.00,66495.70,66517.10,217.785
1774686600000,66517.00,66521.40,66475.00,66475.10,144.127
1774686900000,66475.10,66485.80,66410.30,66418.70,231.511
1774687200000,66418.70,66444.70,66380.80,66380.80,258.957
1774687500000,66380.90,66432.00,66380.80,66418.70,210.496
1774687800000,66418.80,66418.80,66353.40,66370.00,264.713
1774688100000,66369.90,66374.90,66352.10,66374.90,147.234
1774688400000,66374.90,66374.90,66305.30,66330.20,370.012
1774688700000,66330.10,66342.80,66272.70,66332.80,425.833
1774689000000,66332.80,66339.80,66302.80,66318.90,96.521
1774689300000,66318.90,66328.20,66250.10,66319.60,496.054
1774689600000,66319.60,66359.80,66319.60,66327.10,210.185
1774689900000,66327.00,66339.80,66315.10,66315.80,138.450
1774690200000,66315.40,66326.30,66240.10,66243.90,218.846
1774690500000,66243.90,66269.30,66228.90,66231.90,227.392
1774690800000,66231.90,66268.80,66211.20,66229.20,155.022
1774691100000,66229.30,66253.80,66212.40,66212.40,181.295
1774691400000,66212.40,66260.60,66203.50,66260.60,170.839
1774691700000,66260.60,66284.20,66253.90,66270.90,105.169
1774692000000,66271.00,66346.80,66252.80,66346.00,145.420
1774692300000,66345.90,66379.90,66333.90,66340.70,207.602
1774692600000,66340.80,66340.80,66280.20,66283.20,109.524
1774692900000,66283.30,66307.90,66250.30,66259.90,128.174
1774693200000,66259.80,66265.40,66184.10,66215.20,444.987
1774693500000,66215.30,66222.00,66114.00,66133.90,596.439
1774693800000,66133.80,66194.90,66100.80,66157.00,353.497
1774694100000,66157.00,66174.90,66087.30,66104.70,251.330
1774694400000,66104.70,66165.80,66104.60,66157.80,206.706
1774694700000,66157.80,66171.40,66140.10,66142.90,116.117
1774695000000,66143.00,66174.20,66142.90,66174.20,162.267
1774695300000,66174.20,66200.00,66160.20,66184.90,177.885
1774695600000,66184.90,66196.90,66162.00,66196.90,111.865
1774695900000,66196.90,66275.60,66194.60,66211.50,355.873
1774696200000,66211.60,66221.10,66166.60,66218.40,255.443
1774696500000,66218.30,66233.10,66200.10,66200.10,90.058
1774696800000,66200.10,66249.90,66200.00,66249.90,124.392
1774697100000,66249.90,66283.60,66241.80,66282.70,148.691
1774697400000,66282.60,66299.90,66266.80,66297.40,124.997
1774697700000,66297.40,66300.00,66262.60,66300.00,408.520
1774698000000,66300.00,66301.30,66272.70,66282.90,81.276
1774698300000,66282.90,66325.70,66270.00,66278.90,251.335
1774698600000,66278.80,66325.70,66278.80,66308.20,222.590
1774698900000,66308.10,66320.00,66288.40,66288.50,77.351
1774699200000,66288.40,66316.80,66260.00,66260.00,182.759
1774699500000,66260.10,66300.00,66191.70,66299.90,285.948
1774699800000,66299.90,66378.00,66299.90,66367.10,304.309
1774700100000,66367.20,66498.10,66367.10,66460.00,1023.265
1774700400000,66460.00,66468.10,66400.10,66413.70,313.513
1774700700000,66413.70,66414.60,66385.00,66402.00,140.286
1774701000000,66402.00,66406.80,66333.30,66341.40,238.290
1774701300000,66341.30,66360.90,66253.60,66306.10,289.864
1774701600000,66306.20,66331.70,66301.90,66327.90,107.745
1774701900000,66327.90,66355.20,66312.60,66355.20,157.422
1774702200000,66355.10,66424.60,66348.50,66396.20,242.352
1774702500000,66396.20,66436.20,66389.50,66416.70,228.149
1774702800000,66416.70,66449.60,66416.00,66435.00,146.864
1774703100000,66434.90,66440.00,66388.00,66440.00,283.609
1774703400000,66440.00,66478.50,66440.00,66440.10,383.852
1774703700000,66440.10,66462.10,66429.70,66435.30,139.762
1774704000000,66435.20,66465.80,66400.70,66410.90,186.841
1774704300000,66411.00,66432.50,66363.60,66432.40,329.846
1774704600000,66432.40,66642.10,66419.50,66590.10,2026.294
1774704900000,66590.00,66704.30,66567.40,66634.50,1609.790
1774705200000,66634.50,67148.70,66633.60,66904.80,5453.865
1774705500000,66904.80,66978.00,66811.60,66811.60,1195.262
1774705800000,66811.70,66857.40,66754.00,66839.30,941.979
1774706100000,66839.40,66839.40,66743.00,66813.30,488.391
1774706400000,66813.40,66826.40,66710.00,66759.80,585.631
1774706700000,66759.70,66900.10,66755.60,66776.30,474.083
1774707000000,66776.30,66812.00,66729.90,66750.00,298.153
1774707300000,66750.00,66788.00,66682.00,66786.60,478.628
1774707600000,66786.60,66823.80,66770.70,66812.40,275.237
1774707900000,66812.40,66812.40,66773.00,66789.00,247.217
1774708200000,66788.90,66810.00,66770.00,66772.90,219.215
1774708500000,66772.90,66773.00,66677.50,66751.10,347.788
1774708800000,66751.10,66918.00,66751.00,66859.60,734.106
1774709100000,66859.70,66942.30,66859.60,66870.00,506.541
1774709400000,66870.00,66884.00,66661.40,66682.70,714.215
1774709700000,66682.80,66744.10,66631.50,66716.20,479.736
1774710000000,66716.10,66746.00,66678.10,66706.00,260.709
1774710300000,66706.10,66801.00,66703.60,66751.60,232.467
1774710600000,66751.50,66869.30,66750.00,66847.10,329.177
1774710900000,66847.10,67059.60,66825.10,67007.30,1656.629
1774711200000,67007.30,67284.00,67004.00,67214.70,3325.609
1774711500000,67214.80,67225.20,66990.00,66994.10,1927.645
1774711800000,66994.10,67103.40,66975.40,67100.00,513.544
1774712100000,67100.00,67120.10,67000.00,67041.40,322.269
1774712400000,67041.30,67041.40,66943.70,67019.00,439.940
1774712700000,67019.00,67038.30,66970.60,66979.90,213.328
1774713000000,66980.00,66980.00,66922.00,66969.90,232.822
1774713300000,66970.00,66994.40,66884.00,66982.30,394.159
1774713600000,66982.40,67000.00,66887.20,66980.10,538.330
1774713900000,66980.10,67060.40,66950.20,67035.90,668.648
1774714200000,67035.90,67035.90,66981.60,66995.10,332.017
1774714500000,66995.10,67065.00,66995.00,67056.00,314.644
1774714800000,67056.00,67059.80,67001.70,67050.00,149.533
1774715100000,67050.00,67065.00,67028.40,67038.90,179.063
1774715400000,67038.90,67038.90,66925.60,66982.40,195.727
1774715700000,66982.30,66986.30,66900.30,66913.30,348.599
1774716000000,66913.40,66913.40,66854.80,66871.70,367.680
1774716300000,66871.60,66911.00,66842.80,66850.00,401.339
1774716600000,66849.90,66884.80,66821.30,66839.10,275.758
1774716900000,66839.10,66902.40,66833.60,66894.30,215.525
1774717200000,66894.30,66947.50,66887.50,66935.20,161.948
1774717500000,66935.20,66965.70,66855.00,66871.20,284.231
1774717800000,66871.20,66907.40,66847.80,66891.50,258.342
1774718100000,66891.60,66891.60,66785.30,66835.30,335.073
1774718400000,66835.20,66835.20,66766.10,66793.40,352.254
1774718700000,66793.30,66810.00,66732.10,66739.90,362.688
1774719000000,66739.90,66769.70,66644.00,66753.60,576.735
1774719300000,66753.60,66889.60,66753.40,66827.10,552.134
1774719600000,66827.20,66827.20,66776.90,66777.10,202.109
1774719900000,66777.10,66799.90,66728.10,66765.70,146.370
1774720200000,66765.60,66793.10,66762.30,66780.10,79.975
1774720500000,66780.10,66841.30,66770.90,66808.60,161.935
1774720800000,66808.60,66891.30,66806.00,66887.40,238.592
1774721100000,66887.40,66894.30,66850.10,66894.30,159.789
1774721400000,66894.20,66900.00,66885.70,66899.90,256.985
1774721700000,66900.00,66900.00,66867.90,66879.20,134.651
1774722000000,66879.20,66882.50,66858.40,66858.40,63.974
1774722300000,66858.40,66907.60,66831.60,66845.70,167.178
1774722600000,66845.70,66892.10,66835.20,66855.00,178.614
1774722900000,66855.00,66862.90,66801.00,66839.70,324.090
1774723200000,66839.70,66920.00,66835.40,66916.50,152.694
1774723500000,66916.40,66916.40,66859.00,66870.30,345.530
1774723800000,66870.30,66870.40,66846.00,66870.00,193.641
1774724100000,66869.90,66901.00,66869.90,66871.10,273.671
1774724400000,66871.20,66916.50,66845.20,66873.80,253.458
1774724700000,66873.80,66899.40,66870.00,66893.50,65.559
1774725000000,66893.50,66893.50,66764.70,66805.60,238.923
1774725300000,66805.50,66815.10,66780.00,66812.90,102.214
1774725600000,66812.80,66831.60,66800.00,66831.60,72.808
1774725900000,66831.60,66831.60,66809.80,66827.80,47.405
1774726200000,66827.80,66841.50,66825.40,66837.80,64.727
1774726500000,66837.80,66845.00,66820.90,66845.00,56.412
1774726800000,66844.90,66864.00,66800.00,66800.10,88.369
1774727100000,66800.00,66833.60,66795.00,66795.00,128.469
1774727400000,66795.00,66832.50,66795.00,66816.00,64.066
1774727700000,66816.10,66873.00,66815.50,66873.00,130.476
1774728000000,66873.00,66978.00,66872.90,66938.70,347.536
1774728300000,66938.70,66967.20,66920.20,66956.10,206.414
1774728600000,66956.10,66968.20,66937.40,66959.00,127.317
1774728900000,66959.00,66973.80,66912.00,66912.00,186.203
1774729200000,66912.00,66954.80,66904.30,66905.70,83.497
1774729500000,66905.60,66909.80,66871.20,66881.70,178.621
1774729800000,66881.60,66968.00,66881.60,66908.80,294.958
1774730100000,66908.80,66955.10,66886.60,66901.30,100.492
1774730400000,66901.30,66901.40,66868.30,66875.80,96.396
1774730700000,66875.90,66922.00,66875.90,66889.50,58.236
1774731000000,66889.40,66941.00,66889.40,66925.10,88.398
1774731300000,66925.20,66925.20,66885.50,66885.50,94.481
1774731600000,66885.60,66890.00,66875.00,66889.90,97.860
1774731900000,66889.90,66890.00,66780.10,66787.00,209.238
1774732200000,66787.00,66811.60,66751.00,66800.10,164.714
1774732500000,66800.00,66818.20,66775.60,66801.60,92.778
1774732800000,66801.50,66807.80,66768.10,66804.60,154.059
1774733100000,66804.60,66814.20,66781.90,66814.20,47.483
1774733400000,66814.20,66814.20,66787.80,66792.20,55.390
1774733700000,66792.20,66835.20,66771.40,66815.80,65.263
1774734000000,66815.70,66859.90,66803.30,66825.00,105.784
1774734300000,66825.00,66825.10,66735.80,66735.90,182.309
1774734600000,66735.80,66754.20,66526.80,66663.30,902.199
1774734900000,66663.40,66693.90,66644.50,66644.80,315.024
1774735200000,66644.90,66675.00,66581.00,66654.30,640.259
1774735500000,66654.20,66691.60,66587.70,66587.70,205.325
1774735800000,66587.70,66627.40,66563.50,66565.50,226.455
1774736100000,66565.50,66722.50,66562.00,66687.60,282.530
1774736400000,66687.60,66757.80,66684.30,66736.20,158.395
1774736700000,66736.20,66757.40,66695.70,66743.50,196.295
1774737000000,66743.50,66758.90,66716.00,66721.80,92.488
1774737300000,66721.90,66730.00,66707.70,66729.90,85.141
1774737600000,66729.90,66729.90,66660.00,66665.20,102.553
1774737900000,66665.10,66740.00,66660.30,66715.20,184.995
1774738200000,66715.30,66734.00,66686.40,66734.00,110.825
1774738500000,66734.00,66734.00,66691.70,66729.00,109.357
1774738800000,66729.00,66729.00,66624.00,66624.90,135.119
1774739100000,66624.90,66650.50,66510.20,66546.90,324.230
1774739400000,66546.90,66547.00,66233.60,66359.50,2033.230
1774739700000,66359.60,66366.10,66248.30,66291.30,848.075
1774740000000,66291.30,66384.90,66291.20,66362.60,538.019
1774740300000,66362.70,66404.80,66350.70,66352.60,477.413
1774740600000,66352.50,66438.90,66352.50,66421.80,804.031
1774740900000,66421.80,66432.10,66391.30,66391.30,119.395
1774741200000,66391.40,66450.00,66343.20,66354.60,166.841
1774741500000,66354.70,66363.70,66271.90,66343.10,248.711
1774741800000,66343.20,66384.30,66317.30,66326.80,178.190
1774742100000,66326.70,66363.70,66325.00,66334.80,175.173
1774742400000,66334.80,66435.10,66317.70,66430.70,373.561
1774742700000,66430.70,66437.80,66348.70,66350.00,162.984
1774743000000,66349.90,66431.10,66343.30,66376.30,290.531
1774743300000,66376.30,66455.50,66364.00,66436.10,189.546
1774743600000,66436.00,66436.10,66235.60,66310.70,396.768
1774743900000,66310.80,66366.20,66285.60,66357.30,124.296
1774744200000,66357.20,66433.90,66346.80,66388.80,168.340
1774744500000,66388.90,66404.20,66323.50,66379.80,187.352
1774744800000,66379.80,66396.90,66341.50,66360.00,180.552
1774745100000,66360.00,66387.20,66353.20,66386.60,102.294
1774745400000,66386.70,66468.60,66368.90,66380.20,217.332
1774745700000,66380.30,66465.00,66380.30,66444.40,154.448
1774746000000,66444.30,66517.10,66440.60,66488.80,233.667
1774746300000,66488.70,66560.00,66462.90,66462.90,526.220
1774746600000,66462.90,66534.60,66458.30,66515.00,427.494
1774746900000,66514.90,66552.60,66494.50,66531.60,178.649
1774747200000,66531.60,66585.90,66503.00,66503.10,186.561
1774747500000,66503.00,66530.10,66481.40,66516.70,85.116
1774747800000,66516.60,66525.40,66450.00,66454.90,142.068
1774748100000,66455.00,66462.00,66344.20,66350.10,236.611
1774748400000,66350.10,66453.50,66345.30,66439.10,167.445
1774748700000,66439.00,66465.60,66381.00,66465.60,106.527
1774749000000,66465.60,66566.60,66450.00,66465.30,575.981
1774749300000,66465.30,66542.90,66458.00,66536.10,269.197
1774749600000,66536.00,66575.30,66500.40,66554.60,310.315
1774749900000,66554.60,66591.10,66544.20,66562.60,276.910
1774750200000,66562.60,66616.30,66548.00,66603.40,229.985
1774750500000,66603.40,66617.00,66550.00,66592.50,369.301
1774750800000,66592.50,66677.00,66577.50,66638.60,283.925
1774751100000,66638.50,66659.90,66613.60,66615.70,196.739
1774751400000,66615.70,66623.00,66529.70,66563.90,174.290
1774751700000,66563.90,66650.00,66536.20,66650.00,169.706
1774752000000,66650.00,66729.50,66649.90,66673.80,324.284
1774752300000,66673.90,66691.80,66649.00,66691.80,124.720
1774752600000,66691.80,66820.00,66691.80,66770.10,680.852
1774752900000,66770.10,66773.70,66720.00,66773.70,352.104
1774753200000,66773.70,66775.30,66724.00,66773.90,320.636
1774753500000,66773.90,66786.50,66732.00,66771.40,368.216
1774753800000,66771.40,66777.00,66739.60,66769.00,249.113
1774754100000,66769.10,67100.00,66754.00,67021.60,2370.368
1774754400000,67021.70,67032.00,66922.40,66989.30,836.769
1774754700000,66989.40,66989.40,66924.20,66935.30,251.241
1774755000000,66935.40,66974.90,66892.80,66892.90,214.556
1774755300000,66892.80,66936.30,66880.40,66920.10,196.702
1774755600000,66920.10,66920.10,66872.20,66887.90,115.474
1774755900000,66887.90,66887.90,66821.30,66864.20,195.318
1774756200000,66864.10,66901.80,66840.00,66900.00,586.159
1774756500000,66900.00,66920.00,66862.30,66875.70,155.881
1774756800000,66875.70,66907.50,66813.60,66838.10,182.117
1774757100000,66838.20,66897.00,66823.30,66886.00,172.223
1774757400000,66885.90,66888.10,66864.50,66879.20,61.209
1774757700000,66879.30,66879.30,66838.00,66838.00,74.437
1774758000000,66838.10,66838.10,66737.10,66791.30,917.613
1774758300000,66791.30,66814.00,66755.50,66786.30,211.945
1774758600000,66786.30,66800.00,66747.20,66800.00,180.426
1774758900000,66800.00,66819.90,66754.50,66754.50,100.963
1774759200000,66754.50,66788.80,66754.50,66764.30,66.394
1774759500000,66764.40,66770.00,66715.00,66753.70,135.133
1774759800000,66753.70,66762.90,66727.10,66741.90,80.511
1774760100000,66741.90,66743.60,66683.30,66701.90,181.025
1774760400000,66701.90,66720.30,66685.30,66704.90,169.499
1774760700000,66705.00,66705.00,66632.40,66674.10,243.503
1774761000000,66674.00,66698.00,66656.20,66663.50,146.367
1774761300000,66663.50,66686.50,66590.00,66686.50,432.094
1774761600000,66686.50,66723.70,66637.80,66685.80,166.465
1774761900000,66685.80,66710.70,66571.40,66603.50,557.781
1774762200000,66603.60,66645.60,66595.80,66603.30,132.232
1774762500000,66603.30,66640.60,66565.00,66630.10,126.701
1774762800000,66630.10,66650.00,66625.10,66640.40,111.877
1774763100000,66640.50,66662.30,66600.00,66655.70,155.252
1774763400000,66655.70,66799.50,66655.70,66752.10,720.276
1774763700000,66752.10,66770.80,66741.20,66741.30,131.950
1774764000000,66741.30,66844.20,66737.60,66815.80,224.049
1774764300000,66815.80,66845.00,66809.20,66809.20,144.925
1774764600000,66809.20,66820.00,66790.00,66790.00,164.671
1774764900000,66790.00,66839.00,66786.50,66788.50,118.547
1774765200000,66788.50,66796.10,66655.10,66656.60,253.622
1774765500000,66656.50,66661.80,66601.10,66661.80,383.548
1774765800000,66661.80,66691.70,66645.40,66656.00,149.762
1774766100000,66656.00,66690.30,66645.00,66645.00,147.951
1774766400000,66645.00,66665.40,66631.20,66645.10,93.082
1774766700000,66645.10,66689.80,66622.40,66672.10,163.914
1774767000000,66672.10,66728.00,66651.10,66727.90,128.462
1774767300000,66728.00,66746.10,66699.10,66704.40,83.081
1774767600000,66704.40,66704.50,66524.50,66581.90,426.643
1774767900000,66581.90,66595.20,66521.40,66521.40,220.124
1774768200000,66521.40,66575.40,66521.40,66568.60,210.140
1774768500000,66568.60,66640.30,66554.70,66633.00,138.132
1774768800000,66633.00,66644.70,66599.40,66644.60,113.361
1774769100000,66644.70,66648.60,66619.60,66648.60,123.476
1774769400000,66648.60,66685.10,66612.60,66612.60,155.349
1774769700000,66612.60,66650.00,66600.00,66600.00,357.691
1774770000000,66600.00,66605.00,66583.20,66605.00,77.586
1774770300000,66604.90,66635.00,66572.30,66634.90,129.900
1774770600000,66634.90,66720.00,66634.90,66686.50,867.425
1774770900000,66686.40,66688.80,66623.70,66632.50,224.186
1774771200000,66632.40,66658.80,66611.80,66646.20,129.449
1774771500000,66646.20,66727.10,66644.10,66644.10,321.954
1774771800000,66644.20,66657.10,66590.00,66618.40,154.614
1774772100000,66618.50,66625.80,66560.00,66593.00,113.536
1774772400000,66593.00,66635.60,66591.70,66635.60,125.015
1774772700000,66635.60,66649.90,66630.40,66641.10,69.056
1774773000000,66641.10,66700.00,66641.00,66676.90,176.804
1774773300000,66677.00,66743.70,66669.10,66721.50,227.521
1774773600000,66721.60,66721.60,66689.50,66704.40,90.766
1774773900000,66704.40,66719.30,66677.80,66694.90,243.487
1774774200000,66695.00,66712.00,66662.10,66700.10,189.698
1774774500000,66700.00,66700.10,66689.40,66689.50,44.305
1774774800000,66689.40,66740.00,66675.10,66700.00,185.911
1774775100000,66700.00,66700.00,66556.00,66641.20,417.286
1774775400000,66641.20,66659.00,66626.00,66658.40,144.200
1774775700000,66658.40,66693.40,66620.50,66620.50,95.230
1774776000000,66620.60,66627.20,66598.60,66615.10,86.871
1774776300000,66615.20,66650.50,66607.50,66645.00,118.235
1774776600000,66644.90,66670.10,66521.20,66528.00,403.253
1774776900000,66528.00,66569.70,66500.90,66564.80,232.637
1774777200000,66564.80,66586.50,66539.70,66546.50,193.025
1774777500000,66546.50,66598.00,66546.50,66581.20,89.380
1774777800000,66581.20,66596.70,66564.70,66593.90,61.073
1774778100000,66594.00,66613.20,66591.60,66600.10,48.942
1774778400000,66600.00,66600.00,66512.30,66517.30,241.357
1774778700000,66517.30,66528.50,66461.40,66509.30,361.672
1774779000000,66509.30,66530.00,66458.10,66515.10,319.920
1774779300000,66515.20,66529.70,66423.10,66441.10,324.146
1774779600000,66441.20,66475.50,66401.00,66435.10,444.519
1774779900000,66435.00,66481.20,66425.60,66440.00,207.635
1774780200000,66440.00,66461.60,66387.50,66387.60,315.902
1774780500000,66387.50,66520.00,66375.50,66503.50,247.115
1774780800000,66503.50,66512.60,66468.80,66512.50,126.962
1774781100000,66512.60,66545.10,66490.80,66520.20,191.277
1774781400000,66520.20,66545.90,66506.50,66506.60,122.121
1774781700000,66506.60,66527.60,66466.20,66473.40,137.804
1774782000000,66473.40,66655.40,66473.30,66655.30,452.325
1774782300000,66655.40,66831.90,66634.60,66740.20,992.905
1774782600000,66740.10,66799.00,66717.00,66745.70,381.709
1774782900000,66745.70,66786.40,66703.40,66779.90,282.322
1774783200000,66779.90,66821.20,66733.50,66790.70,295.036
1774783500000,66790.80,66821.60,66762.30,66803.80,189.497
1774783800000,66803.80,66832.90,66734.10,66779.90,308.370
1774784100000,66780.00,66880.00,66779.90,66844.80,319.457
1774784400000,66844.80,66899.00,66815.30,66864.30,349.904
1774784700000,66864.30,66986.80,66794.40,66794.40,755.513
1774785000000,66794.40,66840.10,66768.90,66807.90,268.914
1774785300000,66807.90,66808.00,66778.30,66780.80,194.797
1774785600000,66780.80,66820.00,66756.70,66758.60,284.828
1774785900000,66758.60,66784.10,66745.00,66753.30,180.772
1774786200000,66753.30,66788.30,66735.00,66738.00,260.473
1774786500000,66737.90,66794.70,66689.50,66760.20,497.917
1774786800000,66760.20,66760.20,66704.60,66753.90,240.424
1774787100000,66753.90,66770.30,66741.70,66751.30,125.213
1774787400000,66751.40,66780.70,66668.00,66691.80,305.449
1774787700000,66691.80,66730.40,66691.80,66726.50,133.168
1774788000000,66726.50,66758.50,66700.00,66708.40,158.002
1774788300000,66708.40,66786.80,66700.00,66774.60,196.874
1774788600000,66774.60,66844.30,66761.80,66824.10,284.184
1774788900000,66824.20,66834.40,66801.10,66818.60,141.535
1774789200000,66818.70,66849.00,66786.40,66793.70,222.954
1774789500000,66793.60,66793.70,66483.90,66510.70,1402.160
1774789800000,66510.80,66594.50,66500.00,66567.70,597.846
1774790100000,66567.80,66638.50,66524.80,66612.10,280.951
1774790400000,66612.20,66679.90,66577.40,66613.10,265.675
1774790700000,66613.10,66627.20,66584.70,66601.10,149.528
1774791000000,66601.10,66658.10,66592.60,66601.60,260.887
1774791300000,66601.60,66652.60,66571.80,66652.50,144.468
1774791600000,66652.60,66653.40,66628.80,66632.90,114.099
1774791900000,66632.90,66653.60,66550.00,66579.90,175.412
1774792200000,66579.90,66622.30,66565.00,66588.80,114.170
1774792500000,66588.80,66600.00,66501.70,66546.00,245.560
1774792800000,66546.10,66571.50,66455.00,66466.90,1089.322
1774793100000,66466.90,66500.00,66420.00,66488.50,412.988
1774793400000,66488.50,66764.90,66488.40,66633.50,842.645
1774793700000,66633.50,66659.90,66574.90,66580.50,208.463
1774794000000,66580.50,66614.80,66550.00,66570.10,120.900
1774794300000,66570.10,66570.20,66479.90,66502.10,380.410
1774794600000,66502.10,66560.00,66467.70,66554.50,178.719
1774794900000,66554.60,66587.50,66521.10,66527.10,127.016
1774795200000,66527.20,66553.30,66464.20,66542.20,434.133
1774795500000,66542.10,66549.50,66465.30,66521.40,207.727
1774795800000,66521.50,66545.40,66510.60,66519.00,117.194
1774796100000,66519.10,66569.20,66508.40,66556.20,138.276
1774796400000,66556.30,66695.00,66556.30,66595.00,654.881
1774796700000,66595.00,66679.00,66578.00,66586.50,473.531
1774797000000,66586.60,66613.10,66482.00,66567.50,489.296
1774797300000,66567.60,66640.20,66523.80,66542.70,270.752
1774797600000,66542.80,66542.80,66472.20,66483.00,261.723
1774797900000,66483.00,66483.00,66300.90,66392.50,1184.574
1774798200000,66392.50,66405.90,66288.10,66381.80,648.679
1774798500000,66381.80,66408.00,66300.00,66364.80,508.889
1774798800000,66364.90,66448.40,66364.80,66425.10,340.427
1774799100000,66425.00,66453.80,66400.00,66400.10,225.646
1774799400000,66400.00,66519.10,66388.00,66514.70,302.506
1774799700000,66514.60,66514.70,66476.60,66500.00,187.119
1774800000000,66499.90,66537.20,66459.50,66461.50,385.710
1774800300000,66461.50,66481.70,66407.10,66481.70,268.751
1774800600000,66481.70,66508.20,66416.10,66417.40,151.462
1774800900000,66417.30,66638.50,66400.00,66601.60,551.373
1774801200000,66601.60,66639.00,66560.00,66574.20,426.144
1774801500000,66574.10,66604.40,66567.20,66591.50,115.280
1774801800000,66591.50,66591.50,66551.40,66559.90,140.672
1774802100000,66560.00,66560.00,66500.00,66533.50,296.275
1774802400000,66533.40,66542.60,66504.40,66504.40,139.409
1774802700000,66504.50,66532.00,66482.80,66507.20,117.903
1774803000000,66507.30,66542.60,66455.90,66464.30,157.381
1774803300000,66464.30,66493.50,66456.70,66467.80,102.473
1774803600000,66467.80,66491.60,66440.00,66456.20,131.456
1774803900000,66456.30,66518.20,66456.20,66505.50,98.123
1774804200000,66505.50,66505.60,66359.40,66385.60,274.303
1774804500000,66385.60,66385.70,66306.20,66312.20,577.020
1774804800000,66312.20,66312.30,66111.00,66173.70,2155.765
1774805100000,66173.80,66241.10,66156.40,66228.90,460.360
1774805400000,66228.90,66267.40,66201.00,66261.70,384.675
1774805700000,66261.60,66295.50,66233.50,66274.90,200.808
1774806000000,66275.00,66400.10,66271.10,66360.20,492.549
1774806300000,66360.30,66360.30,66324.20,66344.50,232.741
1774806600000,66344.60,66410.60,66344.50,66360.80,243.258
1774806900000,66360.80,66370.70,66335.80,66356.60,133.281
1774807200000,66356.60,66381.70,66306.60,66307.30,160.772
1774807500000,66307.20,66338.70,66291.20,66320.10,93.680
1774807800000,66320.10,66386.10,66320.10,66372.60,109.028
1774808100000,66372.70,66441.20,66363.50,66407.90,169.109
1774808400000,66407.80,66424.60,66329.70,66360.40,145.133
1774808700000,66360.40,66404.00,66360.30,66367.80,109.795
1774809000000,66367.90,66400.00,66367.80,66381.10,69.606
1774809300000,66381.00,66524.00,66381.00,66456.00,343.016
1774809600000,66456.00,66470.00,66392.80,66395.90,242.665
1774809900000,66396.00,66427.10,66351.00,66408.70,118.661
1774810200000,66408.70,66433.40,66406.90,66422.90,69.513
1774810500000,66422.90,66431.70,66391.50,66397.20,94.615
1774810800000,66397.10,66400.50,66353.40,66393.80,101.086
1774811100000,66393.90,66421.20,66380.00,66380.00,110.429
1774811400000,66380.00,66409.60,66380.00,66404.00,85.219
1774811700000,66404.00,66435.00,66385.90,66420.20,103.396
1774812000000,66420.20,66448.00,66368.90,66376.20,339.028
1774812300000,66376.20,66407.90,66366.80,66395.20,223.509
1774812600000,66395.30,66453.40,66386.10,66447.90,117.058
1774812900000,66447.80,66447.90,66355.00,66355.10,189.468
1774813200000,66355.10,66372.20,66318.00,66363.50,136.849
1774813500000,66363.50,66400.00,66345.10,66345.10,413.850
1774813800000,66345.10,66345.10,66304.70,66331.50,166.695
1774814100000,66331.50,66331.60,66282.10,66320.20,188.602
1774814400000,66320.30,66399.20,66312.70,66397.70,271.689
1774814700000,66397.80,66480.00,66385.60,66437.60,345.639
1774815000000,66437.60,66442.10,66410.80,66426.60,97.762
1774815300000,66426.60,66572.10,66426.60,66516.80,782.450
1774815600000,66516.90,66767.90,66515.30,66691.80,1463.602
1774815900000,66691.80,66734.50,66650.10,66675.60,385.355
1774816200000,66675.70,66691.70,66650.00,66653.30,285.242
1774816500000,66653.40,66669.30,66621.00,66621.10,250.248
1774816800000,66621.10,66636.70,66563.60,66563.70,248.093
1774817100000,66563.70,66598.60,66536.40,66550.00,138.065
1774817400000,66550.00,66570.70,66540.00,66553.80,125.482
1774817700000,66553.80,66587.50,66550.30,66578.60,68.676
1774818000000,66578.60,66646.70,66566.90,66570.80,216.444
1774818300000,66570.80,66587.30,66519.30,66519.30,97.280
1774818600000,66519.40,66541.80,66477.50,66521.70,201.800
1774818900000,66521.70,66533.10,66499.80,66515.00,85.833
1774819200000,66515.00,66571.00,66515.00,66571.00,60.479
1774819500000,66571.00,66661.80,66562.10,66622.00,215.183
1774819800000,66622.00,66666.00,66598.50,66622.50,269.947
1774820100000,66622.50,66646.80,66598.30,66600.00,151.489
1774820400000,66600.00,66611.30,66570.00,66611.10,134.402
1774820700000,66611.20,66666.00,66611.10,66654.90,121.688
1774821000000,66654.80,66666.00,66616.20,66665.90,178.240
1774821300000,66666.00,66734.50,66648.30,66678.80,657.470
1774821600000,66678.80,66686.10,66320.60,66366.70,1120.971
1774821900000,66366.60,66403.50,66216.80,66366.20,1119.500
1774822200000,66366.20,66420.10,66191.50,66274.50,1013.294
1774822500000,66274.40,66359.60,66234.60,66302.40,398.656
1774822800000,66302.50,66462.60,66274.60,66381.90,342.548
1774823100000,66382.00,66386.10,66312.70,66352.30,261.573
1774823400000,66352.20,66397.80,66300.00,66349.80,215.607
1774823700000,66349.70,66363.50,66166.40,66230.20,452.237
1774824000000,66230.20,66240.90,65602.00,65645.90,6036.261
1774824300000,65645.90,65648.80,64918.20,65000.10,9276.706
1774824600000,65000.10,65431.60,64947.10,65419.60,2631.276
1774824900000,65419.50,65936.40,65408.40,65820.30,2963.133
1774825200000,65820.20,66350.40,65819.00,65995.60,3818.538
1774825500000,65995.60,66119.10,65924.90,66027.20,903.738
1774825800000,66027.30,66094.50,65963.80,66061.30,553.220
1774826100000,66061.30,66228.90,66036.20,66074.90,848.102
1774826400000,66074.80,66263.00,66002.90,66036.00,907.646
1774826700000,66036.00,66036.10,65915.00,65971.50,737.583
1774827000000,65971.40,66062.80,65902.80,65934.30,521.143
1774827300000,65934.30,65949.10,65823.60,65900.10,933.643
1774827600000,65900.10,65999.50,65876.00,65995.20,498.453
1774827900000,65995.20,66137.50,65983.70,65994.10,752.008
1774828200000,65994.20,66027.10,65840.10,66023.70,740.661
1774828500000,66023.70,66033.30,65956.70,65977.90,264.871
1774828800000,65978.00,66053.90,65828.80,65828.90,639.087
1774829100000,65828.80,65977.80,65762.80,65841.20,744.965
1774829400000,65841.10,65894.00,65806.50,65816.70,285.072
1774829700000,65816.80,66900.00,65754.20,66872.90,4085.700
1774830000000,66872.90,67043.20,66563.80,66567.70,4151.554
1774830300000,66567.60,66825.00,66491.60,66537.50,1333.738
1774830600000,66537.40,66708.70,66426.20,66470.30,1196.403
1774830900000,66470.40,66531.00,66209.40,66265.30,1263.277
1774831200000,66265.40,66308.90,66152.50,66300.00,919.465
1774831500000,66300.00,66389.90,66260.60,66292.50,429.869
1774831800000,66292.50,66314.50,66072.40,66155.50,706.301
1774832100000,66155.50,66328.30,66124.30,66251.20,799.782
1774832400000,66251.20,66544.50,66251.10,66398.60,1014.109
1774832700000,66398.40,66524.00,66324.30,66339.50,490.862
1774833000000,66339.60,66450.20,66316.90,66371.30,379.953
1774833300000,66371.40,66506.60,66289.90,66489.40,759.781
1774833600000,66489.40,66506.60,66429.00,66445.00,362.414
1774833900000,66445.00,66634.80,66442.50,66565.60,639.567
1774834200000,66565.60,66698.00,66495.40,66667.20,759.205
1774834500000,66667.10,66700.00,66543.20,66602.10,546.369
1774834800000,66602.20,66645.80,66500.00,66634.30,428.243
1774835100000,66634.20,66806.10,66619.70,66724.00,1445.630
1774835400000,66724.10,66728.40,66574.90,66608.50,394.986
1774835700000,66608.40,66657.70,66570.40,66624.10,195.533
1774836000000,66624.20,66737.90,66603.50,66610.40,339.783
1774836300000,66610.50,66841.80,66538.50,66697.70,758.217
1774836600000,66697.60,66819.40,66652.60,66813.60,254.408
1774836900000,66813.60,66875.00,66728.00,66736.00,598.998
1774837200000,66735.90,66736.00,66650.20,66710.00,341.358
1774837500000,66710.00,66749.90,66659.90,66720.00,245.544
1774837800000,66720.00,66754.80,66621.00,66622.70,212.315
1774838100000,66622.80,66648.50,66560.00,66641.50,289.470
1774838400000,66641.50,67021.00,66604.90,67021.00,1771.785
1774838700000,67021.00,67487.70,66974.00,67295.80,7101.165
1774839000000,67295.80,67306.30,67088.30,67124.40,1704.188
1774839300000,67124.40,67150.00,67035.60,67087.00,598.431
1774839600000,67087.10,67117.20,66934.70,66967.80,853.423
1774839900000,66967.80,67041.00,66942.70,67010.10,485.426
1774840200000,67010.10,67037.20,66949.50,66980.10,323.943
1774840500000,66980.10,67120.10,66966.00,67068.20,452.711
1774840800000,67068.10,67264.50,67052.70,67237.80,524.514
1774841100000,67237.90,67237.90,67123.80,67208.90,559.721
1774841400000,67208.90,67254.60,67150.00,67193.60,633.862
1774841700000,67193.50,67225.00,67103.70,67147.30,371.355
1774842000000,67147.30,67193.80,67104.50,67168.60,170.854
1774842300000,67168.50,67172.90,67086.20,67162.40,338.683
1774842600000,67162.40,67288.80,67124.30,67199.90,299.308
1774842900000,67199.90,67199.90,67095.00,67139.80,250.900
1774843200000,67140.00,67234.30,67129.30,67196.40,421.564
1774843500000,67196.40,67435.00,67184.90,67383.60,1130.572
1774843800000,67383.60,67466.00,67333.90,67389.60,748.161
1774844100000,67389.60,67486.10,67342.70,67374.40,667.565
1774844400000,67374.50,67483.30,67339.30,67353.50,375.547
1774844700000,67353.50,67625.10,67353.50,67414.80,1342.414
1774845000000,67414.70,67529.50,67400.00,67440.10,600.988
1774845300000,67440.00,67485.60,67366.10,67485.60,607.081
1774845600000,67485.50,67485.60,67350.00,67386.90,343.333
1774845900000,67386.90,67527.60,67384.30,67491.20,337.392
1774846200000,67491.20,67597.10,67471.70,67571.90,540.215
1774846500000,67572.00,67620.00,67504.10,67579.10,641.418
1774846800000,67579.20,67688.00,67542.70,67587.90,1184.418
1774847100000,67587.90,67766.00,67556.00,67715.70,598.818
1774847400000,67715.60,67777.00,67587.40,67608.90,1086.882
1774847700000,67609.00,67699.00,67549.90,67636.10,508.449
1774848000000,67636.10,67650.00,67590.60,67632.90,220.956
1774848300000,67632.90,67690.00,67613.10,67623.50,325.745
1774848600000,67623.60,67671.20,67600.70,67614.10,277.371
1774848900000,67614.10,67622.90,67486.10,67513.60,855.819
1774849200000,67513.60,67531.10,67412.00,67463.50,593.271
1774849500000,67463.50,67513.30,67404.00,67505.40,556.778
1774849800000,67505.40,67529.20,67466.50,67487.70,181.524
1774850100000,67487.70,67515.00,67444.90,67459.00,208.760
1774850400000,67459.00,67550.00,67441.00,67524.80,257.197
1774850700000,67524.80,67533.80,67455.00,67467.00,153.717
1774851000000,67467.00,67467.10,67378.30,67409.90,364.150
1774851300000,67409.90,67430.00,67238.60,67299.00,1404.597
1774851600000,67298.90,67331.20,67255.10,67290.70,593.322
1774851900000,67290.70,67328.00,67264.00,67288.50,466.394
1774852200000,67288.50,67307.00,67250.00,67287.10,259.973
1774852500000,67287.00,67318.80,67250.00,67270.00,407.777
1774852800000,67269.90,67369.30,67269.90,67333.70,566.073
1774853100000,67333.70,67389.80,67303.30,67352.70,427.219
1774853400000,67352.70,67394.70,67280.00,67300.00,250.279
1774853700000,67300.10,67325.10,67264.60,67273.40,207.170
1774854000000,67273.50,67273.50,67180.50,67240.10,538.599
1774854300000,67240.10,67399.40,67240.10,67361.80,521.527
1774854600000,67361.70,67430.00,67326.80,67349.80,296.688
1774854900000,67349.90,67402.80,67338.40,67350.00,219.526
1774855200000,67350.00,67371.70,67262.80,67277.50,195.706
1774855500000,67277.50,67320.00,67273.80,67301.20,200.727
1774855800000,67301.30,67399.90,67255.00,67304.30,254.319
1774856100000,67304.40,67383.90,67269.10,67274.50,177.590
1774856400000,67274.40,67317.60,67272.10,67283.70,141.850
1774856700000,67283.70,67429.90,67267.20,67423.00,376.974
1774857000000,67423.00,67541.80,67377.10,67448.70,939.112
1774857300000,67448.70,67612.60,67448.70,67595.90,1413.077
1774857600000,67595.90,67767.20,67574.60,67750.10,2251.666
1774857900000,67750.20,67888.50,67691.60,67765.20,2009.996
1774858200000,67765.30,67877.60,67740.30,67865.10,964.622
1774858500000,67865.00,67880.00,67702.90,67836.60,1347.357
1774858800000,67836.50,67836.60,67711.00,67733.50,423.938
1774859100000,67733.50,67749.50,67688.90,67727.00,364.831
1774859400000,67727.10,67790.60,67711.80,67714.10,290.879
1774859700000,67714.10,67920.00,67705.30,67767.90,827.917
1774860000000,67767.90,67802.30,67690.10,67725.40,404.667
1774860300000,67725.10,67762.90,67642.50,67702.90,299.870
1774860600000,67702.90,67784.70,67702.80,67726.10,189.793
1774860900000,67726.20,67726.20,67623.10,67634.00,522.883
1774861200000,67633.90,67641.60,67560.50,67587.70,625.420
1774861500000,67587.70,67637.60,67564.60,67573.70,325.055
1774861800000,67573.70,67667.90,67538.50,67550.00,428.376
1774862100000,67549.90,67629.00,67467.60,67594.00,734.868
1774862400000,67594.10,67600.00,67483.40,67496.50,409.081
1774862700000,67496.50,67516.80,67480.60,67485.10,222.637
1774863000000,67485.00,67485.10,67430.00,67449.00,383.902
1774863300000,67449.00,67511.40,67427.80,67503.10,286.721
1774863600000,67503.20,67537.40,67438.80,67527.00,263.342
1774863900000,67527.00,67564.10,67506.00,67533.60,282.168
1774864200000,67533.60,67547.70,67501.30,67501.40,143.374
