timestamp,open,high,low,close,volume
1757041200000,111340.64000000,111340.65000000,111096.67000000,111311.77000000,264.75507000
1757044800000,111311.78000000,111468.20000000,111144.51000000,111445.00000000,785.66095000
1757048400000,111445.00000000,111710.49000000,111407.57000000,111574.50000000,365.92368000
1757052000000,111574.51000000,111914.53000000,111501.94000000,111911.99000000,435.99084000
1757055600000,111912.00000000,112999.00000000,111883.49000000,112954.32000000,1893.59984000
1757059200000,112954.32000000,112985.00000000,112605.37000000,112618.51000000,612.54610000
1757062800000,112618.51000000,112619.98000000,112131.02000000,112303.87000000,672.38321000
1757066400000,112303.87000000,112571.90000000,112191.40000000,112256.36000000,401.39645000
1757070000000,112256.36000000,112439.36000000,112138.15000000,112354.00000000,270.50308000
1757073600000,112354.00000000,113384.62000000,112040.00000000,113214.78000000,2902.04978000
1757077200000,113214.78000000,113310.01000000,112706.71000000,113084.16000000,2093.90932000
1757080800000,113084.16000000,113084.16000000,110487.65000000,110569.99000000,3593.87866000
1757084400000,110569.99000000,111017.80000000,110286.91000000,110716.82000000,1216.05211000
1757088000000,110716.82000000,110929.30000000,110537.99000000,110815.40000000,450.76892000
1757091600000,110815.40000000,110815.40000000,110206.96000000,110608.18000000,561.64147000
1757095200000,110608.19000000,111285.35000000,110569.43000000,111198.78000000,518.32708000
1757098800000,111198.77000000,111627.51000000,111125.80000000,111614.54000000,636.35672000
1757102400000,111614.54000000,111679.79000000,111299.98000000,111630.30000000,588.97794000
1757106000000,111630.31000000,111700.00000000,110375.60000000,110605.01000000,1465.95586000
1757109600000,110605.01000000,110917.46000000,110500.00000000,110800.00000000,278.07558000
1757113200000,110800.01000000,110859.49000000,110594.79000000,110659.99000000,177.83549000
1757116800000,110660.00000000,110833.32000000,110552.56000000,110779.70000000,235.00101000
1757120400000,110779.70000000,110917.46000000,110744.08000000,110867.70000000,186.31454000
1757124000000,110867.71000000,111216.25000000,110733.11000000,111216.15000000,184.10167000
1757127600000,111216.14000000,111307.70000000,111000.12000000,111082.22000000,194.76496000
1757131200000,111082.23000000,111082.23000000,110783.70000000,110876.12000000,353.63220000
1757134800000,110876.12000000,110876.13000000,110687.69000000,110714.00000000,151.66886000
1757138400000,110714.00000000,110817.11000000,110714.00000000,110752.83000000,96.24087000
1757142000000,110752.84000000,110829.15000000,110750.64000000,110825.60000000,86.44213000
1757145600000,110825.59000000,110968.00000000,110774.46000000,110952.76000000,91.10955000
1757149200000,110952.77000000,110952.77000000,110693.86000000,110695.06000000,193.74674000
1757152800000,110695.06000000,110804.62000000,110677.30000000,110773.62000000,157.49749000
1757156400000,110773.62000000,110868.80000000,110675.58000000,110781.02000000,179.54833000
1757160000000,110781.03000000,110898.70000000,110753.97000000,110832.58000000,158.76991000
1757163600000,110832.59000000,110947.91000000,110822.00000000,110936.82000000,154.65819000
1757167200000,110936.82000000,110999.83000000,110781.96000000,110807.77000000,144.71630000
1757170800000,110807.78000000,110840.00000000,110358.11000000,110384.15000000,427.86502000
1757174400000,110384.16000000,110402.00000000,109977.00000000,110267.99000000,876.95944000
1757178000000,110267.99000000,110275.50000000,110000.00000000,110157.41000000,202.20870000
1757181600000,110157.41000000,110285.65000000,110056.29000000,110228.00000000,160.96245000
1757185200000,110228.01000000,110260.00000000,110000.00000000,110038.41000000,151.53000000
1757188800000,110038.42000000,110167.01000000,110034.44000000,110167.00000000,140.09020000
1757192400000,110167.01000000,110215.03000000,110093.14000000,110201.00000000,168.43512000
1757196000000,110200.99000000,110238.12000000,110074.95000000,110170.55000000,159.17265000
1757199600000,110170.54000000,110282.82000000,110113.96000000,110187.97000000,144.86264000
1757203200000,110187.98000000,110367.37000000,110180.00000000,110356.75000000,274.12078000
1757206800000,110356.74000000,110587.86000000,110332.81000000,110546.66000000,251.76683000
1757210400000,110546.66000000,110692.52000000,110444.43000000,110666.24000000,231.20078000
1757214000000,110666.24000000,110733.12000000,110596.71000000,110629.15000000,191.54953000
1757217600000,110629.15000000,110638.00000000,110489.96000000,110557.76000000,140.43398000
1757221200000,110557.77000000,110699.00000000,110557.76000000,110649.44000000,163.57402000
1757224800000,110649.45000000,110665.35000000,110472.33000000,110504.15000000,195.71662000
1757228400000,110504.14000000,110911.42000000,110463.10000000,110753.42000000,373.02249000
1757232000000,110753.41000000,111377.19000000,110720.01000000,111071.25000000,524.25884000
1757235600000,111071.25000000,111248.20000000,110876.88000000,111115.98000000,305.63775000
1757239200000,111115.99000000,111237.97000000,111041.87000000,111225.02000000,152.81384000
1757242800000,111225.03000000,111292.13000000,111189.75000000,111292.13000000,231.70263000
1757246400000,111292.12000000,111292.13000000,111073.17000000,111115.92000000,171.89870000
1757250000000,111115.92000000,111231.60000000,111042.60000000,111214.62000000,159.77105000
1757253600000,111214.63000000,111412.00000000,111059.57000000,111145.59000000,337.64277000
1757257200000,111145.59000000,111373.43000000,111120.56000000,111329.99000000,168.21133000
1757260800000,111329.99000000,111371.35000000,111152.15000000,111202.02000000,223.90897000
1757264400000,111202.02000000,111237.86000000,110888.07000000,110962.83000000,326.82203000
1757268000000,110962.84000000,111063.00000000,110861.20000000,111053.76000000,219.80123000
1757271600000,111053.77000000,111293.99000000,111049.05000000,111259.99000000,169.95303000
1757275200000,111259.99000000,111371.26000000,111147.25000000,111330.30000000,178.99404000
1757278800000,111330.31000000,111330.31000000,111050.14000000,111050.14000000,82.99122000
1757282400000,111050.14000000,111364.40000000,111001.45000000,111250.01000000,270.95197000
1757286000000,111250.01000000,111600.00000000,111076.92000000,111137.34000000,334.55501000
1757289600000,111137.35000000,111293.26000000,110733.71000000,110837.96000000,553.54548000
1757293200000,110837.95000000,110994.58000000,110731.71000000,110890.57000000,352.25138000
1757296800000,110890.58000000,111372.00000000,110621.78000000,111240.00000000,364.10880000
1757300400000,111239.99000000,111349.24000000,111026.91000000,111052.11000000,431.56519000
1757304000000,111052.11000000,111218.49000000,110929.30000000,110979.35000000,318.48361000
1757307600000,110979.35000000,111061.05000000,110899.69000000,111027.16000000,189.25665000
1757311200000,111027.15000000,111197.86000000,110917.45000000,111113.26000000,156.58167000
1757314800000,111113.26000000,111609.04000000,111113.25000000,111280.39000000,665.80320000
1757318400000,111280.40000000,111910.48000000,111252.90000000,111684.25000000,867.09200000
1757322000000,111684.26000000,112095.00000000,111591.06000000,112094.99000000,695.25367000
1757325600000,112094.99000000,112186.98000000,111920.89000000,112048.00000000,648.82485000
1757329200000,112048.00000000,112121.59000000,111754.31000000,112052.43000000,512.51734000
1757332800000,112052.43000000,112153.90000000,111934.24000000,112034.51000000,293.01193000
1757336400000,112034.50000000,112370.30000000,111877.64000000,111906.55000000,1120.28751000
1757340000000,111906.56000000,112779.50000000,111888.00000000,112645.05000000,989.95574000
1757343600000,112645.06000000,112924.37000000,112526.61000000,112631.75000000,614.96830000
1757347200000,112631.74000000,112670.06000000,112293.18000000,112398.00000000,493.93324000
1757350800000,112398.01000000,112531.60000000,112075.20000000,112214.40000000,461.27895000
1757354400000,112214.41000000,112515.59000000,112184.97000000,112477.01000000,296.32443000
1757358000000,112477.01000000,112477.01000000,111978.67000000,112097.31000000,430.27796000
1757361600000,112097.31000000,112153.07000000,111896.00000000,111958.04000000,288.87626000
1757365200000,111958.04000000,112331.32000000,111930.73000000,112326.45000000,273.54370000
1757368800000,112326.45000000,112512.71000000,112210.91000000,112236.71000000,274.21823000
1757372400000,112236.71000000,112305.03000000,111989.00000000,112065.23000000,290.44202000
1757376000000,112065.23000000,112104.41000000,111459.87000000,111650.03000000,720.48199000
1757379600000,111650.03000000,111748.54000000,111258.30000000,111364.73000000,520.52157000
1757383200000,111364.73000000,111442.95000000,111111.00000000,111330.71000000,536.02045000
1757386800000,111330.72000000,111740.61000000,111234.16000000,111708.00000000,314.74637000
1757390400000,111708.01000000,112110.99000000,111624.12000000,112024.01000000,548.42419000
1757394000000,112024.01000000,112248.84000000,111851.52000000,112200.00000000,298.70562000
1757397600000,112200.01000000,113156.65000000,112151.16000000,113022.61000000,1080.72151000
1757401200000,113022.62000000,113293.29000000,112753.61000000,112991.11000000,978.74308000
1757404800000,112991.11000000,113176.51000000,112886.93000000,112992.69000000,524.35168000
1757408400000,112992.69000000,113057.99000000,112900.00000000,112966.54000000,367.43684000
1757412000000,112966.54000000,113040.00000000,112635.38000000,112732.62000000,631.93421000
1757415600000,112732.62000000,112800.00000000,112403.91000000,112433.59000000,325.19749000
1757419200000,112433.59000000,112824.00000000,112393.40000000,112671.76000000,397.08345000
1757422800000,112671.76000000,112932.18000000,112470.18000000,112760.58000000,656.61339000
1757426400000,112760.58000000,112950.00000000,111511.11000000,111767.45000000,1958.50565000
1757430000000,111767.45000000,111847.23000000,110766.66000000,110880.76000000,1649.92992000
1757433600000,110880.76000000,111148.17000000,110788.00000000,110975.99000000,808.62492000
1757437200000,110975.99000000,111193.39000000,110898.28000000,111025.44000000,539.75817000
1757440800000,111025.43000000,111298.16000000,110900.02000000,111131.92000000,495.62040000
1757444400000,111131.92000000,111388.04000000,111124.17000000,111301.53000000,277.49178000
1757448000000,111301.53000000,111530.16000000,111090.07000000,111530.16000000,761.02989000
1757451600000,111530.15000000,111745.69000000,111270.75000000,111299.61000000,463.86358000
1757455200000,111299.61000000,111630.31000000,111266.11000000,111556.16000000,207.57487000
1757458800000,111556.15000000,111583.81000000,111362.94000000,111546.39000000,315.90146000
1757462400000,111546.38000000,111572.57000000,110942.33000000,111010.46000000,490.88671000
1757466000000,111010.47000000,111224.53000000,110917.45000000,111005.64000000,419.72999000
1757469600000,111005.63000000,111551.04000000,111005.63000000,111411.13000000,492.50873000
1757473200000,111411.13000000,111586.26000000,111372.08000000,111545.88000000,263.91729000
1757476800000,111545.88000000,111647.38000000,111410.83000000,111520.43000000,304.12835000
1757480400000,111520.43000000,111729.65000000,111372.42000000,111577.31000000,436.99878000
1757484000000,111577.31000000,111969.57000000,111396.08000000,111792.33000000,503.80753000
1757487600000,111792.34000000,112602.35000000,111760.69000000,112553.65000000,1232.32394000
1757491200000,112553.65000000,112859.80000000,112336.28000000,112370.08000000,1005.38091000
1757494800000,112370.07000000,112428.29000000,112097.20000000,112274.29000000,619.63175000
1757498400000,112274.29000000,112422.63000000,112199.19000000,112270.01000000,532.10538000
1757502000000,112270.00000000,112409.49000000,112148.49000000,112299.99000000,422.47932000
1757505600000,112300.00000000,113550.14000000,112299.99000000,113413.51000000,2800.76749000
1757509200000,113413.50000000,114313.13000000,113384.61000000,113952.00000000,2112.22655000
1757512800000,113951.99000000,114295.63000000,113802.14000000,113899.99000000,1035.28455000
1757516400000,113900.00000000,114095.66000000,113723.21000000,113853.99000000,682.44215000
1757520000000,113853.99000000,113936.99000000,113553.74000000,113759.89000000,577.39326000
1757523600000,113759.88000000,114074.46000000,113415.20000000,113738.01000000,617.65367000
1757527200000,113738.01000000,113896.94000000,113347.39000000,113584.85000000,688.96812000
1757530800000,113584.84000000,113617.09000000,113155.03000000,113574.52000000,744.45366000
1757534400000,113574.53000000,113900.00000000,113553.26000000,113566.39000000,611.07657000
1757538000000,113566.40000000,113845.18000000,113528.01000000,113842.53000000,256.17247000
1757541600000,113842.54000000,113992.39000000,113713.63000000,113881.20000000,264.24584000
1757545200000,113881.21000000,114025.78000000,113788.00000000,113960.00000000,402.83522000
1757548800000,113960.00000000,114008.87000000,113669.82000000,113885.70000000,432.57350000
1757552400000,113885.70000000,114176.66000000,113831.33000000,113903.23000000,380.81020000
1757556000000,113903.23000000,113953.99000000,113716.00000000,113819.02000000,230.50973000
1757559600000,113819.02000000,114434.23000000,113819.01000000,114400.01000000,552.73536000
1757563200000,114400.01000000,114400.01000000,114071.81000000,114158.29000000,489.30630000
1757566800000,114158.29000000,114348.52000000,113966.46000000,114266.00000000,589.97492000
1757570400000,114266.00000000,114459.65000000,114076.92000000,114324.64000000,409.80916000
1757574000000,114324.65000000,114326.52000000,113957.20000000,114083.58000000,465.05247000
1757577600000,114083.58000000,114200.00000000,113972.00000000,114049.39000000,307.55276000
1757581200000,114049.39000000,114075.11000000,113776.00000000,113895.29000000,430.23419000
1757584800000,113895.30000000,114119.40000000,113891.45000000,114062.32000000,373.92428000
1757588400000,114062.31000000,114112.00000000,113887.98000000,113999.99000000,400.89210000
1757592000000,113999.99000000,114500.00000000,113500.00000000,113975.99000000,2372.15470000
1757595600000,113975.99000000,114715.02000000,113430.00000000,114628.08000000,1458.85001000
1757599200000,114630.06000000,114667.45000000,113927.60000000,114463.73000000,759.30317000
1757602800000,114463.73000000,114699.25000000,113996.19000000,114180.31000000,553.38549000
1757606400000,114180.32000000,114588.98000000,114180.31000000,114487.53000000,300.34694000
1757610000000,114487.53000000,114593.29000000,114328.52000000,114589.84000000,372.57383000
1757613600000,114589.84000000,114605.54000000,114102.00000000,114312.35000000,416.47348000
1757617200000,114312.35000000,114525.00000000,114182.04000000,114419.99000000,348.31986000
1757620800000,114420.00000000,114487.53000000,114246.04000000,114395.99000000,308.36329000
1757624400000,114395.98000000,114517.60000000,114395.98000000,114482.69000000,190.78211000
1757628000000,114482.70000000,115266.45000000,114435.63000000,115084.00000000,1104.63013000
1757631600000,115084.01000000,115488.09000000,115084.00000000,115482.69000000,428.17321000
1757635200000,115482.69000000,116331.81000000,115420.87000000,115840.69000000,1835.12528000
1757638800000,115840.69000000,116016.91000000,115371.13000000,115377.29000000,774.94414000
1757642400000,115377.29000000,115663.05000000,115256.64000000,115391.00000000,535.95115000
1757646000000,115391.00000000,115429.46000000,115045.45000000,115194.14000000,556.98098000
1757649600000,115194.14000000,115509.65000000,115086.82000000,115359.99000000,435.01083000
1757653200000,115360.00000000,115656.87000000,115320.27000000,115612.84000000,397.97519000
1757656800000,115612.84000000,115612.85000000,115260.38000000,115318.00000000,301.68688000
1757660400000,115318.01000000,115405.79000000,115086.70000000,115086.70000000,495.74469000
1757664000000,115086.70000000,115273.12000000,114950.00000000,115048.00000000,931.11012000
1757667600000,115047.99000000,115127.05000000,114888.01000000,115048.01000000,372.62834000
1757671200000,115048.00000000,115093.49000000,114926.42000000,114980.85000000,227.81735000
1757674800000,114980.84000000,115148.00000000,114901.03000000,114913.45000000,427.23394000
1757678400000,114913.45000000,115172.57000000,114740.99000000,115083.97000000,620.57400000
1757682000000,115083.98000000,115214.29000000,114822.77000000,115166.45000000,371.74126000
1757685600000,115166.46000000,115500.95000000,114865.30000000,115260.00000000,719.98267000
1757689200000,115260.00000000,115294.10000000,114939.53000000,115121.18000000,329.84108000
1757692800000,115121.18000000,115514.77000000,115030.30000000,115495.56000000,536.60395000
1757696400000,115495.56000000,115939.39000000,115395.66000000,115815.16000000,944.10930000
1757700000000,115815.16000000,116495.00000000,115769.88000000,116486.18000000,1014.39133000
1757703600000,116486.19000000,116665.63000000,116238.64000000,116632.51000000,1368.73979000
1757707200000,116632.51000000,116632.51000000,115974.00000000,116157.33000000,898.27059000
1757710800000,116157.34000000,116157.34000000,115752.68000000,115865.89000000,385.45605000
1757714400000,115865.89000000,116360.43000000,115865.89000000,116027.46000000,494.01734000
1757718000000,116027.46000000,116161.37000000,115929.06000000,116029.42000000,348.17094000
1757721600000,116029.41000000,116298.78000000,115959.59000000,116209.32000000,476.47907000
1757725200000,116209.32000000,116275.81000000,115576.26000000,115764.30000000,632.36146000
1757728800000,115764.30000000,115991.29000000,115686.47000000,115886.17000000,322.19761000
1757732400000,115886.16000000,116012.91000000,115837.98000000,115957.00000000,823.27412000
1757736000000,115957.00000000,115957.01000000,115685.60000000,115698.40000000,314.62389000
1757739600000,115698.40000000,115845.46000000,115657.81000000,115704.04000000,253.61230000
1757743200000,115704.03000000,115802.16000000,115662.20000000,115749.99000000,251.18163000
1757746800000,115750.00000000,115855.89000000,115702.39000000,115778.71000000,242.78688000
1757750400000,115778.72000000,116056.17000000,115767.33000000,115978.01000000,351.87471000
1757754000000,115978.01000000,116038.14000000,115871.26000000,116035.33000000,294.98775000
1757757600000,116035.32000000,116166.71000000,115916.41000000,115937.99000000,318.28855000
1757761200000,115937.99000000,116005.82000000,115888.00000000,115974.11000000,263.75402000
1757764800000,115974.11000000,116060.00000000,115872.82000000,116002.91000000,204.03439000
1757768400000,116002.91000000,116002.91000000,115621.65000000,115761.05000000,440.12472000
1757772000000,115761.06000000,115950.00000000,115603.98000000,115797.68000000,438.72685000
1757775600000,115797.67000000,115924.60000000,115619.57000000,115768.68000000,290.44971000
1757779200000,115768.68000000,115817.37000000,115127.27000000,115334.00000000,700.81830000
1757782800000,115333.99000000,115587.49000000,115180.00000000,115571.78000000,465.25625000
1757786400000,115571.79000000,115653.26000000,115433.09000000,115633.92000000,160.49564000
1757790000000,115633.91000000,115800.88000000,115570.78000000,115797.12000000,263.39165000
1757793600000,115797.12000000,115991.29000000,115797.11000000,115905.88000000,220.70474000
1757797200000,115905.88000000,115972.52000000,115839.98000000,115895.39000000,234.38734000
1757800800000,115895.40000000,115944.64000000,115809.90000000,115871.58000000,159.45156000
1757804400000,115871.58000000,115979.99000000,115861.39000000,115918.29000000,146.14080000
1757808000000,115918.29000000,116000.00000000,115815.13000000,115935.60000000,153.28277000
1757811600000,115935.61000000,115990.20000000,115744.67000000,115962.93000000,185.94891000
1757815200000,115962.92000000,116109.00000000,115750.00000000,115852.95000000,267.49819000
1757818800000,115852.95000000,115869.99000000,115651.99000000,115679.98000000,272.91216000
1757822400000,115679.99000000,115768.00000000,115449.59000000,115750.99000000,247.86689000
1757826000000,115751.00000000,115924.69000000,115735.58000000,115860.01000000,258.07375000
1757829600000,115860.01000000,115936.00000000,115693.95000000,115734.23000000,196.84102000
1757833200000,115734.24000000,115838.41000000,115734.23000000,115805.39000000,212.00183000
1757836800000,115805.39000000,115983.02000000,115759.44000000,115933.40000000,137.30583000
1757840400000,115933.40000000,116165.19000000,115905.88000000,116052.09000000,271.65824000
1757844000000,116052.10000000,116132.85000000,115955.57000000,116027.26000000,156.38468000
1757847600000,116027.25000000,116100.00000000,115748.78000000,115794.91000000,275.05839000
1757851200000,115794.92000000,115878.49000000,115662.62000000,115776.31000000,316.97870000
1757854800000,115776.31000000,115776.32000000,115217.01000000,115348.10000000,617.50773000
1757858400000,115348.10000000,115691.04000000,115141.80000000,115401.75000000,750.31099000
1757862000000,115401.75000000,115419.10000000,115200.40000000,115224.01000000,351.71527000
1757865600000,115224.01000000,115540.00000000,115193.90000000,115480.00000000,284.25459000
1757869200000,115480.00000000,115657.50000000,115413.46000000,115557.65000000,290.60711000
1757872800000,115557.65000000,115557.66000000,115375.05000000,115388.21000000,161.60603000
1757876400000,115388.21000000,115635.00000000,115330.99000000,115634.99000000,132.66154000
1757880000000,115634.99000000,115851.26000000,115634.99000000,115802.16000000,116.11592000
1757883600000,115802.16000000,116087.35000000,115607.99000000,116058.88000000,349.40859000
1757887200000,116059.48000000,116076.89000000,115810.22000000,116009.61000000,262.34337000
1757890800000,116009.62000000,116009.62000000,115135.00000000,115268.01000000,439.25947000
1757894400000,115268.01000000,115276.49000000,114972.29000000,115071.32000000,521.11024000
1757898000000,115071.32000000,115283.50000000,114825.00000000,115231.69000000,362.37165000
1757901600000,115231.69000000,115443.29000000,115214.55000000,115362.35000000,184.52455000
1757905200000,115362.35000000,115594.90000000,115347.91000000,115445.45000000,223.49300000
1757908800000,115445.46000000,116168.26000000,115400.00000000,116058.01000000,698.45937000
1757912400000,116058.01000000,116583.47000000,116019.05000000,116520.00000000,781.40763000
1757916000000,116519.13000000,116757.99000000,116043.01000000,116129.99000000,559.85108000
1757919600000,116130.00000000,116400.00000000,115626.96000000,115806.62000000,605.73350000
1757923200000,115806.62000000,115806.62000000,114709.18000000,114737.27000000,1325.86164000
1757926800000,114737.28000000,115188.00000000,114625.87000000,114868.59000000,1072.97754000
1757930400000,114868.60000000,114954.83000000,114720.69000000,114769.04000000,532.63649000
1757934000000,114769.03000000,115195.86000000,114740.97000000,115070.00000000,565.80309000
1757937600000,115070.01000000,115074.51000000,114671.75000000,114721.04000000,599.02223000
1757941200000,114721.03000000,115099.00000000,114384.00000000,114664.08000000,1056.42151000
1757944800000,114664.07000000,115029.81000000,114450.28000000,114679.56000000,775.27929000
1757948400000,114679.55000000,114909.40000000,114404.43000000,114842.90000000,564.69333000
1757952000000,114842.90000000,114922.59000000,114600.00000000,114662.57000000,364.30154000
1757955600000,114662.58000000,115130.00000000,114600.00000000,115120.03000000,284.01648000
1757959200000,115120.02000000,115360.54000000,114904.16000000,115307.79000000,538.96072000
1757962800000,115307.79000000,115570.00000000,114975.66000000,115307.78000000,685.41151000
1757966400000,115307.78000000,115515.41000000,115200.07000000,115379.99000000,325.59706000
1757970000000,115380.00000000,115538.55000000,115283.49000000,115528.00000000,170.93694000
1757973600000,115528.00000000,115605.07000000,115221.68000000,115288.01000000,235.69782000
1757977200000,115288.01000000,115476.00000000,115232.58000000,115349.71000000,177.94328000
1757980800000,115349.71000000,115349.71000000,114945.01000000,115088.66000000,244.26086000
1757984400000,115088.66000000,115520.00000000,115008.69000000,115024.24000000,232.34980000
1757988000000,115024.24000000,115227.51000000,115024.23000000,115034.47000000,151.83383000
1757991600000,115034.48000000,115426.49000000,115034.44000000,115307.25000000,236.03187000
1757995200000,115307.26000000,115560.01000000,114930.00000000,115503.01000000,446.01382000
1757998800000,115503.02000000,115957.23000000,115454.30000000,115936.65000000,685.43114000
1758002400000,115936.65000000,116009.62000000,115591.57000000,115770.35000000,449.53079000
1758006000000,115770.36000000,115886.17000000,115724.41000000,115840.00000000,319.02367000
1758009600000,115839.99000000,115981.17000000,115526.50000000,115658.76000000,463.00777000
1758013200000,115658.76000000,115720.00000000,115443.65000000,115477.27000000,286.71309000
1758016800000,115477.28000000,115590.49000000,115372.35000000,115372.46000000,292.61330000
1758020400000,115372.47000000,115431.52000000,115206.15000000,115287.83000000,303.19825000
1758024000000,115287.84000000,115460.20000000,115287.38000000,115439.36000000,296.84884000
1758027600000,115439.36000000,115558.06000000,114737.11000000,115200.00000000,1064.59506000
1758031200000,115200.00000000,115306.71000000,114811.00000000,115296.86000000,607.41382000
1758034800000,115296.86000000,115905.89000000,115010.66000000,115905.88000000,653.80057000
1758038400000,115905.88000000,116068.92000000,115608.28000000,116068.06000000,691.27604000
1758042000000,116068.05000000,116870.76000000,116056.99000000,116461.54000000,1252.39334000
1758045600000,116461.55000000,116776.66000000,116226.12000000,116418.86000000,486.09455000
1758049200000,116418.87000000,116820.00000000,116395.60000000,116800.12000000,525.61626000
1758052800000,116800.13000000,116908.83000000,116722.56000000,116839.47000000,367.21592000
1758056400000,116839.47000000,116940.26000000,116584.45000000,116800.51000000,295.98351000
1758060000000,116800.51000000,116964.27000000,116694.73000000,116855.58000000,312.66858000
1758063600000,116855.58000000,116920.46000000,116632.00000000,116788.96000000,262.99472000
1758067200000,116788.96000000,116832.00000000,116560.00000000,116560.01000000,269.72360000
1758070800000,116560.01000000,116768.00000000,116516.92000000,116662.25000000,267.74519000
1758074400000,116662.25000000,117077.16000000,116556.52000000,116686.43000000,742.45370000
1758078000000,116686.43000000,116758.83000000,116371.81000000,116372.04000000,377.83050000
1758081600000,116372.05000000,116480.01000000,116160.22000000,116313.49000000,262.15716000
1758085200000,116313.50000000,117214.00000000,116313.49000000,117108.30000000,894.88999000
1758088800000,117108.31000000,117286.73000000,116970.41000000,117234.27000000,770.01131000
1758092400000,117234.28000000,117275.00000000,117125.78000000,117162.48000000,557.97471000
1758096000000,117162.48000000,117189.86000000,116683.99000000,116860.00000000,635.73334000
1758099600000,116860.01000000,116860.01000000,116548.88000000,116550.01000000,380.39506000
1758103200000,116550.01000000,116604.26000000,116267.44000000,116359.14000000,356.93808000
1758106800000,116359.14000000,116383.87000000,116253.27000000,116258.13000000,282.02162000
1758110400000,116258.12000000,116516.93000000,116096.41000000,116204.94000000,387.04674000
1758114000000,116204.94000000,116330.75000000,115905.88000000,116107.19000000,664.85629000
1758117600000,116107.18000000,116240.00000000,115432.00000000,115606.61000000,1214.53614000
1758121200000,115606.62000000,115886.17000000,115527.48000000,115875.32000000,581.89144000
1758124800000,115875.33000000,115875.33000000,115386.21000000,115640.77000000,659.41460000
1758128400000,115640.76000000,116288.27000000,115500.00000000,115504.48000000,696.96558000
1758132000000,115504.49000000,116333.33000000,114720.81000000,115226.93000000,3427.38872000
1758135600000,115226.93000000,115989.20000000,115068.33000000,115652.02000000,955.04331000
1758139200000,115652.02000000,116140.20000000,115496.68000000,115621.47000000,455.26463000
1758142800000,115621.47000000,116120.00000000,115307.33000000,116038.39000000,336.05085000
1758146400000,116038.39000000,116823.72000000,116038.39000000,116559.69000000,741.17447000
1758150000000,116559.68000000,116990.68000000,116340.07000000,116447.59000000,836.73837000
1758153600000,116447.60000000,116470.52000000,116092.76000000,116350.65000000,442.99009000
1758157200000,116350.65000000,116869.46000000,116340.00000000,116634.84000000,440.77649000
1758160800000,116634.84000000,116959.96000000,116429.55000000,116950.47000000,318.21360000
1758164400000,116950.46000000,117896.00000000,116896.93000000,117581.66000000,1879.70060000
1758168000000,117581.67000000,117750.00000000,117219.50000000,117605.16000000,612.38170000
1758171600000,117605.16000000,117605.16000000,117176.10000000,117273.36000000,340.19852000
1758175200000,117273.37000000,117338.05000000,116888.02000000,117102.43000000,474.42047000
1758178800000,117102.43000000,117208.00000000,117048.81000000,117086.01000000,362.62720000
1758182400000,117086.01000000,117413.04000000,117010.59000000,117229.59000000,383.66591000
1758186000000,117229.58000000,117350.00000000,117107.57000000,117298.81000000,260.44715000
1758189600000,117298.82000000,117307.50000000,117078.72000000,117190.47000000,236.63641000
1758193200000,117190.48000000,117300.00000000,117013.77000000,117063.40000000,285.00282000
1758196800000,117063.41000000,117279.00000000,116977.59000000,117124.69000000,249.62123000
1758200400000,117124.69000000,117655.55000000,117004.28000000,117432.04000000,647.01760000
1758204000000,117432.04000000,117843.83000000,117400.54000000,117640.54000000,711.59459000
1758207600000,117640.54000000,117705.51000000,117322.41000000,117583.56000000,808.09852000
1758211200000,117583.56000000,117789.00000000,117500.01000000,117565.60000000,483.30991000
1758214800000,117565.59000000,117765.59000000,117418.45000000,117579.93000000,479.43176000
1758218400000,117579.94000000,117900.00000000,117512.11000000,117822.97000000,474.53821000
1758222000000,117822.98000000,117822.98000000,117196.33000000,117450.21000000,391.34362000
1758225600000,117450.21000000,117657.17000000,117337.95000000,117521.14000000,192.47211000
1758229200000,117521.14000000,117521.14000000,117299.21000000,117299.21000000,187.11636000
1758232800000,117299.21000000,117334.80000000,117027.34000000,117061.02000000,345.51742000
1758236400000,117061.02000000,117172.21000000,116612.03000000,117073.53000000,650.11136000
1758240000000,117073.53000000,117427.70000000,117020.00000000,117424.20000000,328.86734000
1758243600000,117424.21000000,117459.99000000,117118.21000000,117241.32000000,268.67490000
1758247200000,117241.32000000,117285.99000000,117044.13000000,117112.80000000,395.51641000
1758250800000,117112.81000000,117291.01000000,116871.61000000,116977.58000000,333.32919000
1758254400000,116977.58000000,117100.00000000,116700.02000000,116990.65000000,377.41298000
1758258000000,116990.65000000,117010.00000000,116780.75000000,116894.83000000,306.31482000
1758261600000,116894.83000000,116894.83000000,116633.86000000,116669.75000000,430.54942000
1758265200000,116669.76000000,116992.81000000,116665.00000000,116909.97000000,423.81384000
1758268800000,116909.98000000,117090.36000000,116882.47000000,116915.88000000,283.85786000
1758272400000,116915.88000000,116979.86000000,116488.00000000,116488.00000000,361.47256000
1758276000000,116488.00000000,116551.54000000,116434.23000000,116532.68000000,289.26548000
1758279600000,116532.68000000,116554.05000000,116300.00000000,116394.72000000,309.23241000
1758283200000,116394.72000000,116529.08000000,116133.66000000,116162.45000000,488.73837000
1758286800000,116162.45000000,116465.35000000,116075.00000000,116284.64000000,435.12378000
1758290400000,116284.63000000,116479.11000000,115800.00000000,115899.99000000,846.39402000
1758294000000,115899.99000000,115952.95000000,115464.19000000,115884.03000000,887.61948000
1758297600000,115884.03000000,116136.00000000,115800.00000000,116088.68000000,355.37234000
1758301200000,116088.68000000,116093.18000000,115538.67000000,115542.73000000,360.56628000
1758304800000,115542.73000000,115644.73000000,115382.98000000,115407.49000000,388.78402000
1758308400000,115407.49000000,115479.45000000,115112.58000000,115125.12000000,308.93231000
1758312000000,115125.13000000,115445.23000000,115100.00000000,115342.57000000,338.84816000
1758315600000,115342.56000000,115532.73000000,115306.07000000,115465.39000000,178.46294000
1758319200000,115465.39000000,115657.28000000,115465.39000000,115613.21000000,139.86142000
1758322800000,115613.21000000,115648.00000000,115448.01000000,115632.38000000,155.08032000
1758326400000,115632.39000000,115730.41000000,115548.92000000,115723.73000000,220.87363000
1758330000000,115723.72000000,115723.73000000,115610.84000000,115623.51000000,178.50409000
1758333600000,115623.50000000,115623.51000000,115444.00000000,115606.39000000,154.74621000
1758337200000,115606.40000000,115606.40000000,115408.47000000,115445.00000000,162.93905000
1758340800000,115445.00000000,115582.38000000,115409.08000000,115568.41000000,144.02474000
1758344400000,115568.41000000,115717.50000000,115512.63000000,115717.49000000,224.42562000
1758348000000,115717.49000000,115724.34000000,115625.85000000,115700.46000000,159.86607000
1758351600000,115700.47000000,115985.20000000,115683.47000000,115968.56000000,231.14483000
1758355200000,115968.56000000,115968.57000000,115700.01000000,115701.43000000,183.70782000
1758358800000,115701.43000000,115794.39000000,115664.11000000,115672.80000000,196.19831000
1758362400000,115672.80000000,115798.16000000,115672.79000000,115747.54000000,170.36368000
1758366000000,115747.54000000,115909.54000000,115747.54000000,115894.06000000,242.77605000
1758369600000,115894.05000000,115950.89000000,115804.47000000,115874.49000000,155.45643000
1758373200000,115874.50000000,115951.96000000,115859.48000000,115915.80000000,123.96705000
1758376800000,115915.79000000,116036.00000000,115883.30000000,115970.36000000,209.62425000
1758380400000,115970.36000000,116121.81000000,115946.91000000,115986.69000000,347.86651000
1758384000000,115986.70000000,116057.24000000,115882.58000000,116027.94000000,226.24762000
1758387600000,116027.95000000,116079.46000000,115817.28000000,115821.72000000,189.06923000
1758391200000,115821.73000000,115821.73000000,115700.00000000,115711.51000000,191.99051000
1758394800000,115711.51000000,115812.62000000,115698.08000000,115702.00000000,290.90070000
1758398400000,115702.00000000,115789.57000000,115689.91000000,115721.10000000,163.21635000
1758402000000,115721.10000000,115944.70000000,115721.10000000,115786.31000000,200.36310000
1758405600000,115786.30000000,115796.54000000,115742.14000000,115776.06000000,169.22355000
1758409200000,115776.06000000,115776.06000000,115603.42000000,115685.63000000,137.43212000
1758412800000,115685.63000000,115732.94000000,115559.97000000,115660.01000000,204.93197000
1758416400000,115660.01000000,115660.01000000,115500.00000000,115500.00000000,193.04313000
1758420000000,115500.01000000,115700.00000000,115441.83000000,115690.76000000,321.18986000
1758423600000,115690.76000000,115723.43000000,115616.38000000,115669.41000000,199.89426000
1758427200000,115669.42000000,115669.42000000,115494.22000000,115494.23000000,121.47731000
1758430800000,115494.23000000,115663.49000000,115487.56000000,115663.48000000,237.18676000
1758434400000,115663.48000000,115787.39000000,115663.48000000,115687.20000000,201.84931000
1758438000000,115687.21000000,115815.98000000,115615.00000000,115815.97000000,246.42642000
1758441600000,115815.98000000,115819.06000000,115560.94000000,115629.60000000,182.84602000
1758445200000,115629.60000000,115704.53000000,115329.03000000,115683.54000000,335.85586000
1758448800000,115683.53000000,115708.33000000,115504.13000000,115522.31000000,111.62025000
1758452400000,115522.31000000,115694.74000000,115522.31000000,115603.45000000,156.53082000
1758456000000,115603.45000000,115747.23000000,115603.44000000,115683.59000000,183.94971000
1758459600000,115683.59000000,115747.06000000,115645.20000000,115661.65000000,136.30562000
1758463200000,115661.65000000,115691.15000000,115500.00000000,115500.01000000,192.82816000
1758466800000,115500.00000000,115599.60000000,115473.19000000,115531.61000000,158.23691000
1758470400000,115531.62000000,115549.90000000,115209.02000000,115316.00000000,239.98829000
1758474000000,115316.01000000,115629.58000000,115249.94000000,115628.18000000,234.56593000
1758477600000,115628.19000000,115665.52000000,115513.98000000,115530.90000000,173.87321000
1758481200000,115530.89000000,115530.90000000,115318.02000000,115480.05000000,132.68903000
1758484800000,115480.05000000,115503.47000000,115307.51000000,115307.51000000,93.55507000
1758488400000,115307.52000000,115434.53000000,115250.01000000,115405.48000000,101.37440000
1758492000000,115405.48000000,115545.43000000,115188.00000000,115538.90000000,154.30721000
1758495600000,115538.91000000,115538.91000000,115200.00000000,115232.29000000,196.99668000
1758499200000,115232.29000000,115379.25000000,114290.16000000,114407.28000000,1196.13685000
1758502800000,114407.28000000,114750.00000000,114250.98000000,114273.45000000,660.65043000
1758506400000,114273.44000000,114618.89000000,114150.00000000,114187.81000000,895.13507000
1758510000000,114187.80000000,114654.36000000,114187.80000000,114649.89000000,326.66818000
1758513600000,114649.89000000,114649.90000000,114397.32000000,114433.53000000,208.01066000
1758517200000,114433.53000000,114551.80000000,113623.00000000,113691.19000000,753.79586000
1758520800000,113691.18000000,113698.38000000,111800.00000000,112800.77000000,5199.12797000
1758524400000,112800.77000000,112999.00000000,112476.17000000,112519.99000000,1129.86840000
1758528000000,112520.00000000,112780.00000000,112452.00000000,112629.07000000,810.01414000
1758531600000,112629.06000000,112662.87000000,112173.52000000,112336.62000000,1219.89658000
1758535200000,112336.62000000,112848.33000000,112262.22000000,112792.16000000,523.20588000
1758538800000,112792.16000000,112976.02000000,112683.49000000,112876.97000000,499.11385000
1758542400000,112876.97000000,112876.97000000,112520.00000000,112738.65000000,504.05132000
1758546000000,112738.64000000,113148.29000000,112380.00000000,113130.63000000,813.72754000
1758549600000,113130.63000000,113432.76000000,112754.15000000,112933.16000000,1386.14648000
1758553200000,112933.16000000,113024.23000000,112576.42000000,112815.50000000,609.57711000
1758556800000,112815.50000000,112888.00000000,112585.87000000,112600.68000000,359.00005000
1758560400000,112600.69000000,112622.95000000,112250.89000000,112398.66000000,595.09480000
1758564000000,112398.65000000,112816.55000000,112345.54000000,112429.13000000,470.04903000
1758567600000,112429.12000000,112600.87000000,111936.40000000,112122.90000000,1307.37365000
1758571200000,112122.90000000,112977.41000000,111975.28000000,112781.88000000,596.84005000
1758574800000,112781.87000000,112970.00000000,112602.79000000,112969.99000000,293.31156000
1758578400000,112969.99000000,112970.00000000,112594.33000000,112643.25000000,289.60715000
1758582000000,112643.25000000,112739.14000000,112592.20000000,112650.99000000,135.31095000
1758585600000,112650.99000000,112833.09000000,112385.23000000,112395.32000000,400.92095000
1758589200000,112395.32000000,112502.29000000,112138.88000000,112156.66000000,439.66589000
1758592800000,112156.66000000,112487.38000000,111674.00000000,111811.88000000,717.47413000
1758596400000,111811.88000000,112446.97000000,111478.00000000,112339.99000000,840.03485000
1758600000000,112339.99000000,112469.21000000,111876.15000000,112442.30000000,530.48180000
1758603600000,112442.29000000,112894.49000000,112413.01000000,112665.44000000,645.16259000
1758607200000,112665.44000000,113111.89000000,112616.93000000,112974.96000000,574.99132000
1758610800000,112974.97000000,113114.01000000,112882.48000000,113090.13000000,754.18067000
1758614400000,113090.13000000,113177.72000000,112936.98000000,113133.84000000,657.66339000
1758618000000,113133.84000000,113281.50000000,112888.00000000,112934.47000000,430.99222000
1758621600000,112934.48000000,113006.56000000,112828.62000000,112969.32000000,382.87944000
1758625200000,112969.32000000,113081.35000000,112683.33000000,112975.99000000,343.04129000
1758628800000,112975.99000000,113049.90000000,112811.40000000,112941.02000000,342.98937000
1758632400000,112941.01000000,113024.31000000,112722.78000000,112952.31000000,426.02927000
1758636000000,112952.32000000,113290.50000000,112571.81000000,112652.91000000,713.09459000
1758639600000,112652.91000000,113072.89000000,112496.61000000,112882.19000000,466.71943000
1758643200000,112882.20000000,112958.58000000,112486.37000000,112823.63000000,531.06975000
1758646800000,112823.62000000,112823.62000000,111888.00000000,111957.76000000,587.62346000
1758650400000,111957.76000000,112200.00000000,111686.90000000,111780.10000000,710.40527000
1758654000000,111780.09000000,111979.27000000,111540.20000000,111655.29000000,565.08344000
1758657600000,111655.29000000,111994.99000000,111458.73000000,111985.77000000,495.90964000
1758661200000,111985.78000000,112202.24000000,111893.44000000,112161.54000000,270.56814000
1758664800000,112161.53000000,112213.95000000,112002.16000000,112159.23000000,231.71626000
1758668400000,112159.24000000,112220.54000000,111879.73000000,111998.80000000,242.62314000
1758672000000,111998.80000000,112380.00000000,111816.86000000,112230.72000000,457.37128000
1758675600000,112230.73000000,112500.00000000,112140.00000000,112451.26000000,263.95045000
1758679200000,112451.25000000,112500.00000000,111896.43000000,112111.62000000,1045.64078000
1758682800000,112111.62000000,112223.15000000,111683.09000000,111683.09000000,1081.07058000
1758686400000,111683.10000000,112374.32000000,111042.66000000,112161.93000000,1377.98323000
1758690000000,112161.94000000,112666.74000000,112133.83000000,112636.84000000,480.95742000
1758693600000,112636.85000000,112779.37000000,112535.78000000,112596.69000000,508.56699000
1758697200000,112596.70000000,112742.06000000,112459.44000000,112583.54000000,538.18220000
1758700800000,112583.54000000,112636.85000000,112405.62000000,112622.80000000,369.32812000
1758704400000,112622.81000000,112837.42000000,112501.38000000,112735.06000000,247.34844000
1758708000000,112735.05000000,112960.00000000,112668.51000000,112941.98000000,402.84076000
1758711600000,112941.99000000,113162.17000000,112877.30000000,113029.46000000,548.21142000
1758715200000,113029.45000000,113097.99000000,112944.00000000,113070.69000000,272.77737000
1758718800000,113070.69000000,113222.69000000,112808.00000000,112823.62000000,578.33959000
1758722400000,112823.62000000,113890.00000000,112823.61000000,113720.64000000,966.18934000
1758726000000,113720.64000000,113883.68000000,113257.01000000,113346.41000000,717.74437000
1758729600000,113346.40000000,113753.00000000,113163.21000000,113732.01000000,447.67953000
1758733200000,113732.01000000,113940.00000000,113616.00000000,113761.30000000,361.88913000
1758736800000,113761.31000000,113830.66000000,113512.53000000,113639.80000000,202.61449000
1758740400000,113639.80000000,113682.46000000,113292.25000000,113420.01000000,306.51270000
1758744000000,113420.00000000,113609.25000000,113401.99000000,113501.52000000,233.37909000
1758747600000,113501.52000000,113584.02000000,113283.99000000,113339.63000000,274.44453000
1758751200000,113339.63000000,113647.58000000,113250.59000000,113336.33000000,268.57434000
1758754800000,113336.34000000,113429.12000000,113204.71000000,113307.00000000,417.66352000
1758758400000,113307.01000000,113510.23000000,112960.00000000,113062.35000000,567.08586000
1758762000000,113062.35000000,113369.98000000,112446.15000000,112661.24000000,1139.29698000
1758765600000,112661.24000000,113179.94000000,112510.06000000,112907.38000000,569.88139000
1758769200000,112907.38000000,112907.39000000,112214.74000000,112546.21000000,773.34995000
1758772800000,112546.22000000,112614.43000000,111584.23000000,111735.66000000,1337.55309000
1758776400000,111735.67000000,112040.00000000,111597.86000000,111749.91000000,705.54263000
1758780000000,111749.91000000,111843.30000000,111515.87000000,111533.26000000,371.96659000
1758783600000,111533.26000000,111883.23000000,111450.42000000,111766.72000000,515.14719000
1758787200000,111766.73000000,112031.18000000,111689.38000000,111727.21000000,537.91010000
1758790800000,111727.20000000,112246.46000000,111571.57000000,111571.58000000,771.79377000
1758794400000,111571.58000000,111854.12000000,111525.81000000,111648.19000000,434.41742000
1758798000000,111648.19000000,111728.48000000,111283.63000000,111348.00000000,543.64106000
1758801600000,111347.99000000,111656.81000000,111020.00000000,111111.00000000,1058.26970000
1758805200000,111111.01000000,111719.05000000,110629.99000000,111000.00000000,2220.16862000
1758808800000,111000.00000000,111729.52000000,110983.03000000,111540.00000000,856.73547000
1758812400000,111540.01000000,111587.75000000,110868.90000000,111580.77000000,599.58449000
1758816000000,111580.77000000,111672.58000000,110904.91000000,110957.29000000,585.10481000
1758819600000,110957.28000000,110968.40000000,108654.00000000,108833.63000000,2899.70308000
1758823200000,108833.63000000,109801.78000000,108631.51000000,109760.20000000,1427.42291000
1758826800000,109760.20000000,109973.40000000,109302.54000000,109360.00000000,1217.19366000
1758830400000,109360.00000000,109482.62000000,109057.06000000,109163.44000000,424.71820000
1758834000000,109163.45000000,109666.30000000,109074.11000000,109420.00000000,347.85454000
1758837600000,109420.00000000,109587.99000000,109261.02000000,109419.97000000,280.53982000
1758841200000,109419.97000000,109685.72000000,108765.00000000,108994.49000000,1046.26824000
1758844800000,108994.49000000,109614.67000000,108809.24000000,109472.13000000,868.75424000
1758848400000,109472.12000000,109762.59000000,109313.17000000,109680.40000000,452.15578000
1758852000000,109680.39000000,109798.84000000,109487.26000000,109621.70000000,497.29551000
1758855600000,109621.70000000,109635.80000000,109293.25000000,109580.01000000,504.99021000
1758859200000,109580.00000000,109625.94000000,109250.87000000,109338.01000000,315.34456000
1758862800000,109338.02000000,109579.99000000,109085.78000000,109252.79000000,371.75832000
1758866400000,109252.79000000,109624.16000000,109016.00000000,109360.00000000,592.34105000
1758870000000,109360.00000000,109593.49000000,108913.00000000,109320.02000000,1776.45411000
1758873600000,109320.02000000,109607.50000000,109304.72000000,109567.20000000,575.78415000
1758877200000,109567.20000000,109690.98000000,109393.37000000,109568.72000000,441.33309000
1758880800000,109568.72000000,109568.72000000,108697.42000000,108895.00000000,735.10273000
1758884400000,108894.99000000,109200.00000000,108620.07000000,109133.50000000,923.24217000
1758888000000,109133.50000000,109579.00000000,108824.82000000,109372.68000000,863.36244000
1758891600000,109372.68000000,109779.73000000,109000.00000000,109669.73000000,991.99403000
1758895200000,109669.72000000,109779.73000000,108764.76000000,108836.00000000,900.45250000
1758898800000,108836.00000000,109358.50000000,108802.04000000,109027.78000000,486.11543000
1758902400000,109027.79000000,109618.00000000,109027.78000000,109460.01000000,291.37899000
1758906000000,109460.00000000,110000.00000000,109392.35000000,109899.99000000,627.01224000
1758909600000,109900.00000000,110300.00000000,109700.00000000,109727.99000000,571.22129000
1758913200000,109727.99000000,109727.99000000,109030.41000000,109172.20000000,603.81607000
1758916800000,109172.21000000,109347.59000000,109087.57000000,109288.44000000,245.23004000
1758920400000,109288.45000000,109530.00000000,109189.17000000,109469.07000000,210.90009000
1758924000000,109469.07000000,109607.38000000,109348.00000000,109558.25000000,183.31873000
1758927600000,109558.24000000,109687.69000000,109432.07000000,109643.46000000,213.65814000
1758931200000,109643.46000000,109660.88000000,109472.23000000,109649.29000000,268.55384000
1758934800000,109649.29000000,109657.45000000,109330.08000000,109431.92000000,230.21003000
1758938400000,109431.92000000,109482.64000000,109324.42000000,109408.18000000,280.63961000
1758942000000,109408.18000000,109743.91000000,109384.63000000,109553.77000000,262.25571000
1758945600000,109553.77000000,109742.27000000,109514.63000000,109654.99000000,248.07725000
1758949200000,109654.99000000,109684.29000000,109593.65000000,109635.72000000,128.97939000
1758952800000,109635.73000000,109635.73000000,109481.44000000,109541.36000000,241.06138000
1758956400000,109541.36000000,109570.36000000,109332.02000000,109411.20000000,290.72314000
1758960000000,109411.19000000,109411.20000000,109252.00000000,109252.01000000,379.23249000
1758963600000,109252.01000000,109347.59000000,109064.40000000,109292.73000000,409.97831000
1758967200000,109292.74000000,109477.69000000,109256.07000000,109431.70000000,322.59239000
1758970800000,109431.71000000,109440.65000000,109280.00000000,109310.21000000,244.48710000
1758974400000,109310.22000000,109477.59000000,109227.14000000,109400.05000000,336.07633000
1758978000000,109400.06000000,109412.14000000,109299.64000000,109306.61000000,336.77227000
1758981600000,109306.61000000,109387.51000000,109255.90000000,109287.89000000,273.62629000
1758985200000,109287.89000000,109427.40000000,109193.00000000,109402.24000000,204.90854000
1758988800000,109402.25000000,109427.76000000,109308.00000000,109389.04000000,176.55452000
1758992400000,109389.05000000,109410.00000000,109243.89000000,109382.47000000,183.15972000
1758996000000,109382.48000000,109434.99000000,109345.11000000,109434.96000000,154.76580000
1758999600000,109434.96000000,109440.00000000,109383.48000000,109424.20000000,76.33855000
1759003200000,109424.21000000,109435.00000000,109362.72000000,109390.00000000,60.18528000
1759006800000,109390.00000000,109483.55000000,109389.47000000,109474.99000000,119.69499000
1759010400000,109474.98000000,109699.98000000,109474.98000000,109605.62000000,175.35372000
1759014000000,109605.63000000,109683.16000000,109461.53000000,109635.85000000,97.55978000
1759017600000,109635.85000000,109787.75000000,109548.00000000,109607.81000000,283.02575000
1759021200000,109607.81000000,109654.85000000,109325.05000000,109353.67000000,221.51490000
1759024800000,109353.68000000,109535.00000000,109353.67000000,109447.55000000,194.54739000
1759028400000,109447.54000000,109535.00000000,109409.17000000,109436.00000000,123.06023000
1759032000000,109436.00000000,109486.10000000,109365.88000000,109365.90000000,99.29239000
1759035600000,109365.90000000,109398.00000000,109356.42000000,109356.43000000,124.07352000
1759039200000,109356.44000000,109455.97000000,109260.00000000,109410.00000000,167.02015000
1759042800000,109410.00000000,109537.80000000,109350.00000000,109513.06000000,178.66470000
1759046400000,109513.06000000,109585.39000000,109423.21000000,109509.91000000,216.27847000
1759050000000,109509.91000000,109559.89000000,109323.88000000,109519.42000000,209.63846000
1759053600000,109519.43000000,109519.43000000,109368.43000000,109368.44000000,143.70537000
1759057200000,109368.43000000,109447.28000000,109250.00000000,109369.02000000,293.31231000
1759060800000,109369.02000000,109451.04000000,109189.99000000,109314.99000000,308.15163000
1759064400000,109314.99000000,109668.98000000,109314.98000000,109639.00000000,332.00919000
1759068000000,109639.00000000,109888.00000000,109502.56000000,109850.01000000,370.11862000
1759071600000,109850.00000000,110037.93000000,109712.23000000,110037.93000000,338.92347000
1759075200000,110037.92000000,110393.63000000,110008.54000000,110222.02000000,516.23853000
1759078800000,110222.01000000,110377.05000000,110130.26000000,110203.52000000,374.79675000
1759082400000,110203.53000000,110293.56000000,110060.88000000,110293.56000000,140.49771000
1759086000000,110293.56000000,110388.46000000,110119.71000000,110337.60000000,184.24395000
1759089600000,110337.61000000,110945.00000000,110294.78000000,110803.80000000,510.06540000
1759093200000,110803.80000000,110896.33000000,110640.81000000,110833.99000000,275.55071000
1759096800000,110833.99000000,112014.00000000,110833.99000000,111938.51000000,1130.21918000
1759100400000,111938.51000000,112350.00000000,111938.51000000,112163.95000000,807.38282000
1759104000000,112163.96000000,112309.98000000,111985.00000000,112260.57000000,716.58660000
1759107600000,112260.57000000,112310.00000000,111721.79000000,111855.30000000,649.21896000
1759111200000,111855.30000000,112022.27000000,111632.72000000,111750.02000000,621.54504000
1759114800000,111750.02000000,111857.51000000,111588.07000000,111857.51000000,310.12302000
1759118400000,111857.51000000,111904.34000000,111750.00000000,111812.00000000,278.79762000
1759122000000,111812.01000000,111812.01000000,111575.38000000,111753.34000000,348.73721000
1759125600000,111753.34000000,111850.00000000,111624.00000000,111632.83000000,334.53443000
1759129200000,111632.83000000,111865.96000000,111560.65000000,111865.95000000,869.29090000
1759132800000,111865.96000000,112421.99000000,111865.95000000,112099.75000000,787.97678000
1759136400000,112099.74000000,112219.00000000,111988.13000000,112110.90000000,460.23123000
1759140000000,112110.90000000,112225.00000000,112012.73000000,112090.18000000,476.12298000
1759143600000,112090.19000000,112112.86000000,111923.13000000,112100.00000000,401.91096000
1759147200000,112100.00000000,112515.00000000,111940.00000000,112022.16000000,744.63691000
1759150800000,112022.00000000,113490.00000000,111901.26000000,113227.29000000,1670.66371000
1759154400000,113227.29000000,114231.56000000,113220.21000000,114033.53000000,1791.07159000
1759158000000,114033.54000000,114127.13000000,113686.06000000,113815.57000000,858.42631000
1759161600000,113815.57000000,114053.00000000,113600.00000000,113626.15000000,728.01207000
1759165200000,113626.15000000,114151.00000000,113449.74000000,114043.91000000,843.56729000
1759168800000,114043.92000000,114137.73000000,113867.02000000,114008.79000000,396.89151000
1759172400000,114008.78000000,114390.93000000,113848.63000000,114265.55000000,747.93438000
1759176000000,114265.56000000,114400.00000000,114122.12000000,114258.29000000,497.44944000
1759179600000,114258.29000000,114329.80000000,114095.36000000,114176.73000000,218.26557000
1759183200000,114176.72000000,114216.41000000,114020.00000000,114189.81000000,443.81221000
1759186800000,114189.80000000,114395.92000000,114189.80000000,114311.96000000,345.31333000
1759190400000,114311.97000000,114758.00000000,114040.35000000,114525.97000000,953.85322000
1759194000000,114525.97000000,114792.00000000,114255.38000000,114500.31000000,766.25660000
1759197600000,114500.32000000,114583.19000000,114360.00000000,114455.96000000,385.99253000
1759201200000,114455.96000000,114514.50000000,114303.06000000,114376.39000000,388.27883000
1759204800000,114376.39000000,114376.40000000,114091.62000000,114091.63000000,355.43204000
1759208400000,114091.63000000,114205.17000000,113827.24000000,113904.00000000,698.31455000
1759212000000,113904.00000000,114084.22000000,113838.41000000,113891.64000000,527.62041000
1759215600000,113891.64000000,113994.61000000,113585.00000000,113699.23000000,745.45417000
1759219200000,113699.24000000,113741.37000000,113350.35000000,113451.89000000,653.46315000
1759222800000,113451.89000000,113451.89000000,112731.41000000,112781.97000000,995.05591000
1759226400000,112781.97000000,113085.23000000,112656.27000000,112923.49000000,721.99583000
1759230000000,112923.50000000,113135.44000000,112810.62000000,113055.01000000,498.77683000
1759233600000,113055.00000000,113255.99000000,112990.75000000,113002.06000000,347.59460000
1759237200000,113002.06000000,113677.23000000,112866.11000000,113404.53000000,823.64679000
1759240800000,113404.53000000,113630.13000000,112900.00000000,113595.05000000,910.17644000
1759244400000,113595.04000000,113598.27000000,112919.95000000,113106.16000000,758.86878000
1759248000000,113106.15000000,113279.92000000,112800.00000000,112841.24000000,386.78887000
1759251600000,112841.23000000,113503.99000000,112813.82000000,113246.11000000,745.57241000
1759255200000,113246.12000000,113714.56000000,113177.37000000,113714.56000000,431.85830000
1759258800000,113714.55000000,114563.46000000,113702.01000000,114359.99000000,971.66803000
1759262400000,114359.99000000,114723.57000000,114110.09000000,114626.36000000,710.64838000
1759266000000,114626.36000000,114754.87000000,114136.50000000,114161.00000000,649.46746000
1759269600000,114161.00000000,114356.98000000,113883.01000000,113940.39000000,348.93460000
1759273200000,113940.40000000,114048.94000000,113765.42000000,114048.93000000,268.43760000
1759276800000,114048.94000000,114308.00000000,113966.67000000,114239.53000000,434.59016000
1759280400000,114239.53000000,114550.00000000,114142.99000000,114549.99000000,597.25360000
1759284000000,114549.99000000,114551.76000000,114272.15000000,114272.15000000,508.42422000
1759287600000,114272.16000000,114530.48000000,114096.58000000,114176.92000000,502.30318000
1759291200000,114176.93000000,114700.00000000,114151.00000000,114289.01000000,597.89328000
1759294800000,114289.02000000,114740.00000000,114265.63000000,114569.84000000,559.75519000
1759298400000,114569.84000000,114624.30000000,114224.88000000,114256.81000000,392.52281000
1759302000000,114256.82000000,114584.35000000,114236.59000000,114539.02000000,446.26236000
1759305600000,114539.02000000,116591.80000000,114484.43000000,116111.28000000,2944.06599000
1759309200000,116111.27000000,116529.93000000,115950.00000000,116412.10000000,1081.73774000
1759312800000,116412.10000000,116551.00000000,116203.50000000,116281.64000000,549.64831000
1759316400000,116281.64000000,116795.85000000,116269.00000000,116789.58000000,642.47832000
1759320000000,116789.57000000,116887.00000000,116363.38000000,116402.65000000,645.19981000
1759323600000,116402.65000000,116843.73000000,116399.50000000,116806.96000000,1233.59755000
1759327200000,116806.96000000,117441.26000000,116704.74000000,117292.74000000,1631.53193000
1759330800000,117292.73000000,117649.99000000,117091.84000000,117423.73000000,1008.01671000
1759334400000,117423.73000000,118199.00000000,117319.04000000,117535.79000000,1840.40868000
1759338000000,117535.79000000,117681.27000000,116724.56000000,116768.07000000,962.36022000
1759341600000,116768.08000000,117339.09000000,116768.07000000,117234.01000000,528.26692000
1759345200000,117234.01000000,117623.59000000,117214.80000000,117439.53000000,483.28734000
1759348800000,117439.53000000,117542.24000000,117163.25000000,117536.12000000,412.83403000
1759352400000,117536.13000000,117579.43000000,117339.54000000,117554.96000000,278.91184000
1759356000000,117554.95000000,118080.00000000,117554.95000000,117745.39000000,593.82096000
1759359600000,117745.39000000,118649.10000000,117686.28000000,118594.99000000,1161.22401000
1759363200000,118594.99000000,119456.92000000,118397.32000000,118428.46000000,2212.72285000
1759366800000,118428.46000000,118894.12000000,118368.05000000,118617.37000000,734.61790000
1759370400000,118617.37000000,118784.87000000,118483.39000000,118753.73000000,644.14993000
1759374000000,118753.73000000,119058.82000000,118688.61000000,118733.99000000,595.85707000
1759377600000,118733.99000000,118930.29000000,118432.64000000,118662.04000000,410.46135000
1759381200000,118662.04000000,118677.32000000,118279.31000000,118377.34000000,484.81157000
