timestamp,open,high,low,close,volume
1760644800000,108197.67000000,108500.00000000,107427.00000000,108194.28000000,2254.40655000
1760659200000,108194.27000000,109240.00000000,107934.40000000,109176.74000000,2417.89309000
1760673600000,109176.74000000,109236.01000000,105542.09000000,105633.75000000,8020.07533000
1760688000000,105633.75000000,106651.22000000,103528.23000000,105683.72000000,13908.33322000
1760702400000,105683.71000000,106852.14000000,104533.21000000,106803.53000000,7847.34313000
1760716800000,106803.52000000,107575.60000000,106071.42000000,106454.72000000,3916.46744000
1760731200000,106457.24000000,107440.02000000,106342.47000000,106431.68000000,1810.55617000
1760745600000,106431.68000000,107306.06000000,106322.20000000,107070.40000000,2668.30340000
1760760000000,107070.41000000,107499.00000000,106439.38000000,106665.00000000,2976.33507000
1760774400000,106665.01000000,107222.00000000,106605.93000000,107208.60000000,2336.72819000
1760788800000,107208.61000000,107300.00000000,106739.33000000,106948.75000000,1425.61863000
1760803200000,106948.75000000,107091.87000000,106484.00000000,107080.14000000,911.25891000
1760817600000,107080.14000000,107339.03000000,106851.84000000,107185.01000000,804.94346000
1760832000000,107185.00000000,107367.16000000,106734.17000000,107275.78000000,1058.11210000
1760846400000,107275.79000000,107290.00000000,106558.61000000,106786.00000000,1247.19589000
1760860800000,106786.00000000,108260.50000000,106103.36000000,107783.47000000,5059.55867000
1760875200000,107783.47000000,108621.68000000,107355.02000000,108486.70000000,3636.47308000
1760889600000,108486.71000000,109450.07000000,108240.00000000,108908.43000000,2430.56297000
1760904000000,108908.43000000,109370.99000000,108471.10000000,108642.78000000,2048.76152000
1760918400000,108642.77000000,110427.86000000,107402.52000000,110145.44000000,3683.55508000
1760932800000,110145.45000000,111445.67000000,109951.96000000,111169.92000000,3967.97672000
1760947200000,111169.91000000,111679.25000000,110608.27000000,111016.75000000,3452.86704000
1760961600000,111016.75000000,111705.56000000,110588.23000000,111144.55000000,3006.20504000
1760976000000,111144.55000000,111303.05000000,109855.83000000,110803.22000000,3716.65669000
1760990400000,110803.22000000,111272.00000000,110418.25000000,110532.09000000,1366.18103000
1761004800000,110532.09000000,110532.09000000,109052.09000000,109059.22000000,2405.81342000
1761019200000,109059.23000000,109059.23000000,107473.72000000,108086.37000000,4930.32680000
1761033600000,108086.38000000,108811.47000000,107484.22000000,108580.01000000,2989.72657000
1761048000000,108580.00000000,113557.62000000,107922.06000000,113422.61000000,10002.10737000
1761062400000,113422.60000000,114000.00000000,111324.29000000,111780.39000000,10731.47816000
1761076800000,111780.40000000,111801.41000000,108045.81000000,108297.67000000,6168.56427000
1761091200000,108297.66000000,108678.21000000,107841.20000000,108216.02000000,4851.56459000
1761105600000,108216.03000000,108638.99000000,107610.00000000,108321.63000000,3883.15964000
1761120000000,108321.64000000,108358.76000000,106708.18000000,107555.05000000,4012.65986000
1761134400000,107555.04000000,109163.88000000,107443.01000000,108416.50000000,7925.67327000
1761148800000,108416.50000000,108796.42000000,107463.29000000,107870.35000000,4008.05438000
1761163200000,107870.35000000,108069.93000000,106666.69000000,107567.44000000,3929.67277000
1761177600000,107567.45000000,108720.39000000,107500.00000000,108377.96000000,2373.50317000
1761192000000,108377.96000000,110298.29000000,108350.36000000,109269.90000000,3314.78585000
1761206400000,109269.90000000,109903.83000000,109100.40000000,109253.89000000,2204.01103000
1761220800000,109253.88000000,110109.99000000,108685.72000000,109908.28000000,4284.59025000
1761235200000,109908.29000000,111293.61000000,109647.34000000,110200.00000000,3640.32069000
1761249600000,110200.01000000,110200.01000000,109341.28000000,110078.18000000,1755.88195000
1761264000000,110078.19000000,110829.67000000,109983.93000000,110441.46000000,1538.88446000
1761278400000,110441.46000000,111522.30000000,110332.00000000,111054.61000000,2705.19443000
1761292800000,111054.61000000,111482.99000000,110600.00000000,111066.29000000,1981.64658000
1761307200000,111066.29000000,112104.98000000,109700.01000000,110046.91000000,5533.12257000
1761321600000,110046.92000000,110945.39000000,109797.13000000,110615.07000000,1470.06782000
1761336000000,110615.07000000,111138.62000000,110478.00000000,111004.89000000,1776.25327000
1761350400000,111004.90000000,111226.67000000,110672.86000000,111029.99000000,829.34913000
1761364800000,111029.99000000,111820.87000000,111029.99000000,111489.60000000,1417.09029000
1761379200000,111489.59000000,111850.13000000,111375.81000000,111563.81000000,1378.18654000
1761393600000,111563.81000000,111943.19000000,111311.19000000,111385.18000000,1254.08497000
1761408000000,111385.18000000,111731.78000000,111164.39000000,111623.45000000,963.51944000
1761422400000,111623.46000000,111683.64000000,111342.25000000,111646.27000000,565.73827000
1761436800000,111646.27000000,111899.56000000,111260.45000000,111260.46000000,1026.78183000
1761451200000,111260.46000000,111724.96000000,111260.46000000,111723.98000000,665.50994000
1761465600000,111723.98000000,113466.23000000,111708.63000000,113286.09000000,2987.57218000
1761480000000,113286.09000000,114000.00000000,113279.85000000,113694.97000000,3506.31151000
1761494400000,113694.97000000,113793.93000000,113290.62000000,113585.99000000,1360.11589000
1761508800000,113585.98000000,115466.80000000,112901.00000000,114559.40000000,3908.18602000
1761523200000,114559.41000000,115445.39000000,114362.26000000,114958.51000000,3281.65267000
1761537600000,114958.52000000,116400.00000000,114938.01000000,115554.60000000,5478.94550000
1761552000000,115554.59000000,115607.48000000,114814.69000000,115362.02000000,3701.92326000
1761566400000,115362.02000000,115437.48000000,114503.99000000,114969.68000000,4493.43933000
1761580800000,114969.68000000,115790.00000000,114790.81000000,114942.64000000,2258.20754000
1761595200000,114942.64000000,114942.64000000,113830.01000000,114107.65000000,2236.06411000
1761609600000,114107.65000000,114547.20000000,113569.91000000,113908.24000000,2184.14279000
1761624000000,113908.25000000,114364.99000000,113483.30000000,114188.37000000,2190.67870000
1761638400000,114188.38000000,114673.68000000,114113.30000000,114357.73000000,1236.93368000
1761652800000,114357.72000000,116086.00000000,114138.06000000,114641.38000000,4008.51256000
1761667200000,114641.38000000,115591.41000000,113566.44000000,113689.99000000,2719.79536000
1761681600000,113689.00000000,113703.32000000,112211.00000000,112898.45000000,3183.35948000
1761696000000,112898.44000000,112975.75000000,112100.00000000,112523.49000000,2076.22141000
1761710400000,112523.49000000,113577.90000000,112505.58000000,113577.90000000,2036.63326000
1761724800000,113577.90000000,113624.12000000,112732.91000000,113132.36000000,1970.99326000
1761739200000,113132.35000000,113643.73000000,111401.50000000,111509.74000000,4606.39611000
1761753600000,111509.74000000,112030.23000000,109200.00000000,110640.00000000,7741.83881000
1761768000000,110640.00000000,111800.00000000,109733.22000000,110021.29000000,2647.63091000
1761782400000,110021.30000000,111011.99000000,109703.43000000,110751.47000000,2342.18582000
1761796800000,110751.48000000,111592.00000000,107925.06000000,111366.72000000,6581.76635000
1761811200000,111366.72000000,111467.01000000,109692.30000000,109717.29000000,2970.54213000
1761825600000,109717.19000000,109777.93000000,107328.00000000,107711.56000000,6544.11088000
1761840000000,107711.56000000,108214.85000000,106304.34000000,106536.39000000,4367.26208000
1761854400000,106536.39000000,108334.53000000,106316.17000000,108322.88000000,3182.96112000
1761868800000,108322.87000000,110042.16000000,108275.28000000,109227.86000000,4174.28130000
1761883200000,109227.87000000,110215.00000000,109114.88000000,109449.31000000,3598.46922000
1761897600000,109449.32000000,110550.00000000,109214.13000000,110415.61000000,2439.82294000
1761912000000,110415.62000000,111190.00000000,109366.91000000,110202.90000000,6113.31690000
1761926400000,110202.90000000,110300.00000000,108635.00000000,109828.78000000,3864.41061000
1761940800000,109828.78000000,109828.79000000,109329.15000000,109608.01000000,1327.90342000
1761955200000,109608.01000000,110315.54000000,109394.81000000,110226.37000000,1329.53082000
1761969600000,110226.38000000,110564.49000000,109933.86000000,110071.40000000,1273.91172000
1761984000000,110071.40000000,110270.90000000,109854.72000000,110137.59000000,1127.98746000
1761998400000,110137.59000000,110348.00000000,109702.66000000,110310.65000000,1527.00509000
1762012800000,110310.65000000,110529.99000000,110192.00000000,110299.99000000,1247.33562000
1762027200000,110300.00000000,110516.17000000,109858.44000000,110098.10000000,872.73360000
1762041600000,110098.10000000,110263.91000000,109879.39000000,110053.23000000,856.27323000
1762056000000,110053.22000000,111045.09000000,110030.06000000,110895.53000000,4429.20302000
1762070400000,110895.53000000,111229.78000000,110346.15000000,111196.99000000,2428.29839000
1762084800000,111196.99000000,111250.01000000,110096.32000000,110117.48000000,1689.37947000
1762099200000,110117.49000000,110331.00000000,109735.59000000,110180.84000000,1185.47603000
1762113600000,110180.85000000,110742.26000000,109471.34000000,110540.68000000,1518.37073000
1762128000000,110540.69000000,110750.00000000,107907.44000000,107937.45000000,3966.52950000
1762142400000,107937.45000000,108075.00000000,107006.05000000,107468.23000000,3863.52296000
1762156800000,107468.23000000,107920.92000000,106726.63000000,107787.42000000,3470.56341000
1762171200000,107787.42000000,108333.00000000,105511.00000000,105745.71000000,6164.15776000
1762185600000,105745.71000000,107783.20000000,105306.56000000,107090.00000000,7788.41484000
1762200000000,107090.00000000,107169.68000000,105755.59000000,106583.04000000,3427.99932000
1762214400000,106583.05000000,107298.74000000,105852.37000000,107158.79000000,4088.97853000
1762228800000,107158.79000000,107299.00000000,104200.00000000,104490.72000000,8029.86674000
1762243200000,104490.73000000,104699.07000000,103605.00000000,104584.76000000,5321.10046000
1762257600000,104584.75000000,104842.63000000,102915.05000000,103197.01000000,7422.89891000
1762272000000,103197.02000000,103500.05000000,100010.73000000,100542.64000000,13452.93585000
1762286400000,100542.64000000,101893.09000000,98944.36000000,101497.22000000,12219.09327000
1762300800000,101497.23000000,102272.23000000,98966.80000000,102130.00000000,11012.84461000
1762315200000,102130.00000000,102370.00000000,101500.00000000,101993.02000000,4661.84078000
1762329600000,101993.03000000,102203.48000000,101176.47000000,102070.61000000,3577.50149000
1762344000000,102070.62000000,103798.37000000,101916.77000000,103728.30000000,6345.91865000
1762358400000,103728.30000000,104529.41000000,103057.56000000,104008.09000000,5492.77185000
1762372800000,104008.09000000,104534.74000000,103305.05000000,103885.16000000,2687.89833000
1762387200000,103885.16000000,103933.33000000,102716.26000000,103636.03000000,3781.79437000
1762401600000,103636.92000000,104200.00000000,102910.66000000,103185.48000000,2970.86552000
1762416000000,103184.75000000,103440.00000000,102651.63000000,103227.58000000,2657.25315000
1762430400000,103227.59000000,103626.46000000,101630.00000000,102014.48000000,6680.54627000
1762444800000,102014.49000000,102393.51000000,100300.95000000,101388.81000000,6059.26390000
1762459200000,101388.82000000,101643.28000000,100541.17000000,101346.04000000,3664.89818000
1762473600000,101346.04000000,102500.00000000,100749.94000000,101916.29000000,3965.61372000
1762488000000,101916.30000000,102527.00000000,101582.92000000,102010.00000000,3062.61099000
1762502400000,102009.99000000,102050.00000000,99803.58000000,100411.89000000,6600.41114000
1762516800000,100411.89000000,101253.99000000,99260.86000000,100797.95000000,8633.01674000
1762531200000,100797.95000000,103395.25000000,100517.06000000,103395.25000000,6836.56812000
1762545600000,103395.92000000,104096.36000000,102958.00000000,103339.08000000,2961.28871000
1762560000000,103339.09000000,103406.22000000,102539.49000000,102592.76000000,2401.80651000
1762574400000,102592.76000000,102836.00000000,101902.64000000,102352.96000000,2041.96251000
1762588800000,102352.96000000,102687.72000000,101715.76000000,101857.10000000,1838.21057000
1762603200000,101857.10000000,102186.99000000,101454.00000000,101711.45000000,3063.13156000
1762617600000,101711.46000000,102219.39000000,101522.08000000,101989.65000000,2120.40711000
1762632000000,101989.65000000,102482.20000000,101957.94000000,102312.94000000,925.26159000
1762646400000,102312.95000000,102337.89000000,101400.00000000,101662.05000000,2156.33613000
1762660800000,101662.05000000,102130.61000000,101635.96000000,101944.59000000,1101.66332000
1762675200000,101944.60000000,102307.68000000,101500.00000000,102239.41000000,1825.56978000
1762689600000,102239.41000000,104168.00000000,102050.64000000,103762.17000000,4687.64884000
1762704000000,103762.18000000,104805.57000000,103316.23000000,104805.57000000,2824.51417000
1762718400000,104805.57000000,105495.62000000,104058.59000000,104722.96000000,3743.23872000
1762732800000,104722.95000000,106670.11000000,104265.02000000,106027.97000000,6501.34292000
1762747200000,106027.97000000,106539.40000000,105846.26000000,106461.45000000,2684.13909000
1762761600000,106461.46000000,106599.47000000,105836.00000000,106176.50000000,2356.44228000
1762776000000,106176.50000000,106589.89000000,104667.00000000,105079.99000000,5720.78074000
1762790400000,105079.99000000,106094.31000000,104784.36000000,105817.99000000,2756.40939000
1762804800000,105818.00000000,106299.22000000,105280.00000000,106011.13000000,2663.14231000
1762819200000,106011.13000000,107500.00000000,105500.00000000,106456.00000000,4935.02762000
1762833600000,106456.00000000,106546.00000000,104741.20000000,104783.98000000,3316.23424000
1762848000000,104783.99000000,105497.99000000,104762.23000000,105311.90000000,1804.62899000
1762862400000,105311.90000000,105500.00000000,103170.33000000,103455.99000000,8851.06900000
1762876800000,103455.99000000,103730.00000000,102840.22000000,103126.39000000,2547.95909000
1762891200000,103126.39000000,103224.29000000,102476.09000000,103058.99000000,2741.58824000
1762905600000,103059.00000000,103440.96000000,102687.72000000,103310.00000000,2672.05561000
1762920000000,103310.00000000,103654.38000000,103011.00000000,103112.66000000,2165.62446000
1762934400000,103112.65000000,105200.00000000,103112.24000000,105020.83000000,3543.70691000
1762948800000,105020.82000000,105333.33000000,101961.97000000,102173.51000000,5192.00313000
1762963200000,102173.51000000,102285.18000000,100813.59000000,101297.31000000,4869.26591000
1762977600000,101297.31000000,101999.35000000,101141.03000000,101654.37000000,2014.98304000
1762992000000,101654.37000000,102604.00000000,100922.55000000,102130.21000000,3586.47221000
1763006400000,102130.21000000,104085.01000000,101665.59000000,103475.66000000,4325.82278000
1763020800000,103475.66000000,103811.49000000,102553.63000000,102936.50000000,3138.63943000
1763035200000,102936.49000000,103483.83000000,101184.14000000,101382.64000000,6264.43277000
1763049600000,101382.63000000,101540.93000000,98147.40000000,98682.14000000,12921.08077000
1763064000000,98682.13000000,100501.31000000,98000.40000000,99692.02000000,5962.05975000
1763078400000,99692.03000000,99866.02000000,98700.00000000,99139.38000000,5839.81569000
1763092800000,99139.38000000,99178.58000000,95933.75000000,97151.98000000,11116.73192000
1763107200000,97151.97000000,97553.70000000,95711.00000000,96167.44000000,5255.60132000
1763121600000,96167.45000000,97322.35000000,94560.48000000,96796.14000000,14312.72078000
1763136000000,96796.14000000,97411.11000000,94800.55000000,95778.29000000,5605.64502000
1763150400000,95778.30000000,95940.00000000,94012.45000000,94594.00000000,5157.63008000
1763164800000,94594.00000000,96846.68000000,94558.49000000,96417.12000000,4376.79077000
1763179200000,96417.12000000,96570.65000000,95921.21000000,96333.86000000,2543.94362000
1763193600000,96333.87000000,96350.52000000,95630.00000000,95696.87000000,2336.22638000
1763208000000,95696.86000000,96471.22000000,95565.17000000,96260.00000000,1987.28578000
1763222400000,96259.99000000,96419.65000000,95731.32000000,96012.01000000,1880.65231000
1763236800000,96012.01000000,96012.01000000,95119.94000000,95596.24000000,1985.99505000
1763251200000,95596.23000000,95979.79000000,94841.62000000,95825.02000000,1896.67006000
1763265600000,95825.02000000,96192.00000000,95650.72000000,96099.99000000,1279.33932000
1763280000000,96099.98000000,96635.11000000,95500.00000000,95627.13000000,2585.38054000
1763294400000,95627.13000000,95900.00000000,94368.24000000,94573.46000000,2546.31874000
1763308800000,94573.46000000,95567.79000000,93770.48000000,94020.00000000,9045.25375000
1763323200000,94020.49000000,94739.74000000,93005.55000000,94261.44000000,6536.44269000
1763337600000,94261.45000000,95559.99000000,93767.27000000,95496.77000000,4124.53725000
1763352000000,95496.77000000,95880.00000000,94849.37000000,95653.77000000,3839.84656000
1763366400000,95653.78000000,96026.71000000,95309.68000000,95565.38000000,3415.65942000
1763380800000,95565.38000000,96043.00000000,93571.30000000,93959.67000000,8085.63652000
1763395200000,93959.68000000,94419.88000000,91588.00000000,91678.93000000,11700.57582000
1763409600000,91678.93000000,92399.48000000,91220.00000000,92215.14000000,8052.34249000
1763424000000,92215.14000000,92357.51000000,89700.00000000,90842.72000000,10647.23561000
1763438400000,90842.72000000,90851.66000000,89253.78000000,90512.10000000,9028.06735000
1763452800000,90512.10000000,91617.17000000,90509.79000000,91517.82000000,5777.46408000
1763467200000,91517.83000000,93049.91000000,90905.70000000,92910.10000000,7097.51563000
1763481600000,92910.10000000,93836.01000000,92579.23000000,93195.61000000,4917.36921000
1763496000000,93195.61000000,93423.74000000,92462.72000000,92960.83000000,2367.49581000
1763510400000,92960.83000000,92980.22000000,91660.49000000,91874.52000000,3065.15376000
1763524800000,91874.51000000,92028.92000000,90025.06000000,91863.64000000,5635.23952000
1763539200000,91863.64000000,91950.00000000,91072.41000000,91410.22000000,2540.86239000
1763553600000,91410.23000000,92384.61000000,89880.00000000,89951.70000000,6014.09197000
1763568000000,89951.70000000,90232.56000000,88630.71000000,88884.56000000,8787.19485000
1763582400000,88884.56000000,91594.00000000,88608.00000000,91554.96000000,6244.09511000
1763596800000,91554.96000000,92798.14000000,91185.26000000,92440.32000000,3929.05974000
1763611200000,92440.33000000,93160.00000000,91687.07000000,92320.18000000,3791.89000000
1763625600000,92320.18000000,92400.94000000,91440.55000000,91934.00000000,3200.83736000
1763640000000,91934.01000000,92541.92000000,89835.34000000,89869.88000000,6162.85424000
1763654400000,89869.88000000,89911.73000000,86100.00000000,86921.28000000,17595.68288000
1763668800000,86921.27000000,88250.00000000,86325.23000000,86637.23000000,5052.86651000
1763683200000,86637.22000000,87498.94000000,85360.00000000,85821.34000000,6428.51913000
1763697600000,85821.35000000,86459.53000000,82000.00000000,84049.39000000,14205.49105000
1763712000000,84049.38000000,84709.89000000,81648.00000000,82309.66000000,16184.92659000
1763726400000,82309.67000000,85496.00000000,80600.00000000,82932.47000000,23041.35364000
1763740800000,82932.46000000,85572.82000000,82333.00000000,84209.30000000,8107.54282000
1763755200000,84209.30000000,85416.66000000,83464.96000000,85129.43000000,4288.29356000
1763769600000,85129.42000000,85620.00000000,84212.39000000,84440.47000000,2923.21557000
1763784000000,84440.48000000,84799.54000000,83832.91000000,84580.06000000,2218.31844000
1763798400000,84580.06000000,84586.62000000,83500.00000000,84098.94000000,3342.45829000
1763812800000,84098.94000000,84755.83000000,83620.16000000,84284.01000000,2668.44444000
1763827200000,84284.01000000,84899.00000000,84219.62000000,84609.76000000,1351.08151000
1763841600000,84609.77000000,85260.00000000,84237.70000000,84739.74000000,1690.41438000
1763856000000,84739.75000000,86349.84000000,84667.57000000,86308.54000000,4004.15131000
1763870400000,86308.54000000,86860.00000000,85420.00000000,85782.19000000,2913.01357000
1763884800000,85782.18000000,86465.24000000,85768.22000000,86331.28000000,2087.40357000
1763899200000,86331.28000000,87244.51000000,86271.10000000,87087.44000000,3471.36676000
1763913600000,87087.44000000,87689.47000000,86502.47000000,87325.01000000,3711.95740000
1763928000000,87325.01000000,88127.64000000,86701.54000000,86830.00000000,3546.57157000
1763942400000,86830.00000000,88059.44000000,85946.65000000,87460.02000000,4318.16094000
1763956800000,87460.03000000,87837.57000000,86450.00000000,87050.39000000,3276.33960000
1763971200000,87050.39000000,87050.39000000,85696.56000000,86264.72000000,3484.50939000
1763985600000,86264.71000000,86741.50000000,85272.00000000,86616.44000000,4635.50962000
1764000000000,86616.44000000,88834.62000000,86616.43000000,88327.29000000,6003.91247000
1764014400000,88327.29000000,89228.00000000,88252.50000000,88300.01000000,2944.69593000
1764028800000,88300.01000000,88300.01000000,87457.53000000,87822.12000000,2506.39849000
1764043200000,87822.12000000,88519.99000000,87300.00000000,87384.81000000,3032.60485000
1764057600000,87384.81000000,87606.57000000,86666.00000000,87361.71000000,3402.11161000
1764072000000,87361.71000000,87792.20000000,86116.00000000,86988.94000000,4897.62850000
1764086400000,86988.93000000,88155.65000000,86182.49000000,86882.85000000,3228.35208000
1764100800000,86882.84000000,87889.38000000,86565.48000000,87369.96000000,2499.94557000
1764115200000,87369.97000000,88224.00000000,87069.97000000,87119.92000000,2235.27320000
1764129600000,87119.93000000,87970.00000000,86909.99000000,87935.05000000,1828.65169000
1764144000000,87935.05000000,87941.58000000,86670.36000000,87095.79000000,2199.53135000
1764158400000,87095.78000000,87693.21000000,86306.77000000,86978.00000000,4198.26229000
1764172800000,86977.99000000,90418.39000000,86956.61000000,89957.36000000,7510.43418000
1764187200000,89957.37000000,90656.08000000,89508.85000000,90484.02000000,3703.66968000
1764201600000,90484.01000000,91950.00000000,90089.91000000,91091.68000000,5743.81731000
1764216000000,91091.68000000,91554.49000000,90889.11000000,91408.34000000,2443.78349000
1764230400000,91408.34000000,91940.18000000,91221.17000000,91371.88000000,2353.99141000
1764244800000,91371.87000000,91457.36000000,90438.43000000,90958.30000000,2921.51001000
1764259200000,90958.29000000,91843.59000000,90850.77000000,91528.21000000,2279.61546000
1764273600000,91528.22000000,91600.00000000,91114.52000000,91333.95000000,1090.79164000
1764288000000,91333.94000000,91417.99000000,90652.55000000,91208.85000000,1930.05393000
1764302400000,91208.85000000,91707.79000000,90867.43000000,90910.87000000,1873.92377000
1764316800000,90910.87000000,92030.00000000,90907.98000000,91437.64000000,3175.31997000
1764331200000,91437.64000000,93092.00000000,91380.94000000,92362.49000000,5046.61300000
1764345600000,92362.50000000,92376.00000000,90180.63000000,91157.44000000,5779.19663000
1764360000000,91157.44000000,91247.16000000,90705.57000000,90890.70000000,1025.75282000
1764374400000,90890.71000000,91119.99000000,90546.36000000,90680.26000000,940.81817000
1764388800000,90680.26000000,90931.56000000,90311.92000000,90567.67000000,1229.54953000
1764403200000,90567.66000000,90738.17000000,90376.37000000,90673.19000000,957.44805000
1764417600000,90673.20000000,91110.36000000,90530.93000000,91063.50000000,1148.02698000
1764432000000,91063.50000000,91165.65000000,90155.47000000,90640.78000000,2192.51887000
1764446400000,90640.77000000,91051.87000000,90400.21000000,90802.44000000,961.52131000
1764460800000,90802.44000000,91055.50000000,90471.00000000,90909.35000000,1115.17062000
1764475200000,90909.35000000,91037.72000000,90670.40000000,90968.16000000,549.91781000
1764489600000,90968.16000000,91632.00000000,90927.16000000,91048.78000000,2515.69204000
1764504000000,91048.79000000,92000.01000000,91009.00000000,91435.31000000,2629.14986000
1764518400000,91435.31000000,91850.00000000,91159.42000000,91460.79000000,1049.01646000
1764532800000,91460.79000000,91626.75000000,90336.90000000,90360.00000000,1828.79496000
1764547200000,90360.01000000,90417.00000000,86161.61000000,86346.13000000,10249.65966000
1764561600000,86346.13000000,86578.06000000,85604.00000000,86550.30000000,4937.16707000
1764576000000,86550.30000000,86938.01000000,86131.01000000,86149.15000000,3005.76787000
1764590400000,86146.59000000,86674.00000000,83822.76000000,84677.87000000,8124.37241000
1764604800000,84677.87000000,85555.00000000,84030.95000000,85024.50000000,4598.10295000
1764619200000,85024.50000000,86860.00000000,85007.69000000,86286.01000000,3593.94231000
1764633600000,86286.01000000,87350.00000000,86184.39000000,86976.99000000,3245.81604000
1764648000000,86977.00000000,87288.48000000,86818.14000000,87012.65000000,1733.23534000
1764662400000,87012.64000000,87628.78000000,86296.21000000,87368.92000000,3361.03567000
1764676800000,87368.92000000,91200.00000000,87032.75000000,90850.01000000,9300.50019000
1764691200000,90850.01000000,92307.65000000,90201.00000000,91903.39000000,6152.68006000
1764705600000,91903.38000000,92000.00000000,90720.87000000,91277.88000000,4416.96002000
1764720000000,91277.88000000,93087.09000000,90990.23000000,92628.91000000,4425.07634000
1764734400000,92628.91000000,93958.58000000,92625.00000000,92999.99000000,4546.45939000
1764748800000,93000.00000000,93389.62000000,92666.00000000,93005.68000000,2770.10259000
1764763200000,93005.68000000,93700.00000000,91697.00000000,92373.30000000,6523.23972000
1764777600000,92373.30000000,93500.00000000,91786.99000000,93024.99000000,3624.68485000
1764792000000,93025.00000000,94150.00000000,92825.56000000,93429.95000000,3822.96296000
1764806400000,93429.95000000,94080.00000000,92669.82000000,93543.04000000,3844.70020000
1764820800000,93543.03000000,93588.48000000,92775.00000000,93397.67000000,3070.50786000
1764835200000,93397.67000000,93621.31000000,92736.90000000,92948.31000000,1917.02375000
1764849600000,92948.32000000,93257.00000000,91801.00000000,92971.49000000,4296.15789000
1764864000000,92971.49000000,93174.55000000,90889.00000000,91975.44000000,4860.71120000
1764878400000,91975.43000000,92718.53000000,91688.92000000,92078.06000000,1814.83969000
1764892800000,92078.06000000,92692.36000000,91959.92000000,92142.75000000,1751.29187000
1764907200000,92142.75000000,92497.51000000,91813.37000000,92258.65000000,1387.19156000
1764921600000,92258.64000000,92258.65000000,90956.25000000,91351.43000000,2431.69816000
1764936000000,91351.44000000,91478.67000000,89874.70000000,90459.35000000,5344.16253000
1764950400000,90459.34000000,90498.59000000,88056.00000000,89629.26000000,6507.53794000
1764964800000,89629.27000000,89745.37000000,88901.60000000,89330.04000000,2371.09012000
1764979200000,89330.04000000,89806.43000000,89030.67000000,89688.35000000,1531.03301000
1764993600000,89688.35000000,89764.19000000,89459.19000000,89597.13000000,769.52350000
1765008000000,89597.14000000,89750.01000000,89217.59000000,89631.28000000,1504.70502000
1765022400000,89631.29000000,90289.97000000,89490.98000000,89758.77000000,2052.08066000
1765036800000,89758.77000000,89981.20000000,89077.60000000,89405.64000000,1483.59614000
1765051200000,89405.65000000,89615.34000000,88908.01000000,89236.79000000,1068.56183000
1765065600000,89236.80000000,89749.59000000,89176.52000000,89722.37000000,712.48717000
1765080000000,89722.37000000,89799.96000000,89200.00000000,89379.72000000,739.06202000
1765094400000,89379.73000000,89538.70000000,89050.01000000,89149.18000000,786.60016000
1765108800000,89149.18000000,89707.54000000,87719.28000000,89554.52000000,3916.92116000
1765123200000,89554.52000000,91760.00000000,89115.85000000,91425.52000000,3838.31073000
1765137600000,91425.51000000,91510.40000000,88995.33000000,90395.31000000,3027.73061000
1765152000000,90395.32000000,91700.00000000,89860.00000000,91068.29000000,2453.60415000
1765166400000,91068.30000000,91868.76000000,91023.06000000,91565.46000000,1592.48822000
1765180800000,91565.46000000,92287.15000000,91486.46000000,91968.29000000,1953.05465000
1765195200000,91968.29000000,92122.08000000,89612.00000000,89961.37000000,5223.15445000
1765209600000,89961.36000000,90527.30000000,89679.79000000,90124.48000000,2589.84253000
1765224000000,90124.49000000,91374.00000000,90124.49000000,90634.34000000,1981.49487000
1765238400000,90634.35000000,90846.26000000,89795.84000000,90405.01000000,2355.41188000
1765252800000,90405.02000000,90528.67000000,89500.00000000,90496.80000000,1867.61874000
1765267200000,90496.80000000,90600.00000000,89912.48000000,90384.55000000,1562.48442000
1765281600000,90384.54000000,92876.92000000,90004.73000000,92707.51000000,4917.67396000
1765296000000,92707.50000000,94588.99000000,92693.50000000,93800.83000000,7304.45224000
1765310400000,93800.83000000,93857.47000000,92254.92000000,92678.80000000,3232.78890000
1765324800000,92678.81000000,92786.35000000,91976.00000000,92410.62000000,1996.99930000
1765339200000,92410.62000000,92782.92000000,92386.83000000,92782.91000000,1363.84988000
1765353600000,92782.91000000,93291.50000000,91763.69000000,92120.45000000,2623.05995000
1765368000000,92120.45000000,92226.00000000,91563.15000000,92063.69000000,2523.14963000
1765382400000,92063.69000000,93243.59000000,91684.39000000,92957.67000000,5420.48480000
1765396800000,92957.67000000,94476.00000000,91878.00000000,92015.37000000,5071.13727000
1765411200000,92015.38000000,92080.32000000,89389.63000000,89880.01000000,4081.14690000
1765425600000,89880.00000000,90480.14000000,89694.81000000,90272.75000000,2245.33099000
1765440000000,90272.76000000,90504.19000000,89971.11000000,90242.35000000,1503.95888000
1765454400000,90242.36000000,90653.33000000,89260.63000000,89872.51000000,3541.05902000
1765468800000,89872.51000000,91538.26000000,89333.00000000,90839.81000000,3643.99089000
1765483200000,90839.81000000,93555.00000000,90797.76000000,92513.38000000,4957.10090000
1765497600000,92513.38000000,92754.00000000,91448.31000000,92283.40000000,2164.71329000
1765512000000,92283.40000000,92720.00000000,92078.91000000,92425.34000000,1494.20203000
1765526400000,92425.33000000,92650.01000000,92044.80000000,92418.19000000,1624.00539000
1765540800000,92418.19000000,92660.74000000,89780.00000000,89935.14000000,5560.13281000
1765555200000,89935.13000000,90666.00000000,89480.00000000,90198.22000000,4659.32825000
1765569600000,90198.23000000,90404.13000000,89898.61000000,90268.42000000,1176.80992000
1765584000000,90268.43000000,90469.71000000,90120.00000000,90345.54000000,648.76329000
1765598400000,90345.55000000,90410.50000000,90268.91000000,90329.97000000,451.53525000
1765612800000,90329.98000000,90634.55000000,90290.00000000,90330.36000000,1525.87319000
1765627200000,90330.36000000,90470.30000000,89932.99000000,90092.16000000,1906.98893000
1765641600000,90092.17000000,90268.13000000,89981.00000000,90178.16000000,675.23738000
1765656000000,90178.17000000,90280.76000000,89766.39000000,90240.01000000,687.30984000
1765670400000,90240.00000000,90472.40000000,90117.05000000,90258.98000000,710.94131000
1765684800000,90258.99000000,90329.24000000,90050.74000000,90245.60000000,689.83584000
1765699200000,90245.60000000,90280.01000000,88687.27000000,89360.00000000,2036.12797000
1765713600000,89360.01000000,89666.00000000,88882.66000000,89022.91000000,1729.70637000
1765728000000,89022.92000000,89398.71000000,88497.02000000,88644.88000000,1685.20822000
1765742400000,88644.88000000,88827.71000000,87577.36000000,88172.17000000,2565.12033000
1765756800000,88172.16000000,90052.64000000,88074.37000000,89282.60000000,2699.66065000
1765771200000,89282.60000000,89918.48000000,89272.88000000,89753.42000000,1316.93789000
1765785600000,89753.43000000,89986.68000000,89572.05000000,89641.28000000,1524.38986000
1765800000000,89641.28000000,89876.42000000,86621.91000000,87033.22000000,5888.02922000
1765814400000,87033.21000000,87220.00000000,85146.64000000,86149.96000000,5789.22914000
1765828800000,86149.96000000,86472.70000000,85530.01000000,86432.08000000,2560.44514000
1765843200000,86432.08000000,86535.22000000,85386.00000000,85875.92000000,2272.85750000
1765857600000,85875.91000000,86615.38000000,85266.00000000,86021.51000000,2433.06768000
1765872000000,86021.51000000,87330.00000000,85930.97000000,87261.45000000,2417.24589000
1765886400000,87261.46000000,88175.98000000,86107.43000000,87977.43000000,6730.13202000
1765900800000,87977.44000000,88050.17000000,87061.23000000,87585.77000000,3497.75820000
1765915200000,87585.76000000,87931.48000000,87343.75000000,87863.42000000,1104.98888000
1765929600000,87863.43000000,87950.00000000,87150.01000000,87213.59000000,1179.65134000
1765944000000,87213.60000000,87398.54000000,86209.11000000,87045.59000000,2094.81095000
1765958400000,87045.59000000,87137.42000000,86238.91000000,86983.26000000,1681.23270000
1765972800000,86983.26000000,90365.85000000,86817.27000000,87233.44000000,8132.27731000
1765987200000,87233.44000000,87769.23000000,85314.00000000,86018.53000000,5045.61646000
1766001600000,86018.53000000,86431.14000000,85644.09000000,86243.22000000,1700.52853000
1766016000000,86243.23000000,86863.75000000,85863.93000000,86618.34000000,1716.00096000
1766030400000,86618.35000000,86901.40000000,86384.61000000,86833.84000000,1551.20199000
1766044800000,86833.83000000,87453.63000000,86685.14000000,87300.74000000,1894.81711000
1766059200000,87300.50000000,89477.61000000,87109.76000000,88513.44000000,7315.08784000
1766073600000,88513.43000000,88533.61000000,84481.31000000,84483.79000000,9332.10895000
1766088000000,84483.80000000,85835.90000000,84450.01000000,85516.41000000,3596.20078000
1766102400000,85516.41000000,87568.99000000,85110.24000000,86891.39000000,3311.66901000
1766116800000,86891.39000000,88449.06000000,86647.51000000,87953.40000000,3713.59538000
1766131200000,87953.39000000,88385.06000000,87742.60000000,88198.70000000,1797.82182000
1766145600000,88198.70000000,89399.97000000,87514.59000000,87951.87000000,5988.71834000
1766160000000,87951.86000000,88882.55000000,86846.16000000,87845.92000000,4584.61046000
1766174400000,87845.92000000,88426.85000000,87614.79000000,88136.94000000,1860.23503000
1766188800000,88136.95000000,88339.27000000,87961.60000000,88214.98000000,984.44715000
1766203200000,88214.98000000,88573.07000000,88123.07000000,88275.41000000,797.87192000
1766217600000,88275.41000000,88428.00000000,88107.35000000,88277.66000000,821.72303000
1766232000000,88277.66000000,88343.73000000,87795.76000000,88178.71000000,1315.67537000
1766246400000,88178.72000000,88418.73000000,88103.54000000,88232.92000000,574.10491000
1766260800000,88232.92000000,88443.44000000,88154.06000000,88360.90000000,629.30956000
1766275200000,88360.91000000,88433.64000000,87869.35000000,88070.64000000,991.41687000
1766289600000,88070.64000000,88201.59000000,88050.00000000,88174.79000000,455.57319000
1766304000000,88174.79000000,89081.77000000,88141.87000000,88601.57000000,1439.81605000
1766318400000,88601.57000000,88920.01000000,87600.04000000,88067.95000000,2206.50881000
1766332800000,88067.96000000,88600.00000000,87950.00000000,88484.01000000,1240.46771000
1766347200000,88484.01000000,88823.52000000,88091.96000000,88658.86000000,799.08995000
1766361600000,88658.87000000,89627.24000000,87900.00000000,88774.12000000,2619.97992000
1766376000000,88774.13000000,89200.00000000,88712.11000000,89170.10000000,1290.70342000
1766390400000,89170.10000000,90118.00000000,89093.44000000,89945.43000000,2622.90199000
1766404800000,89945.43000000,90588.23000000,89196.42000000,89726.92000000,3942.72215000
1766419200000,89726.93000000,90127.00000000,87965.76000000,88052.43000000,2609.54930000
1766433600000,88052.42000000,88833.33000000,87911.79000000,88620.79000000,1587.36292000
1766448000000,88620.79000000,88940.00000000,87800.00000000,88170.00000000,1505.70483000
1766462400000,88170.00000000,88368.10000000,87051.52000000,87574.79000000,1996.43062000
1766476800000,87574.78000000,87890.00000000,87297.69000000,87856.65000000,1432.37853000
1766491200000,87856.66000000,87963.03000000,86601.90000000,87443.45000000,3407.99312000
1766505600000,87443.45000000,88275.40000000,87162.39000000,87752.87000000,3220.82979000
1766520000000,87752.88000000,88372.35000000,87180.00000000,87486.00000000,2346.99215000
1766534400000,87486.00000000,87839.66000000,86863.88000000,87336.23000000,1598.88886000
1766548800000,87336.23000000,87458.54000000,86796.65000000,86911.53000000,1349.63742000
1766563200000,86911.53000000,87359.59000000,86724.05000000,87203.94000000,1188.37005000
1766577600000,87203.94000000,87478.59000000,86420.00000000,87049.99000000,2300.52897000
1766592000000,87050.00000000,87670.00000000,86917.25000000,87566.06000000,1746.44928000
1766606400000,87566.07000000,88049.89000000,87516.77000000,87669.45000000,956.96862000
1766620800000,87669.44000000,87967.50000000,87508.52000000,87840.42000000,652.86225000
1766635200000,87840.42000000,87862.20000000,87661.17000000,87837.59000000,568.68423000
1766649600000,87837.59000000,87888.00000000,87251.60000000,87519.44000000,1203.75216000
1766664000000,87519.45000000,88592.74000000,87398.78000000,88371.27000000,1933.47252000
1766678400000,88371.27000000,88478.00000000,87993.21000000,88151.18000000,1039.54656000
1766692800000,88151.19000000,88167.65000000,86934.72000000,87225.27000000,1698.26463000
1766707200000,87225.27000000,89440.00000000,86891.70000000,88844.87000000,4964.62578000
1766721600000,88844.88000000,89567.75000000,88347.45000000,88470.75000000,3154.47608000
1766736000000,88470.75000000,88918.59000000,88414.81000000,88533.42000000,1250.32549000
1766750400000,88533.43000000,89050.00000000,86655.08000000,87137.81000000,5932.37434000
1766764800000,87137.81000000,87580.29000000,86818.18000000,87501.83000000,1940.76351000
1766779200000,87501.83000000,87792.70000000,87321.40000000,87369.56000000,1102.04985000
1766793600000,87369.56000000,87532.00000000,87253.05000000,87514.22000000,675.35016000
1766808000000,87514.23000000,87702.00000000,87417.93000000,87539.26000000,515.35353000
1766822400000,87539.26000000,87677.00000000,87370.73000000,87475.98000000,1077.75463000
1766836800000,87475.99000000,87589.99000000,87308.05000000,87551.25000000,749.39054000
1766851200000,87551.26000000,87591.00000000,87442.08000000,87569.39000000,566.59122000
1766865600000,87569.39000000,87984.00000000,87499.99000000,87877.01000000,885.11148000
1766880000000,87877.00000000,87961.37000000,87705.97000000,87740.01000000,672.08653000
1766894400000,87740.00000000,87837.99000000,87614.79000000,87730.85000000,442.23022000
1766908800000,87730.86000000,88010.00000000,87720.00000000,87883.25000000,760.04376000
1766923200000,87883.25000000,88088.75000000,87794.86000000,87836.27000000,821.25662000
1766937600000,87836.27000000,87931.59000000,87500.26000000,87520.75000000,881.83702000
1766952000000,87520.75000000,88049.53000000,87435.00000000,87952.71000000,868.83870000
1766966400000,87952.71000000,90169.06000000,87813.17000000,90123.55000000,4759.05691000
1766980800000,90123.55000000,90406.08000000,89507.03000000,89617.71000000,3502.98691000
1766995200000,89617.71000000,89825.01000000,87567.65000000,87567.66000000,4608.77018000
1767009600000,87567.65000000,88190.71000000,86806.50000000,87691.62000000,4178.35066000
1767024000000,87691.62000000,87996.22000000,87312.34000000,87366.23000000,1457.68333000
1767038400000,87366.23000000,87597.59000000,87071.49000000,87237.13000000,1388.13776000
1767052800000,87237.13000000,87423.65000000,86845.66000000,87379.00000000,1520.57005000
1767067200000,87378.99000000,87600.00000000,87157.07000000,87502.85000000,1077.59137000
1767081600000,87502.85000000,88224.76000000,87502.84000000,87903.89000000,2468.25039000
1767096000000,87903.89000000,89159.52000000,87834.01000000,89016.35000000,3882.44573000
1767110400000,89016.36000000,89400.00000000,87960.20000000,88226.16000000,2912.38545000
1767124800000,88226.15000000,88573.65000000,87886.46000000,88485.49000000,1244.66702000
1767139200000,88485.50000000,88819.80000000,88172.15000000,88453.04000000,1131.98072000
1767153600000,88453.04000000,88638.76000000,88325.06000000,88613.12000000,972.41187000
1767168000000,88613.11000000,89046.60000000,88393.52000000,89011.52000000,1674.66744000
1767182400000,89011.51000000,89200.00000000,87766.59000000,87953.97000000,3261.85615000
1767196800000,87953.97000000,88053.49000000,87400.41000000,87541.85000000,2936.14316000
1767211200000,87541.85000000,87879.04000000,87250.00000000,87648.22000000,1581.56113000
1767225600000,87648.21000000,88088.10000000,87632.74000000,87846.02000000,833.74412000
1767240000000,87846.01000000,87854.81000000,87550.43000000,87631.88000000,1108.52485000
1767254400000,87631.88000000,88024.64000000,87631.87000000,88024.64000000,819.82493000
1767268800000,88024.64000000,88113.45000000,87810.66000000,88032.18000000,1005.89204000
1767283200000,88032.17000000,88500.00000000,87879.03000000,88391.15000000,1140.33499000
1767297600000,88391.16000000,88919.45000000,88240.00000000,88839.04000000,1371.25040000
1767312000000,88839.05000000,89120.01000000,88379.88000000,88950.65000000,1615.06136000
1767326400000,88950.64000000,89079.44000000,88576.56000000,88857.61000000,1190.31720000
1767340800000,88857.60000000,89942.44000000,88758.94000000,89502.95000000,3334.56621000
1767355200000,89502.94000000,90135.00000000,88459.96000000,89418.11000000,4573.84370000
1767369600000,89418.10000000,90961.81000000,89205.92000000,89897.23000000,5155.47201000
1767384000000,89897.23000000,90400.00000000,89636.77000000,89995.13000000,1527.71253000
1767398400000,89995.14000000,90418.32000000,89966.48000000,90321.22000000,1026.19409000
1767412800000,90321.23000000,90480.62000000,89314.01000000,89577.13000000,1777.41680000
1767427200000,89577.13000000,89982.11000000,89420.75000000,89752.74000000,1301.10920000
1767441600000,89752.75000000,90249.99000000,89664.93000000,89969.31000000,1115.15116000
1767456000000,89969.31000000,90219.67000000,89918.59000000,90123.77000000,516.07827000
1767470400000,90123.76000000,90741.16000000,90017.23000000,90628.01000000,1321.51764000
1767484800000,90628.01000000,91610.17000000,90628.00000000,91236.78000000,2719.43418000
1767499200000,91236.78000000,91810.00000000,91183.15000000,91532.00000000,1833.66412000
1767513600000,91532.00000000,91620.50000000,91174.46000000,91300.00000000,2596.25909000
1767528000000,91300.01000000,91419.22000000,91014.10000000,91334.94000000,1316.31831000
1767542400000,91334.94000000,91455.90000000,90863.47000000,91138.07000000,1140.52954000
1767556800000,91138.06000000,91590.00000000,91132.00000000,91529.73000000,820.32446000
1767571200000,91529.74000000,93388.00000000,91514.81000000,92878.22000000,5548.56251000
1767585600000,92878.22000000,92947.87000000,92155.00000000,92520.63000000,1838.86690000
1767600000000,92520.63000000,93151.00000000,92320.17000000,93134.26000000,2498.18846000
1767614400000,93134.25000000,94000.00000000,92407.13000000,93957.73000000,4224.09624000
1767628800000,93957.74000000,94500.00000000,93250.00000000,94303.40000000,4190.38211000
1767643200000,94303.40000000,94789.08000000,93800.00000000,93859.71000000,2373.49962000
1767657600000,93859.71000000,94161.86000000,93529.18000000,93769.24000000,1527.94713000
1767672000000,93769.25000000,94000.00000000,93137.98000000,93255.08000000,2037.39443000
1767686400000,93255.08000000,93895.00000000,93167.29000000,93840.00000000,1360.24604000
1767700800000,93839.99000000,94444.44000000,93352.01000000,93648.99000000,3747.64759000
1767715200000,93649.00000000,93775.60000000,91262.94000000,92104.50000000,6154.50415000
1767729600000,92104.49000000,93845.03000000,92098.29000000,93747.97000000,3718.67895000
1767744000000,93747.97000000,93747.97000000,92236.07000000,92815.83000000,2673.21579000
1767758400000,92815.83000000,92930.35000000,92500.00000000,92879.13000000,1043.57297000
1767772800000,92879.14000000,92961.53000000,91600.00000000,92087.21000000,2601.79745000
1767787200000,92087.21000000,92299.40000000,91024.00000000,91349.96000000,3623.32777000
1767801600000,91349.95000000,91790.00000000,90675.52000000,91186.07000000,2653.80915000
1767816000000,91186.07000000,91489.60000000,90778.32000000,91364.16000000,1680.76712000
1767830400000,91364.16000000,91687.99000000,90616.36000000,90813.40000000,1794.84191000
