timestamp,open,high,low,close,volume
1774935000000,67592.40,67654.50,67530.90,67653.40,451.170
1774935300000,67653.40,67682.10,67615.20,67664.30,784.217
1774935600000,67664.10,67691.00,67604.10,67643.40,204.080
1774935900000,67643.40,67730.30,67643.30,67695.60,371.863
1774936200000,67695.60,67756.80,67653.50,67696.90,402.743
1774936500000,67697.00,67719.30,67623.30,67648.90,156.968
1774936800000,67649.00,67679.50,67527.50,67672.60,441.912
1774937100000,67672.50,67672.50,67513.10,67513.10,284.192
1774937400000,67513.20,67513.20,67431.40,67446.50,350.189
1774937700000,67446.60,67482.30,67389.10,67411.20,631.672
1774938000000,67411.30,67480.00,67391.90,67405.20,455.832
1774938300000,67405.30,67438.90,67300.10,67383.20,594.349
1774938600000,67383.30,67414.70,67342.70,67378.70,349.824
1774938900000,67378.70,67379.70,67307.60,67379.70,334.124
1774939200000,67379.70,67457.30,67362.60,67379.00,271.838
1774939500000,67379.10,67449.00,67379.00,67428.90,244.671
1774939800000,67429.00,67491.10,67425.10,67472.30,172.027
1774940100000,67472.30,67505.80,67442.30,67465.40,222.283
1774940400000,67465.40,67497.00,67425.00,67475.90,250.601
1774940700000,67475.90,67476.00,67353.20,67353.30,279.267
1774941000000,67353.20,67372.00,67200.00,67267.20,775.352
1774941300000,67267.20,67274.40,67071.90,67121.30,1358.110
1774941600000,67121.40,67220.00,67105.00,67109.90,711.709
1774941900000,67110.00,67296.40,67089.90,67260.90,701.472
1774942200000,67260.80,67325.00,67229.00,67293.10,409.329
1774942500000,67293.10,67337.90,67179.70,67285.40,876.987
1774942800000,67285.40,67350.00,67276.30,67299.90,245.898
1774943100000,67299.90,67410.00,67299.90,67362.00,458.058
1774943400000,67361.90,67370.00,67281.20,67357.70,422.789
1774943700000,67357.60,67388.10,67302.60,67343.80,287.142
1774944000000,67343.90,67440.00,67208.40,67421.80,605.671
1774944300000,67421.90,67476.90,67380.10,67465.40,370.938
1774944600000,67465.30,67465.40,67317.00,67324.00,258.634
1774944900000,67323.90,67389.00,67274.90,67344.40,239.721
1774945200000,67344.40,67420.00,67332.00,67335.90,193.401
1774945500000,67335.90,67347.20,67250.60,67280.40,211.103
1774945800000,67280.30,67281.90,67091.60,67118.10,732.126
1774946100000,67118.10,67155.70,67005.00,67014.70,1070.075
1774946400000,67014.70,67030.00,66777.00,66818.90,3267.953
1774946700000,66818.90,66910.10,66655.00,66885.70,2655.902
1774947000000,66885.70,66911.90,66793.40,66874.20,852.553
1774947300000,66874.30,66879.60,66735.00,66745.10,606.071
1774947600000,66745.10,66856.60,66668.80,66828.40,1022.873
1774947900000,66828.40,66891.80,66710.00,66734.20,621.245
1774948200000,66734.20,66734.20,66550.00,66669.50,1666.482
1774948500000,66669.60,66686.30,66500.00,66510.90,1268.906
1774948800000,66510.80,66582.00,66433.10,66567.10,1431.721
1774949100000,66567.00,66611.80,66321.00,66403.90,1896.817
1774949400000,66403.90,66482.30,66368.00,66425.00,696.669
1774949700000,66424.90,66457.70,66380.00,66435.50,486.644
1774950000000,66435.50,66499.70,66386.00,66477.40,582.218
1774950300000,66477.40,66487.00,66366.10,66409.90,611.248
1774950600000,66410.00,66410.00,66250.00,66339.10,972.707
1774950900000,66339.00,66357.20,65938.00,66099.30,3727.249
1774951200000,66099.30,66208.10,66067.00,66200.00,1002.800
1774951500000,66200.10,66316.00,66188.70,66298.20,1070.410
1774951800000,66298.20,66371.90,66290.00,66342.50,746.072
1774952100000,66342.40,66432.00,66317.20,66325.20,722.138
1774952400000,66325.10,66416.40,66313.20,66391.20,582.177
1774952700000,66391.30,66391.30,66320.00,66350.00,413.927
1774953000000,66350.10,66398.50,66290.00,66303.80,443.135
1774953300000,66303.80,66350.90,66188.70,66235.20,1916.560
1774953600000,66235.20,66293.00,66208.70,66247.30,581.641
1774953900000,66247.20,66321.40,66214.60,66311.70,349.515
1774954200000,66311.80,66442.00,66311.80,66400.10,601.511
1774954500000,66400.10,66400.20,66286.60,66329.40,432.443
1774954800000,66329.40,66359.80,66267.00,66358.20,354.672
1774955100000,66358.10,66366.40,66205.00,66207.90,290.423
1774955400000,66208.00,66572.30,66207.90,66543.40,2804.303
1774955700000,66543.30,66850.00,66500.00,66639.10,3508.129
1774956000000,66639.20,66694.60,66537.90,66612.30,1107.856
1774956300000,66612.40,66635.60,66583.50,66610.00,323.692
1774956600000,66610.00,66731.70,66603.90,66726.10,485.090
1774956900000,66726.00,66800.00,66702.60,66780.30,576.857
1774957200000,66780.20,66805.70,66645.60,66696.10,417.273
1774957500000,66696.00,66696.10,66534.00,66585.00,573.432
1774957800000,66584.90,66626.80,66546.90,66572.40,239.492
1774958100000,66572.50,66672.30,66567.70,66652.40,314.154
1774958400000,66652.40,66761.80,66652.40,66726.00,360.765
1774958700000,66726.00,66766.50,66663.20,66722.60,281.722
1774959000000,66722.60,66722.60,66535.00,66541.30,756.207
1774959300000,66541.30,66768.20,66480.00,66715.90,853.876
1774959600000,66715.80,66716.00,66600.00,66602.40,352.681
1774959900000,66602.40,66799.40,66602.40,66764.50,527.565
1774960200000,66764.40,66834.30,66692.50,66749.50,533.075
1774960500000,66749.50,66909.30,66742.50,66871.80,1022.103
1774960800000,66871.80,66879.50,66823.30,66872.90,393.283
1774961100000,66872.80,66888.00,66666.70,66695.90,574.438
1774961400000,66695.90,66717.30,66617.60,66679.20,447.297
1774961700000,66679.20,66705.20,66615.20,66623.80,297.162
1774962000000,66623.80,66723.90,66623.80,66681.20,238.049
1774962300000,66681.20,66777.70,66651.50,66770.10,275.230
1774962600000,66770.10,66818.90,66757.90,66792.00,386.080
1774962900000,66792.00,66932.60,66759.00,66759.00,805.951
1774963200000,66759.00,66793.20,66719.90,66781.50,224.457
1774963500000,66781.60,66800.10,66759.30,66773.80,190.225
1774963800000,66773.70,66967.40,66691.90,66858.00,1356.619
1774964100000,66858.00,67038.70,66785.50,66962.10,1059.236
1774964400000,66962.10,67166.50,66911.20,66937.60,1953.743
1774964700000,66937.60,67343.40,66937.60,67269.90,3312.258
1774965000000,67270.00,67370.00,67089.80,67307.70,2382.837
1774965300000,67307.60,67375.00,67150.20,67255.60,1087.107
1774965600000,67255.60,67500.00,67207.80,67284.50,3286.434
1774965900000,67284.50,67284.60,67078.80,67144.60,1425.636
1774966200000,67144.70,67323.30,67144.60,67300.40,714.861
1774966500000,67300.00,67765.80,67285.20,67689.30,3112.623
1774966800000,67689.30,67700.00,67572.70,67607.30,1965.621
1774967100000,67607.20,67714.20,67480.00,67692.70,1271.041
1774967400000,67692.70,67712.20,67455.00,67462.90,906.662
1774967700000,67463.00,67508.70,67270.10,67296.70,1475.910
1774968000000,67296.70,67343.50,67047.50,67184.30,1756.656
1774968300000,67184.20,67184.30,66840.10,66878.00,2097.543
1774968600000,66878.00,66928.00,66428.80,66553.90,4369.067
1774968900000,66553.90,66619.10,66374.40,66555.90,1899.827
1774969200000,66556.00,66796.10,66555.90,66749.00,1646.265
1774969500000,66748.90,67072.00,66745.50,66899.10,3195.351
1774969800000,66899.10,67262.20,66899.00,67210.50,2442.888
1774970100000,67210.60,67250.00,67070.00,67130.00,1208.026
1774970400000,67130.00,67255.00,67070.00,67241.00,948.482
1774970700000,67241.00,67241.00,66864.90,66920.80,1945.502
1774971000000,66920.80,67045.00,66841.80,66958.60,1438.299
1774971300000,66958.70,67127.40,66930.00,66995.10,1120.564
1774971600000,66995.20,67017.50,66861.00,66906.50,506.291
1774971900000,66906.50,66970.20,66782.10,66914.30,644.425
1774972200000,66914.20,67019.10,66877.00,66949.80,399.572
1774972500000,66949.90,66962.20,66666.50,66700.00,942.694
1774972800000,66700.00,66914.00,66695.90,66820.60,844.369
1774973100000,66820.60,66970.40,66794.90,66937.50,345.927
1774973400000,66937.50,66937.60,66728.90,66893.20,315.587
1774973700000,66893.10,67027.00,66881.50,66970.40,503.707
1774974000000,66970.40,67160.20,66929.70,67160.20,727.934
1774974300000,67160.10,67165.50,67036.50,67056.50,614.851
1774974600000,67056.40,67100.10,66986.80,66986.90,358.654
1774974900000,66986.80,67481.00,66916.60,67478.50,1429.796
1774975200000,67478.50,67985.50,67459.60,67742.00,7047.913
1774975500000,67742.10,67888.00,67457.00,67710.60,3485.776
1774975800000,67710.60,67777.00,67512.20,67632.50,1363.059
1774976100000,67632.60,67638.30,67486.40,67632.60,826.238
1774976400000,67632.60,67842.90,67572.60,67760.00,1392.844
1774976700000,67760.00,67762.20,67532.80,67629.90,1330.125
1774977000000,67629.90,68532.70,67607.30,68432.90,10158.265
1774977300000,68432.80,68600.00,68207.60,68217.00,3902.385
1774977600000,68217.00,68383.50,68101.80,68290.00,2193.595
1774977900000,68290.00,68326.20,67951.20,68002.30,2564.920
1774978200000,68002.40,68091.90,67890.30,67988.80,1541.400
1774978500000,67988.70,68019.70,67642.80,67729.90,2429.886
1774978800000,67730.00,67735.80,67573.90,67683.70,1118.724
1774979100000,67683.60,67749.00,67512.90,67634.90,1117.572
1774979400000,67635.00,67700.00,67454.00,67592.60,1205.537
1774979700000,67592.50,67603.40,67357.10,67493.90,2119.624
1774980000000,67493.80,67626.30,67488.00,67581.00,885.803
1774980300000,67581.00,67764.90,67550.00,67730.90,881.185
1774980600000,67730.80,67747.10,67641.00,67739.70,559.304
1774980900000,67739.70,67929.70,67695.60,67718.30,1233.406
1774981200000,67718.20,67769.10,67681.80,67693.10,391.959
1774981500000,67693.20,67785.00,67594.40,67744.90,632.280
1774981800000,67744.90,67800.00,67601.90,67718.50,417.377
1774982100000,67718.60,67855.40,67664.10,67801.80,322.569
1774982400000,67801.70,67801.70,67668.70,67789.90,256.328
1774982700000,67789.90,67912.80,67789.80,67823.60,488.063
1774983000000,67823.60,67866.60,67746.80,67759.70,401.437
1774983300000,67759.60,67820.00,67700.40,67814.60,201.696
1774983600000,67814.50,67914.30,67802.00,67892.90,513.527
1774983900000,67892.50,67979.80,67803.50,67822.50,541.758
1774984200000,67822.50,67985.80,67818.80,67952.50,471.313
1774984500000,67952.60,67996.00,67862.00,67883.30,370.888
1774984800000,67883.20,67937.60,67825.90,67891.70,260.900
1774985100000,67891.80,67929.40,67810.50,67840.30,327.379
1774985400000,67840.40,67901.00,67774.30,67813.50,340.350
1774985700000,67813.40,67859.40,67726.60,67737.40,216.744
1774986000000,67737.40,67800.00,67671.30,67800.00,285.216
1774986300000,67799.90,67934.90,67783.70,67874.70,328.029
1774986600000,67874.80,67920.70,67765.40,67811.30,428.911
1774986900000,67811.30,67858.10,67694.00,67803.00,476.952
1774987200000,67803.00,67917.70,67794.80,67916.80,402.755
1774987500000,67916.80,68048.40,67903.10,68012.30,778.485
1774987800000,68012.30,68177.20,68000.60,68109.60,949.402
1774988100000,68109.60,68135.60,67964.40,67982.70,531.337
1774988400000,67982.80,68004.20,67902.40,67980.10,433.980
1774988700000,67980.00,67980.00,67930.00,67967.30,138.293
1774989000000,67967.20,67983.90,67911.10,67929.00,147.832
1774989300000,67929.10,68099.10,67929.00,68057.90,288.039
1774989600000,68057.90,68061.70,67992.10,68017.10,217.713
1774989900000,68017.10,68196.70,67985.00,68127.00,659.576
1774990200000,68127.10,68180.50,68065.20,68177.50,374.942
1774990500000,68177.50,68234.00,68143.80,68227.20,422.650
1774990800000,68227.30,68227.30,67970.80,68035.10,478.581
1774991100000,68035.20,68100.00,67968.80,67969.20,311.319
1774991400000,67969.20,67994.90,67911.20,67977.30,301.568
1774991700000,67977.30,68002.20,67884.20,67907.60,460.682
1774992000000,67907.60,67925.90,67840.40,67914.10,335.169
1774992300000,67914.10,68030.00,67914.00,67995.90,190.162
1774992600000,67995.90,68086.30,67991.70,68045.20,210.758
1774992900000,68045.00,68093.30,68021.10,68058.40,177.097
1774993200000,68058.40,68138.00,68058.40,68130.00,256.341
1774993500000,68130.10,68173.90,68119.00,68173.90,183.436
1774993800000,68173.80,68355.00,68144.70,68344.40,844.801
1774994100000,68344.30,68382.90,68191.70,68234.60,464.868
1774994400000,68234.70,68306.90,68131.70,68161.70,503.005
1774994700000,68161.60,68231.50,68013.40,68069.90,614.626
1774995000000,68069.90,68183.60,68069.90,68172.80,254.254
1774995300000,68172.80,68239.10,68143.50,68186.10,205.287
1774995600000,68186.00,68254.40,68135.20,68154.00,352.932
1774995900000,68154.10,68154.10,68057.40,68080.00,171.399
1774996200000,68080.10,68080.10,67919.50,68004.30,421.954
1774996500000,68004.30,68050.00,67988.80,68036.60,167.643
1774996800000,68036.50,68214.90,68036.50,68140.00,336.340
1774997100000,68140.10,68140.10,68057.10,68135.00,144.167
1774997400000,68135.10,68179.70,68113.70,68138.20,197.483
1774997700000,68138.10,68183.40,68120.00,68141.60,170.320
1774998000000,68141.70,68166.00,68050.00,68111.90,248.018
1774998300000,68112.00,68250.00,68095.30,68220.10,313.584
1774998600000,68220.10,68250.00,68160.70,68183.70,286.301
1774998900000,68183.60,68332.60,68141.00,68314.50,627.963
1774999200000,68314.40,68329.80,68199.60,68222.00,210.509
1774999500000,68222.00,68265.90,68175.50,68224.30,178.136
1774999800000,68224.20,68270.80,68200.00,68225.10,147.910
1775000100000,68225.00,68332.00,68218.50,68317.90,337.199
1775000400000,68317.80,68317.90,68264.60,68271.30,250.635
1775000700000,68271.40,68271.40,68173.10,68191.90,227.273
1775001000000,68191.80,68297.10,68189.60,68247.90,190.825
1775001300000,68248.00,68276.80,68211.30,68241.50,185.652
1775001600000,68241.40,68241.50,68072.50,68166.00,610.896
1775001900000,68166.00,68188.80,68100.00,68125.80,208.536
1775002200000,68125.80,68125.90,67975.30,68004.70,672.692
1775002500000,68004.60,68177.90,68004.60,68096.90,421.899
1775002800000,68096.90,68150.00,67883.20,67935.10,718.705
1775003100000,67935.20,67964.40,67863.30,67964.30,572.640
1775003400000,67964.30,67996.50,67808.10,67888.30,583.432
1775003700000,67888.40,67958.50,67888.00,67944.00,272.022
1775004000000,67944.10,68031.70,67935.10,68031.20,271.776
1775004300000,68031.20,68087.90,67989.80,68077.90,371.655
1775004600000,68077.90,68305.10,68077.80,68250.80,856.567
1775004900000,68250.80,68288.00,68183.30,68288.00,338.524
1775005200000,68288.00,68330.00,68182.80,68289.50,593.313
1775005500000,68289.10,68296.60,68106.30,68219.60,332.316
1775005800000,68219.70,68265.80,68198.20,68223.70,449.250
1775006100000,68223.80,68223.80,68017.20,68040.40,839.988
1775006400000,68040.40,68068.10,67976.50,68015.00,255.962
1775006700000,68015.00,68067.80,68001.40,68006.40,298.885
1775007000000,68006.30,68054.70,67863.60,67892.80,543.309
1775007300000,67892.90,67954.80,67755.10,67860.00,866.207
1775007600000,67860.00,67915.80,67821.80,67915.80,282.362
1775007900000,67915.90,67920.00,67800.80,67828.60,516.101
1775008200000,67828.50,67910.90,67813.00,67818.00,363.695
1775008500000,67818.00,67898.00,67707.50,67746.40,525.646
1775008800000,67746.40,67824.20,67742.20,67810.20,292.929
1775009100000,67810.20,67873.10,67732.20,67814.30,308.819
1775009400000,67814.30,67826.60,67662.20,67803.30,540.052
1775009700000,67803.30,67878.90,67688.30,67850.60,472.757
1775010000000,67850.60,67881.20,67781.90,67809.00,197.499
1775010300000,67808.90,67813.90,67556.10,67603.60,829.441
1775010600000,67603.70,67675.70,67534.90,67563.10,445.244
1775010900000,67563.20,67691.30,67555.00,67581.20,410.179
1775011200000,67581.10,67655.10,67581.10,67617.70,140.784
1775011500000,67617.70,67705.80,67583.20,67583.30,366.312
1775011800000,67583.30,67632.80,67561.00,67622.40,197.423
1775012100000,67622.40,67630.00,67558.70,67623.80,190.751
1775012400000,67623.90,67767.10,67623.90,67755.80,356.110
1775012700000,67755.80,68086.20,67751.80,68032.40,1030.187
1775013000000,68032.30,68032.40,67941.70,67950.00,457.977
1775013300000,67950.00,67995.90,67910.20,67960.00,234.219
1775013600000,67959.90,67968.60,67907.30,67919.40,222.789
1775013900000,67919.50,67932.00,67890.00,67932.00,234.355
1775014200000,67932.20,67988.00,67903.50,67921.30,171.780
1775014500000,67921.20,67945.60,67872.50,67942.90,257.016
1775014800000,67943.00,68050.00,67921.80,68025.70,330.465
1775015100000,68025.70,68214.50,68025.70,68135.90,894.911
1775015400000,68135.90,68142.90,68054.70,68124.80,308.641
1775015700000,68124.90,68146.30,68064.80,68134.00,394.979
1775016000000,68134.00,68234.00,68108.60,68114.80,632.151
1775016300000,68114.80,68125.20,68071.60,68092.60,210.093
1775016600000,68092.70,68097.20,67965.00,68037.10,1269.294
1775016900000,68037.20,68100.00,67999.50,68084.80,421.885
1775017200000,68084.80,68188.90,68068.10,68087.60,1169.505
1775017500000,68087.60,68130.00,68084.00,68118.80,228.764
1775017800000,68118.90,68150.00,68067.20,68139.40,176.685
1775018100000,68139.40,68200.00,68097.00,68169.20,180.756
1775018400000,68169.30,68248.00,68160.20,68186.70,388.568
1775018700000,68186.70,68291.90,68166.00,68251.70,373.037
1775019000000,68251.70,68450.00,68247.10,68293.30,1320.238
1775019300000,68293.30,68300.10,68187.90,68272.30,435.131
1775019600000,68272.30,68278.70,68114.50,68124.90,416.107
1775019900000,68125.00,68196.10,68124.90,68192.20,212.034
1775020200000,68192.20,68401.00,68161.00,68366.30,767.924
1775020500000,68366.40,68508.60,68318.90,68441.70,1073.837
1775020800000,68441.70,68541.20,68383.80,68493.40,705.929
1775021100000,68493.50,68732.50,68488.30,68552.90,2542.064
1775021400000,68552.90,68630.50,68493.80,68580.00,685.555
1775021700000,68580.00,68599.40,68451.00,68478.30,565.984
1775022000000,68478.30,68531.50,68440.40,68470.10,336.605
1775022300000,68470.10,68489.30,68411.20,68446.80,607.157
1775022600000,68446.70,68528.50,68446.70,68479.00,282.939
1775022900000,68479.10,68484.90,68404.00,68418.20,192.145
1775023200000,68418.30,68508.00,68418.20,68450.00,264.439
1775023500000,68450.00,68650.00,68449.90,68583.50,535.475
1775023800000,68583.40,68671.70,68583.40,68616.60,689.955
1775024100000,68616.60,68751.20,68578.20,68751.20,544.408
1775024400000,68749.90,68850.00,68705.70,68812.20,1836.655
1775024700000,68812.20,68860.00,68781.90,68826.00,889.322
1775025000000,68825.90,68946.30,68765.70,68918.40,1438.575
1775025300000,68918.40,69088.00,68908.90,68940.00,2560.683
1775025600000,68940.00,69220.00,68940.00,69183.60,2225.401
1775025900000,69183.60,69218.10,69000.40,69008.00,1761.138
1775026200000,69008.10,69115.90,68998.30,69114.70,725.600
1775026500000,69114.70,69188.10,69060.30,69069.10,875.627
1775026800000,69069.10,69216.50,69069.10,69099.90,851.416
1775027100000,69099.90,69200.00,69099.90,69199.90,626.360
1775027400000,69200.00,69288.00,69094.40,69145.90,1010.291
1775027700000,69145.80,69156.80,68968.60,68980.20,1226.097
1775028000000,68980.20,68980.30,68825.10,68865.00,1673.462
1775028300000,68864.90,68960.80,68860.00,68869.30,695.731
1775028600000,68869.30,68962.90,68850.00,68876.50,514.143
1775028900000,68876.40,68941.60,68833.20,68873.30,447.004
1775029200000,68873.40,68911.10,68817.10,68862.40,530.848
1775029500000,68862.40,68895.40,68663.60,68737.30,950.251
1775029800000,68737.20,68775.00,68664.30,68684.30,713.042
1775030100000,68684.40,68724.20,68631.10,68651.90,710.218
1775030400000,68651.90,68743.00,68623.80,68656.10,928.211
1775030700000,68656.10,68693.60,68542.50,68544.00,787.279
1775031000000,68544.10,68594.00,68479.20,68500.00,887.070
1775031300000,68500.00,68561.80,68425.50,68513.40,1133.913
1775031600000,68513.40,68658.30,68513.40,68632.90,787.098
1775031900000,68632.90,68721.20,68632.80,68708.10,625.536
1775032200000,68708.20,68756.60,68686.80,68713.00,532.311
1775032500000,68713.00,68821.50,68690.30,68795.10,696.896
1775032800000,68795.10,68816.50,68690.10,68743.40,291.390
1775033100000,68743.30,68750.00,68690.20,68700.40,208.826
1775033400000,68700.40,68758.60,68578.30,68610.80,583.249
1775033700000,68610.80,68710.80,68526.70,68630.80,510.024
1775034000000,68630.90,68702.30,68584.70,68673.90,351.785
1775034300000,68674.00,68698.00,68428.30,68458.00,948.407
1775034600000,68458.00,68486.10,68409.20,68466.70,627.793
1775034900000,68466.70,68514.90,68375.00,68429.00,569.022
1775035200000,68428.90,68450.00,68360.00,68399.10,576.940
1775035500000,68399.10,68535.50,68389.20,68527.40,318.714
1775035800000,68527.30,68591.00,68517.30,68522.70,382.135
1775036100000,68522.80,68555.00,68411.60,68417.90,292.246
1775036400000,68417.80,68458.90,68370.60,68448.80,274.789
1775036700000,68448.80,68574.90,68448.80,68564.20,244.898
1775037000000,68564.30,68659.80,68564.30,68623.10,395.015
1775037300000,68623.00,68664.30,68600.00,68608.40,183.428
1775037600000,68608.40,68632.10,68510.10,68513.10,216.821
1775037900000,68513.10,68557.20,68507.10,68507.10,123.355
1775038200000,68507.20,68563.40,68472.00,68476.70,224.489
1775038500000,68476.60,68528.60,68450.00,68472.20,227.027
1775038800000,68472.20,68604.10,68472.20,68570.10,278.385
1775039100000,68570.10,68570.10,68466.30,68489.90,160.853
1775039400000,68489.90,68547.80,68418.20,68420.80,218.402
1775039700000,68420.90,68456.00,68370.10,68428.20,393.094
1775040000000,68428.20,68515.30,68428.10,68465.60,288.157
1775040300000,68465.60,68550.00,68458.00,68550.00,317.414
1775040600000,68550.00,68595.70,68537.20,68560.60,332.526
1775040900000,68560.60,68560.70,68401.00,68545.10,456.390
1775041200000,68545.20,68594.50,68510.40,68540.00,284.265
1775041500000,68540.00,68551.80,68471.50,68482.40,220.115
1775041800000,68482.40,68640.70,68471.50,68581.90,237.824
1775042100000,68581.90,68596.40,68500.00,68529.50,227.598
1775042400000,68529.50,68544.00,68471.50,68532.20,178.546
1775042700000,68532.20,68613.40,68519.30,68519.40,278.098
1775043000000,68519.40,68594.50,68501.60,68509.60,211.217
1775043300000,68509.50,68585.10,68507.10,68582.40,252.990
1775043600000,68582.50,68600.00,68505.90,68571.20,209.582
1775043900000,68571.20,68626.00,68552.40,68625.90,243.379
1775044200000,68626.00,68702.30,68593.60,68675.50,668.565
1775044500000,68675.50,68697.10,68648.40,68669.90,319.985
1775044800000,68670.00,68685.10,68421.20,68468.80,819.273
1775045100000,68468.80,68560.00,68468.70,68491.40,324.391
1775045400000,68491.40,68584.00,68490.70,68541.90,381.028
1775045700000,68541.90,68637.10,68541.80,68616.70,293.158
1775046000000,68616.80,68616.80,68495.20,68536.20,174.037
1775046300000,68536.10,68586.00,68468.50,68480.40,205.042
1775046600000,68480.30,68544.00,68360.20,68377.00,599.128
1775046900000,68377.10,68418.60,68246.00,68248.50,1630.419
1775047200000,68248.50,68748.70,68220.90,68637.40,1138.215
1775047500000,68637.50,68773.90,68354.60,68367.10,2597.447
1775047800000,68367.10,68532.90,68316.00,68358.70,568.706
1775048100000,68358.70,68383.70,68312.00,68363.80,353.976
1775048400000,68364.10,68365.50,68169.30,68263.30,1210.750
1775048700000,68263.30,68282.60,68128.00,68258.60,1320.807
1775049000000,68258.60,68415.90,68258.50,68403.70,667.569
1775049300000,68403.60,68490.00,68403.60,68477.50,462.102
1775049600000,68477.50,68488.50,68397.00,68440.80,364.864
1775049900000,68440.80,68570.00,68419.70,68527.80,536.521
1775050200000,68527.80,68576.10,68367.70,68546.20,680.937
1775050500000,68546.30,68650.00,68443.10,68485.60,700.196
1775050800000,68485.60,68485.60,67883.70,68076.60,3531.169
1775051100000,68076.70,68112.90,67903.70,67983.30,1361.607
1775051400000,67983.30,68278.00,67946.90,68091.60,976.740
1775051700000,68091.60,68209.90,68014.70,68091.40,972.572
1775052000000,68091.40,68260.00,68051.20,68207.10,735.357
1775052300000,68207.20,68241.40,68020.00,68146.30,468.030
1775052600000,68146.40,68229.20,68097.30,68229.10,413.379
1775052900000,68229.20,68329.20,68194.20,68267.20,711.187
1775053200000,68267.30,68487.00,68216.00,68373.60,1429.202
1775053500000,68373.50,68485.60,68333.00,68485.50,642.740
1775053800000,68485.60,68608.60,68231.10,68266.80,1537.502
1775054100000,68266.80,68517.00,68203.40,68369.00,851.678
1775054400000,68369.00,68388.90,68238.00,68373.10,367.698
1775054700000,68373.20,68544.00,68321.70,68528.70,424.437
1775055000000,68528.70,68657.10,68468.40,68570.70,870.203
1775055300000,68570.60,68590.00,68503.00,68559.10,452.293
1775055600000,68559.20,68625.40,68492.30,68562.90,348.022
1775055900000,68562.80,68638.50,68493.70,68521.40,452.740
1775056200000,68521.50,68528.50,68410.60,68454.00,495.228
1775056500000,68453.90,68580.00,68380.30,68536.30,356.687
1775056800000,68536.20,68773.00,68511.30,68773.00,1105.948
1775057100000,68773.00,68873.10,68639.90,68712.60,1417.616
1775057400000,68712.70,68805.80,68622.30,68714.20,469.224
1775057700000,68714.30,68836.70,68685.00,68690.00,723.033
1775058000000,68690.00,68751.90,68650.20,68716.90,355.495
1775058300000,68716.90,68809.80,68716.80,68746.50,372.390
1775058600000,68746.50,68938.80,68730.60,68850.00,760.355
1775058900000,68850.10,68914.00,68832.10,68877.00,839.754
1775059200000,68876.90,68900.00,68716.90,68726.10,842.640
1775059500000,68726.10,68785.50,68661.70,68754.60,501.685
1775059800000,68754.60,68778.60,68600.40,68638.00,752.345
1775060100000,68638.00,68729.90,68570.00,68717.30,799.604
1775060400000,68717.40,68800.00,68681.60,68754.90,414.611
1775060700000,68755.00,68909.50,68721.40,68836.00,402.009
1775061000000,68836.10,68906.60,68670.40,68710.20,911.090
1775061300000,68710.20,68960.00,68690.00,68860.00,833.544
1775061600000,68860.00,68961.60,68818.00,68906.10,380.673
1775061900000,68906.20,68913.20,68782.50,68826.30,335.588
1775062200000,68826.40,68855.80,68791.50,68820.70,251.284
1775062500000,68820.70,68845.50,68775.20,68781.10,196.394
1775062800000,68781.10,69142.60,68771.00,69041.10,1745.631
1775063100000,69041.10,69041.10,68827.60,68853.40,708.113
1775063400000,68853.30,68858.30,68688.00,68712.10,722.846
1775063700000,68712.00,68764.60,68686.00,68717.40,330.828
1775064000000,68717.40,68717.40,68461.10,68542.20,1111.172
1775064300000,68542.00,68553.60,68456.00,68491.40,645.910
1775064600000,68491.40,68510.00,68356.90,68380.40,535.434
1775064900000,68380.40,68467.60,68258.40,68412.70,1246.959
1775065200000,68412.70,68450.00,68375.10,68400.00,262.579
1775065500000,68400.00,68411.00,68231.20,68283.90,531.002
1775065800000,68283.90,68323.90,68212.10,68299.30,424.304
1775066100000,68299.30,68333.20,68218.50,68239.70,477.355
1775066400000,68239.70,68264.70,67900.40,68018.40,2015.204
1775066700000,68018.40,68048.30,67960.10,68008.50,824.008
1775067000000,68008.60,68153.50,68002.90,68055.00,1004.774
1775067300000,68055.00,68088.10,67959.00,68031.70,490.088
1775067600000,68031.70,68114.00,68000.00,68004.70,454.223
1775067900000,68004.80,68136.00,68004.80,68060.30,523.074
1775068200000,68060.40,68153.10,68012.30,68153.00,414.457
1775068500000,68153.00,68196.00,68062.40,68156.50,470.086
1775068800000,68156.50,68313.80,68151.40,68195.40,916.025
1775069100000,68195.40,68199.90,68070.60,68154.80,313.636
1775069400000,68154.80,68188.50,68068.00,68068.10,461.027
1775069700000,68068.00,68087.10,67970.50,68054.20,374.781
1775070000000,68054.20,68163.00,68047.80,68133.50,275.960
1775070300000,68133.50,68207.60,68130.00,68138.50,219.579
1775070600000,68138.50,68138.50,68034.80,68034.90,219.111
1775070900000,68034.80,68077.80,68000.00,68073.10,366.687
1775071200000,68073.10,68097.10,68051.00,68097.10,136.001
1775071500000,68097.10,68255.90,68097.10,68244.80,445.490
1775071800000,68244.80,68269.90,68036.00,68091.40,492.761
1775072100000,68091.40,68171.50,68046.50,68147.10,179.873
1775072400000,68147.20,68208.80,68120.70,68123.70,209.766
1775072700000,68123.60,68251.40,68110.40,68229.90,251.147
1775073000000,68230.00,68239.50,68079.90,68149.00,369.546
1775073300000,68148.90,68160.20,68110.00,68143.80,450.397
1775073600000,68143.70,68167.40,67971.20,68022.00,471.301
1775073900000,68022.00,68118.00,68022.00,68053.30,240.047
1775074200000,68053.30,68131.00,68048.60,68053.40,119.679
1775074500000,68053.50,68082.80,68000.00,68036.50,202.062
1775074800000,68036.40,68113.50,67992.00,68075.90,230.561
1775075100000,68076.00,68100.00,67999.00,68021.50,225.280
1775075400000,68021.50,68040.00,67927.00,68019.60,377.746
1775075700000,68019.60,68144.10,68019.50,68113.20,158.022
1775076000000,68113.20,68151.50,68068.70,68148.50,224.086
1775076300000,68148.50,68158.90,68118.50,68152.60,185.709
1775076600000,68152.50,68217.80,68152.50,68216.70,207.728
1775076900000,68216.70,68216.70,68142.30,68159.80,183.135
1775077200000,68159.70,68250.00,68136.50,68217.30,191.240
1775077500000,68217.20,68349.90,68212.90,68316.10,521.162
1775077800000,68316.20,68323.30,68193.30,68257.80,234.809
1775078100000,68257.80,68320.00,68244.90,68320.00,167.396
1775078400000,68320.00,68390.80,68302.80,68390.70,331.272
1775078700000,68390.70,68510.60,68380.70,68402.10,702.420
1775079000000,68402.20,68482.40,68381.10,68470.30,312.493
1775079300000,68470.20,68471.70,68327.40,68364.00,208.772
1775079600000,68363.90,68363.90,68280.60,68312.70,255.196
1775079900000,68312.70,68318.60,68273.00,68289.00,123.750
1775080200000,68288.90,68318.60,68230.10,68289.30,172.251
1775080500000,68289.30,68442.20,68289.30,68324.70,297.634
1775080800000,68324.80,68324.80,68202.10,68234.90,329.236
1775081100000,68234.90,68244.40,68104.60,68184.80,307.129
1775081400000,68184.80,68219.60,68145.70,68184.20,227.080
1775081700000,68184.20,68184.20,68032.90,68049.70,283.385
1775082000000,68049.70,68230.00,68049.60,68224.90,317.279
1775082300000,68224.80,68224.80,68123.30,68149.90,142.650
1775082600000,68149.90,68230.00,68101.60,68220.10,262.099
1775082900000,68220.00,68220.00,68110.00,68171.50,160.386
1775083200000,68171.50,68284.20,68149.60,68209.40,179.198
1775083500000,68209.30,68227.90,68119.40,68139.20,127.881
1775083800000,68139.20,68144.90,68040.20,68096.10,196.991
1775084100000,68096.10,68116.90,68070.00,68088.40,117.167
1775084400000,68088.50,68195.00,68088.50,68193.90,158.694
1775084700000,68193.90,68220.90,68144.80,68187.70,172.929
1775085000000,68187.70,68193.70,68139.20,68162.30,137.525
1775085300000,68162.40,68162.40,68069.20,68092.50,194.625
1775085600000,68092.50,68112.00,68058.00,68058.10,119.001
1775085900000,68058.00,68098.20,68050.00,68088.30,153.003
1775086200000,68088.30,68096.10,67952.20,68090.60,455.980
1775086500000,68090.90,68146.00,68090.90,68109.50,207.414
1775086800000,68109.50,68134.60,68065.00,68072.30,233.741
1775087100000,68072.30,68142.20,68024.10,68134.70,194.471
1775087400000,68134.80,68139.20,68035.70,68103.70,130.258
1775087700000,68103.70,68103.80,68029.50,68086.50,163.617
1775088000000,68086.40,68128.40,68013.30,68095.10,290.374
1775088300000,68095.00,68145.00,68055.00,68122.00,238.806
1775088600000,68122.10,68199.60,68121.70,68177.30,390.596
1775088900000,68177.30,68217.30,68100.00,68167.60,267.462
1775089200000,68167.60,68238.00,68156.80,68205.80,277.187
1775089500000,68205.70,68244.80,68179.00,68179.10,184.460
1775089800000,68179.00,68268.00,68166.50,68264.50,196.560
1775090100000,68264.50,68348.70,68214.60,68344.40,371.189
1775090400000,68344.40,68494.40,68315.40,68494.30,829.226
1775090700000,68494.30,68563.40,68391.60,68441.90,665.080
1775091000000,68442.00,68588.10,68395.00,68581.10,429.056
1775091300000,68581.00,68639.10,68523.00,68565.10,670.866
1775091600000,68565.20,68565.20,68026.40,68067.40,1388.097
1775091900000,68067.10,68331.60,67598.00,68135.10,5269.689
1775092200000,68135.10,68431.80,68050.60,68105.30,1551.490
1775092500000,68105.40,68109.10,67393.70,67560.30,5072.129
1775092800000,67560.20,67794.40,67223.00,67491.00,4688.436
1775093100000,67491.00,67627.00,67278.50,67538.90,1840.657
1775093400000,67538.90,67545.70,67138.00,67293.50,2379.655
1775093700000,67293.60,67428.70,67202.00,67286.80,1313.986
1775094000000,67286.60,67286.60,67090.00,67135.90,1873.030
1775094300000,67135.90,67235.30,67060.00,67066.60,1140.576
1775094600000,67066.60,67300.20,67000.30,67216.70,1284.643
1775094900000,67216.60,67364.70,67205.30,67316.40,674.455
1775095200000,67316.40,67316.40,67083.10,67100.60,698.294
1775095500000,67100.70,67288.80,67013.30,67108.10,798.716
1775095800000,67108.20,67139.30,66807.60,66824.90,2532.780
1775096100000,66824.90,66982.20,66812.70,66901.00,912.386
1775096400000,66901.00,66908.80,66729.50,66886.00,1257.008
1775096700000,66886.00,66921.00,66820.00,66863.70,512.017
1775097000000,66863.80,67016.50,66859.60,66944.30,659.863
1775097300000,66944.30,66958.30,66787.50,66872.30,553.717
1775097600000,66872.30,66955.00,66590.00,66677.40,1495.436
1775097900000,66677.40,66814.60,66656.30,66762.80,729.766
1775098200000,66762.90,66846.30,66762.80,66821.40,424.282
1775098500000,66821.50,66912.40,66816.00,66821.60,371.592
1775098800000,66821.60,66842.60,66767.00,66814.00,445.619
1775099100000,66814.00,66931.90,66801.70,66909.50,348.427
1775099400000,66909.50,66909.50,66702.60,66719.60,534.599
1775099700000,66719.60,66782.70,66639.90,66690.30,890.839
1775100000000,66690.30,66855.20,66601.50,66854.00,655.561
1775100300000,66854.00,66865.70,66788.70,66831.60,329.947
1775100600000,66831.60,66850.00,66764.80,66778.10,262.877
1775100900000,66778.10,66830.20,66682.00,66700.10,251.749
1775101200000,66700.00,66711.30,66455.90,66571.40,1663.738
1775101500000,66571.40,66580.00,66483.00,66511.20,606.314
1775101800000,66511.10,66617.00,66505.50,66563.40,408.480
1775102100000,66563.30,66586.20,66464.50,66538.40,418.855
1775102400000,66538.40,66611.60,66526.90,66548.10,440.477
1775102700000,66548.10,66617.70,66500.00,66600.10,344.656
1775103000000,66600.10,66600.10,66469.90,66501.20,333.693
1775103300000,66501.20,66592.30,66428.50,66514.00,509.052
1775103600000,66514.00,66514.00,66352.90,66380.00,903.124
1775103900000,66380.10,66406.60,66337.00,66386.80,530.282
1775104200000,66386.90,66420.00,66345.10,66380.00,364.093
1775104500000,66379.90,66409.30,66254.60,66259.20,871.657
1775104800000,66259.20,66278.90,66171.80,66255.20,1080.246
1775105100000,66255.20,66363.90,66240.80,66313.50,1065.287
1775105400000,66313.50,66324.70,66270.70,66273.90,357.233
1775105700000,66273.90,66316.60,66234.90,66300.20,398.898
1775106000000,66300.20,66478.20,66300.00,66397.30,935.706
1775106300000,66397.30,66430.40,66270.00,66317.60,490.266
1775106600000,66317.60,66397.80,66282.10,66349.80,399.689
1775106900000,66349.90,66441.20,66349.90,66373.50,290.808
1775107200000,66373.50,66450.00,66315.10,66449.90,487.984
1775107500000,66449.80,66449.90,66395.80,66449.90,398.625
1775107800000,66449.90,66476.10,66389.70,66425.00,441.511
1775108100000,66425.00,66450.00,66362.20,66447.80,314.778
1775108400000,66447.80,66593.40,66429.30,66553.60,1271.641
1775108700000,66553.70,66557.20,66452.20,66454.50,1200.625
1775109000000,66454.60,66502.20,66440.00,66502.20,448.242
1775109300000,66502.30,66628.80,66500.50,66558.20,699.101
1775109600000,66558.20,66590.80,66551.70,66561.00,343.341
1775109900000,66561.00,66591.90,66540.00,66540.10,559.774
1775110200000,66540.10,66555.80,66530.00,66547.00,473.751
1775110500000,66547.00,66798.90,66540.00,66778.10,1791.456
1775110800000,66778.10,66783.80,66640.80,66703.80,1281.437
1775111100000,66703.90,66708.50,66606.60,66612.70,527.549
1775111400000,66612.60,66666.50,66545.40,66629.90,344.965
1775111700000,66629.90,66632.20,66506.40,66555.20,376.634
1775112000000,66555.30,66590.00,66511.20,66519.90,296.246
1775112300000,66519.90,66630.10,66519.90,66584.10,210.414
1775112600000,66584.00,66628.40,66571.60,66590.50,290.655
1775112900000,66590.40,66661.50,66585.00,66652.90,162.639
1775113200000,66653.00,66676.30,66610.20,66669.40,199.788
1775113500000,66669.50,66681.80,66614.80,66617.60,199.786
1775113800000,66617.50,66617.60,66521.40,66545.30,248.523
1775114100000,66545.40,66680.30,66545.30,66659.30,205.274
1775114400000,66659.30,66669.60,66602.60,66658.60,171.701
1775114700000,66658.60,66668.00,66606.40,66647.20,127.311
1775115000000,66647.20,66750.00,66644.10,66735.00,398.343
1775115300000,66734.90,66826.90,66732.80,66779.50,470.133
1775115600000,66779.50,66860.00,66770.80,66824.20,400.516
1775115900000,66824.20,66885.00,66824.10,66885.00,405.319
1775116200000,66885.00,66893.10,66821.30,66875.30,583.802
1775116500000,66875.30,66898.50,66854.50,66887.90,394.766
1775116800000,66887.80,66887.90,66765.00,66780.00,456.772
1775117100000,66780.00,66789.10,66721.30,66734.60,239.330
1775117400000,66734.60,66743.90,66681.30,66743.90,324.713
1775117700000,66743.80,66749.80,66638.00,66651.00,397.322
1775118000000,66651.00,66670.00,66555.70,66601.90,678.104
1775118300000,66601.80,66656.70,66590.00,66645.30,260.457
1775118600000,66645.20,66705.20,66631.80,66660.70,287.508
1775118900000,66660.70,66660.80,66501.90,66525.70,630.200
1775119200000,66525.70,66532.90,66462.40,66475.60,589.463
1775119500000,66475.70,66529.70,66461.70,66471.20,253.799
1775119800000,66471.20,66500.00,66429.00,66456.40,393.353
1775120100000,66456.30,66461.90,66372.90,66418.20,752.094
1775120400000,66418.10,66454.50,66267.30,66400.80,1089.585
1775120700000,66400.80,66406.10,66256.00,66269.10,418.311
1775121000000,66269.10,66402.60,66263.60,66394.40,514.674
1775121300000,66394.40,66435.60,66332.40,66332.50,315.257
1775121600000,66332.40,66407.20,66330.60,66361.50,240.439
1775121900000,66361.60,66487.00,66360.00,66444.10,446.096
1775122200000,66444.10,66452.80,66386.50,66416.60,296.368
1775122500000,66416.60,66450.00,66400.00,66421.90,173.349
1775122800000,66421.90,66487.70,66360.80,66400.10,608.314
1775123100000,66400.00,66408.60,66332.00,66363.80,276.332
1775123400000,66363.80,66385.40,66334.70,66378.80,190.873
1775123700000,66378.80,66441.40,66370.80,66428.60,186.472
1775124000000,66428.70,66471.90,66386.10,66398.20,217.235
1775124300000,66398.20,66422.20,66338.30,66341.30,295.449
1775124600000,66341.30,66347.40,66188.10,66231.90,1121.944
1775124900000,66231.90,66300.00,66191.70,66288.60,522.780
1775125200000,66288.70,66327.30,66284.90,66311.10,172.165
1775125500000,66311.00,66354.90,66309.40,66337.00,153.944
1775125800000,66337.10,66430.10,66337.00,66405.40,359.803
1775126100000,66405.40,66460.00,66322.90,66347.30,347.837
1775126400000,66347.30,66464.50,66347.30,66440.80,255.456
1775126700000,66440.80,66460.00,66389.80,66424.30,203.287
1775127000000,66424.30,66471.60,66400.00,66420.10,201.408
1775127300000,66420.00,66452.00,66401.70,66424.00,127.657
1775127600000,66424.10,66449.70,66366.60,66416.10,216.036
1775127900000,66416.10,66421.90,66294.10,66294.20,252.277
1775128200000,66294.10,66329.80,66223.00,66253.40,623.195
1775128500000,66253.30,66438.00,66065.10,66419.10,2230.236
1775128800000,66419.10,66420.00,66353.70,66415.20,257.584
1775129100000,66415.20,66419.10,66377.20,66415.50,158.259
1775129400000,66415.50,66447.40,66340.00,66340.00,274.450
1775129700000,66340.00,66377.20,66288.00,66311.90,222.717
1775130000000,66311.90,66317.90,66283.00,66297.90,195.668
1775130300000,66297.80,66321.00,66276.00,66290.60,168.119
1775130600000,66290.60,66360.00,66171.90,66200.50,630.650
1775130900000,66200.40,66228.40,66138.20,66180.60,582.753
1775131200000,66180.60,66204.90,66050.00,66150.00,1305.244
1775131500000,66150.00,66208.20,66001.00,66115.90,790.919
1775131800000,66115.90,66215.20,66060.80,66139.20,564.961
1775132100000,66139.30,66150.60,66012.50,66012.50,581.482
1775132400000,66012.50,66121.80,65919.10,66103.00,2799.549
1775132700000,66103.00,66133.60,66028.20,66115.30,560.768
1775133000000,66115.40,66138.80,66073.40,66086.70,463.441
1775133300000,66086.80,66166.00,66069.00,66142.30,389.364
1775133600000,66142.30,66186.50,66131.70,66179.80,423.003
1775133900000,66179.80,66209.30,66100.00,66121.30,404.177
1775134200000,66121.30,66160.50,66053.60,66070.80,303.769
1775134500000,66070.70,66088.10,65962.20,66014.20,445.040
1775134800000,66014.30,66085.00,65919.10,65958.80,1062.344
1775135100000,65958.70,66130.00,65950.40,66006.40,713.317
1775135400000,66006.50,66019.80,65950.00,65969.00,454.525
1775135700000,65969.10,65980.80,65880.00,65880.90,1443.424
1775136000000,65881.00,66000.00,65850.40,65996.00,905.203
1775136300000,65996.10,66158.70,65989.60,66110.90,809.279
1775136600000,66110.90,66209.80,65837.30,65875.10,2281.719
1775136900000,65875.00,65925.20,65676.10,65753.40,2991.168
1775137200000,65753.40,65850.00,65699.40,65826.60,801.145
1775137500000,65826.70,66046.50,65800.00,65992.60,1247.385
1775137800000,65992.50,66137.30,65975.10,66090.50,1246.817
1775138100000,66090.60,66250.00,66082.20,66227.30,1899.917
1775138400000,66227.30,66244.00,66123.00,66207.00,1207.094
1775138700000,66206.90,66377.00,66156.50,66318.00,1411.499
1775139000000,66318.00,66400.10,66240.00,66357.10,1143.275
1775139300000,66357.00,66446.30,66251.00,66357.80,1049.262
1775139600000,66357.70,66458.00,66269.70,66357.40,772.952
1775139900000,66357.20,66357.20,66158.00,66222.00,756.460
1775140200000,66221.90,66595.70,66217.20,66483.00,1657.426
1775140500000,66483.00,67026.90,66483.00,66825.40,6174.957
1775140800000,66825.40,67030.00,66709.00,67016.90,2422.226
1775141100000,67016.90,67080.00,66700.30,66707.30,1770.294
1775141400000,66707.30,66852.00,66621.00,66829.90,892.653
1775141700000,66829.90,67000.00,66811.70,66822.40,1378.474
1775142000000,66822.30,66849.50,66635.40,66762.30,1667.588
1775142300000,66762.30,66794.60,66660.10,66789.80,671.411
1775142600000,66789.80,66944.00,66783.00,66858.70,1143.259
1775142900000,66858.60,66868.90,66757.40,66768.90,877.025
1775143200000,66768.90,66799.30,66596.20,66754.00,921.879
1775143500000,66754.10,66855.80,66691.30,66805.10,437.396
1775143800000,66805.20,66821.90,66666.60,66746.70,431.968
1775144100000,66746.70,66960.70,66735.80,66891.20,644.450
1775144400000,66891.20,66925.00,66722.70,66894.30,602.815
1775144700000,66894.30,66911.10,66764.70,66780.00,454.753
1775145000000,66780.00,66830.00,66698.00,66799.20,439.485
1775145300000,66799.10,66818.80,66710.60,66810.60,274.400
1775145600000,66810.60,66844.50,66767.00,66802.30,326.134
1775145900000,66802.30,66890.00,66791.80,66869.30,420.236
1775146200000,66869.40,66929.00,66850.00,66867.10,393.976
1775146500000,66867.00,66929.10,66811.80,66844.00,323.684
1775146800000,66844.00,66900.00,66732.60,66770.00,549.870
1775147100000,66770.00,66882.10,66707.60,66836.60,464.609
1775147400000,66836.60,67000.00,66808.40,66967.00,766.258
1775147700000,66967.00,67168.10,66923.70,67074.70,1684.775
1775148000000,67074.70,67234.40,67069.90,67126.60,1647.813
1775148300000,67126.60,67226.40,67088.50,67124.40,724.189
1775148600000,67124.40,67165.80,67097.60,67137.60,286.842
1775148900000,67137.70,67150.00,67040.80,67050.10,328.410
1775149200000,67050.00,67066.50,66815.10,66879.40,1147.204
1775149500000,66879.20,66983.30,66829.10,66976.90,590.464
1775149800000,66977.00,67174.20,66950.10,67133.70,607.986
1775150100000,67133.70,67400.00,67126.50,67295.00,2623.313
1775150400000,67295.00,67347.20,67263.30,67313.70,675.703
1775150700000,67313.60,67332.90,67201.80,67201.90,426.977
1775151000000,67201.80,67229.00,66980.50,66993.00,1143.531
1775151300000,66993.00,67028.20,66900.00,66973.10,764.570
1775151600000,66973.10,67000.00,66896.60,66949.90,755.556
1775151900000,66949.90,66950.00,66765.10,66772.70,814.043
1775152200000,66772.80,66811.60,66677.10,66775.90,1810.438
1775152500000,66775.80,66799.10,66622.40,66641.40,904.433
1775152800000,66641.40,66699.90,66622.20,66695.00,728.663
1775153100000,66695.00,66754.80,66550.00,66608.00,829.909
1775153400000,66608.10,66758.20,66604.30,66666.20,507.815
1775153700000,66666.20,66771.10,66625.00,66743.60,397.742
1775154000000,66743.60,66810.00,66723.90,66724.00,321.658
1775154300000,66723.90,66724.00,66580.00,66592.70,518.098
1775154600000,66592.70,66685.30,66592.60,66648.70,290.239
1775154900000,66648.70,66685.20,66625.00,66657.20,243.782
1775155200000,66657.20,66776.60,66638.70,66716.10,373.861
1775155500000,66716.10,66860.00,66692.90,66828.40,382.981
1775155800000,66828.40,67044.80,66828.30,66964.60,768.106
1775156100000,66964.60,66969.90,66899.80,66941.60,271.468
1775156400000,66941.70,67049.20,66899.90,66911.90,541.237
1775156700000,66911.90,67000.00,66911.90,66962.10,154.510
1775157000000,66962.10,67082.90,66962.10,67017.60,289.578
1775157300000,67017.60,67027.00,66950.00,66994.20,130.408
1775157600000,66994.20,67010.20,66885.50,66980.20,225.532
1775157900000,66980.20,67067.50,66965.50,66994.20,539.097
1775158200000,66994.10,67006.80,66827.80,66913.20,347.170
1775158500000,66913.20,66947.30,66852.00,66932.60,190.933
1775158800000,66932.60,67025.20,66917.40,66928.30,208.498
1775159100000,66928.30,66958.50,66877.10,66898.70,121.902
1775159400000,66898.80,67015.70,66898.80,66981.20,348.676
1775159700000,66981.10,67038.30,66894.10,66943.20,601.586
1775160000000,66943.20,66945.30,66755.60,66814.80,772.664
1775160300000,66814.80,66898.40,66805.20,66840.90,224.439
1775160600000,66841.00,66882.50,66840.90,66856.80,159.609
1775160900000,66856.80,66978.80,66845.30,66957.10,375.874
1775161200000,66957.10,66957.10,66867.50,66880.20,128.080
1775161500000,66880.10,67035.20,66862.10,67017.90,328.613
1775161800000,67017.80,67021.20,66921.20,66935.30,142.222
1775162100000,66935.40,67078.90,66924.00,67074.00,298.032
1775162400000,67074.00,67074.00,66969.30,67001.00,180.319
1775162700000,67001.00,67023.20,66933.30,66945.00,148.856
1775163000000,66945.00,66956.60,66899.00,66932.60,182.562
1775163300000,66932.50,66932.50,66901.40,66906.30,88.491
1775163600000,66906.40,66993.40,66852.00,66862.90,315.403
1775163900000,66862.80,66914.90,66846.90,66846.90,135.590
1775164200000,66846.90,66854.20,66681.30,66790.00,454.773
1775164500000,66790.00,66855.80,66766.00,66843.50,165.218
1775164800000,66843.40,66906.00,66780.00,66788.00,193.835
1775165100000,66788.00,66830.00,66780.00,66802.30,75.514
1775165400000,66802.30,66839.90,66802.30,66820.20,76.293
1775165700000,66820.20,66840.40,66786.00,66798.40,131.535
1775166000000,66798.40,66818.50,66729.70,66739.40,179.021
1775166300000,66739.30,66817.10,66739.30,66770.10,119.086
1775166600000,66770.10,66882.40,66770.10,66844.00,88.823
1775166900000,66844.00,66917.20,66843.90,66910.70,159.529
1775167200000,66910.70,66971.20,66885.60,66961.70,296.590
1775167500000,66961.70,66990.00,66880.50,66893.50,132.328
1775167800000,66893.50,66922.20,66864.00,66869.50,98.873
1775168100000,66869.60,66953.10,66869.50,66940.00,173.356
1775168400000,66939.90,66965.90,66866.50,66868.30,104.812
1775168700000,66868.30,66889.30,66782.00,66875.60,275.389
1775169000000,66875.70,66965.20,66875.70,66913.80,207.523
1775169300000,66913.80,66970.80,66889.40,66967.20,128.466
1775169600000,66967.10,66975.00,66933.00,66947.10,149.166
1775169900000,66947.20,66947.20,66885.00,66943.30,89.289
1775170200000,66943.30,66986.20,66928.50,66974.10,206.807
1775170500000,66974.20,67008.50,66940.20,66954.00,210.263
1775170800000,66954.00,67019.20,66912.10,67019.10,212.315
1775171100000,67019.20,67070.20,66946.70,66971.90,302.663
1775171400000,66971.90,66988.60,66892.30,66919.20,111.181
1775171700000,66919.20,66971.80,66893.40,66928.80,167.500
1775172000000,66928.80,67001.30,66922.90,66973.50,115.470
1775172300000,66973.50,66973.60,66906.20,66906.30,86.841
1775172600000,66906.20,66930.50,66884.90,66924.60,124.923
1775172900000,66924.60,66924.70,66858.50,66862.20,153.362
1775173200000,66862.20,66892.00,66852.40,66852.80,93.623
1775173500000,66852.80,66868.00,66820.80,66841.60,136.866
1775173800000,66841.60,66849.30,66820.60,66849.30,87.752
1775174100000,66849.30,66874.10,66849.20,66868.50,61.300
1775174400000,66868.60,66971.50,66868.60,66971.50,233.493
1775174700000,66971.50,66976.20,66790.00,66831.80,341.882
1775175000000,66831.80,66847.90,66745.00,66839.90,262.509
1775175300000,66839.90,66839.90,66774.20,66813.40,138.712
1775175600000,66813.30,66936.40,66809.40,66929.10,176.345
1775175900000,66929.20,66929.20,66763.90,66793.90,245.712
1775176200000,66794.00,66814.00,66780.10,66798.50,106.381
1775176500000,66798.60,66884.10,66797.70,66811.70,215.262
1775176800000,66811.80,66843.50,66733.80,66773.00,213.352
1775177100000,66773.00,66773.10,66684.50,66706.30,484.478
1775177400000,66706.20,66748.50,66671.00,66688.90,175.849
1775177700000,66688.90,66761.90,66684.60,66761.80,129.082
1775178000000,66761.80,66779.10,66696.30,66748.40,193.880
1775178300000,66748.40,66800.00,66719.50,66771.00,266.642
1775178600000,66771.10,66808.50,66717.60,66797.20,135.167
1775178900000,66797.30,66817.20,66707.80,66744.40,214.126
1775179200000,66744.30,66812.90,66707.00,66782.90,100.302
1775179500000,66782.80,66868.80,66777.90,66834.90,178.172
1775179800000,66834.80,66881.30,66789.00,66794.70,274.346
1775180100000,66794.70,66794.70,66450.00,66484.60,1451.520
1775180400000,66484.60,66559.70,66484.50,66540.50,381.897
1775180700000,66540.60,66595.40,66479.00,66537.50,395.742
1775181000000,66537.60,66556.70,66457.60,66531.10,334.352
1775181300000,66531.00,66600.20,66531.00,66599.00,161.279
1775181600000,66599.10,66599.10,66468.50,66499.60,407.214
1775181900000,66499.60,66542.80,66422.30,66430.00,347.986
1775182200000,66430.10,66508.80,66375.00,66479.60,987.263
1775182500000,66479.60,66726.70,66473.80,66677.50,1066.972
1775182800000,66677.40,66677.50,66568.00,66618.50,365.406
1775183100000,66618.50,66624.20,66413.30,66424.90,342.162
1775183400000,66424.90,66459.80,66288.40,66450.50,1178.983
1775183700000,66450.40,66485.70,66264.10,66267.30,661.790
1775184000000,66267.30,66358.00,66240.00,66309.10,838.237
1775184300000,66309.10,66353.80,66282.00,66353.80,232.777
1775184600000,66353.80,66517.20,66340.00,66461.70,583.369
1775184900000,66461.80,66512.90,66425.90,66504.60,260.238
1775185200000,66504.60,66520.00,66461.00,66490.70,591.291
1775185500000,66490.70,66594.90,66464.90,66571.90,342.430
1775185800000,66571.90,66640.30,66526.70,66623.90,529.913
1775186100000,66623.90,66660.00,66577.70,66620.40,785.906
1775186400000,66620.40,66690.00,66615.80,66658.40,345.504
1775186700000,66658.40,66698.50,66572.10,66602.10,290.194
1775187000000,66602.20,66677.70,66576.80,66659.50,213.816
1775187300000,66659.60,66666.10,66545.40,66572.00,174.991
1775187600000,66572.10,66572.10,66492.60,66565.70,538.546
1775187900000,66565.80,66600.00,66518.90,66555.00,119.888
1775188200000,66555.00,66608.00,66549.80,66553.50,113.896
1775188500000,66553.40,66586.60,66515.30,66550.00,83.581
1775188800000,66550.10,66610.00,66525.00,66610.00,158.259
1775189100000,66609.90,66625.30,66576.90,66577.00,110.055
1775189400000,66577.00,66604.00,66553.30,66603.90,95.644
1775189700000,66603.90,66666.00,66600.10,66610.00,173.438
1775190000000,66610.00,66610.10,66520.00,66540.90,98.807
1775190300000,66540.90,66576.50,66505.60,66505.60,87.066
1775190600000,66505.70,66578.10,66468.00,66502.10,207.932
1775190900000,66502.10,66545.50,66481.80,66510.10,173.734
1775191200000,66510.00,66548.90,66510.00,66548.90,89.099
1775191500000,66548.80,66648.40,66548.80,66614.80,223.749
1775191800000,66614.70,66614.80,66533.00,66595.10,199.418
1775192100000,66595.00,66630.00,66573.30,66578.80,127.791
1775192400000,66578.80,66641.00,66565.50,66612.00,151.039
1775192700000,66612.00,66632.00,66574.00,66630.20,171.604
1775193000000,66630.30,66630.30,66554.10,66554.10,102.990
1775193300000,66554.20,66554.20,66375.10,66488.00,373.592
1775193600000,66488.10,66510.00,66441.80,66445.70,149.703
1775193900000,66445.80,66561.60,66445.70,66549.10,125.174
1775194200000,66549.00,66789.60,66549.00,66689.20,761.091
1775194500000,66689.20,66733.50,66677.10,66689.70,295.202
1775194800000,66689.60,66750.00,66660.90,66740.10,183.267
1775195100000,66740.10,66740.10,66662.70,66670.00,178.333
1775195400000,66670.10,66670.10,66523.00,66523.00,510.531
1775195700000,66523.10,66574.90,66478.80,66574.90,461.459
1775196000000,66574.90,66623.40,66540.00,66540.00,190.886
1775196300000,66540.00,66613.20,66523.20,66560.40,159.638
1775196600000,66560.40,66635.90,66560.30,66635.90,81.967
1775196900000,66635.90,66642.00,66585.20,66625.30,143.300
1775197200000,66625.20,66665.80,66567.10,66613.00,133.423
1775197500000,66613.00,66649.40,66583.30,66594.20,86.516
1775197800000,66594.30,66633.80,66550.00,66603.70,108.151
1775198100000,66603.80,66748.70,66603.70,66689.40,328.228
1775198400000,66689.50,66740.00,66689.50,66706.00,173.682
1775198700000,66706.10,66770.00,66680.00,66721.90,345.443
1775199000000,66721.80,66753.60,66697.90,66700.00,170.255
1775199300000,66700.00,66766.60,66700.00,66762.00,143.500
1775199600000,66762.10,66806.80,66750.00,66760.00,360.619
1775199900000,66760.00,66858.30,66716.40,66845.00,393.263
1775200200000,66845.00,66879.40,66753.30,66785.70,321.195
1775200500000,66785.70,66819.80,66764.10,66813.00,170.311
1775200800000,66813.00,66845.20,66808.60,66811.50,207.370
1775201100000,66811.50,66916.40,66805.40,66913.20,364.190
1775201400000,66913.10,67068.40,66882.40,67038.10,1062.767
1775201700000,67038.30,67233.30,67030.20,67045.50,1717.734
1775202000000,67045.50,67094.50,67017.30,67043.40,506.191
1775202300000,67043.30,67043.40,66991.40,66997.60,374.917
1775202600000,66997.60,67095.70,66971.00,67034.00,467.439
1775202900000,67034.00,67039.70,66991.20,67008.80,253.010
1775203200000,67008.80,67083.20,66993.40,67076.20,259.976
1775203500000,67076.30,67258.00,67050.00,67240.60,1012.928
1775203800000,67240.70,67248.70,67136.50,67137.50,558.066
1775204100000,67137.40,67188.00,67081.90,67116.10,363.343
1775204400000,67116.10,67150.60,67084.40,67130.00,225.661
1775204700000,67130.00,67134.70,67012.80,67023.00,372.708
1775205000000,67023.00,67090.00,67020.90,67070.60,142.910
1775205300000,67070.50,67070.50,66953.50,66960.20,298.142
1775205600000,66960.20,66978.70,66864.10,66900.40,687.791
1775205900000,66900.30,66978.40,66867.00,66960.80,521.112
1775206200000,66960.80,66971.30,66904.30,66913.00,193.615
1775206500000,66913.00,66951.10,66881.10,66935.00,131.686
1775206800000,66935.10,66976.00,66910.50,66917.20,178.066
1775207100000,66917.30,66917.30,66850.00,66855.50,341.307
1775207400000,66855.50,66885.60,66850.00,66866.00,193.902
1775207700000,66866.10,66893.50,66841.20,66855.80,230.924
1775208000000,66855.80,66855.80,66714.80,66749.80,763.359
1775208300000,66749.80,66797.40,66714.30,66790.00,209.304
1775208600000,66790.00,66819.10,66757.00,66804.70,149.598
1775208900000,66804.60,66815.30,66772.10,66801.70,127.713
1775209200000,66801.70,66888.00,66801.60,66868.40,175.308
1775209500000,66868.50,66874.40,66772.00,66818.90,205.845
1775209800000,66818.90,66838.20,66780.70,66782.20,113.176
1775210100000,66782.30,66833.80,66782.20,66828.90,74.516
1775210400000,66828.90,66828.90,66741.00,66756.80,238.479
1775210700000,66756.80,66802.30,66736.00,66761.90,127.327
1775211000000,66761.90,66811.80,66742.30,66791.20,145.678
1775211300000,66791.20,66847.90,66749.10,66813.70,148.097
1775211600000,66813.70,66815.80,66737.50,66766.80,107.794
1775211900000,66766.90,66791.00,66727.70,66727.70,146.762
1775212200000,66727.80,66727.80,66644.00,66694.20,419.552
1775212500000,66694.10,66743.10,66674.80,66707.00,152.660
1775212800000,66707.10,66765.70,66707.00,66749.20,109.812
1775213100000,66749.30,66848.20,66749.30,66811.70,268.000
1775213400000,66811.30,66871.90,66800.00,66838.60,170.446
1775213700000,66838.60,66864.60,66829.00,66845.30,183.098
1775214000000,66845.30,66888.20,66823.60,66858.80,282.406
1775214300000,66858.90,66858.90,66800.00,66811.80,101.744
1775214600000,66811.70,66838.40,66790.60,66823.20,121.009
1775214900000,66823.30,66848.90,66807.80,66832.70,86.248
1775215200000,66832.70,66926.70,66832.70,66867.10,513.896
1775215500000,66867.00,66927.70,66862.80,66904.90,228.590
1775215800000,66904.90,66968.30,66880.20,66913.60,240.733
1775216100000,66913.60,66979.10,66913.60,66956.40,226.843
1775216400000,66956.40,67041.90,66942.30,66965.00,435.482
1775216700000,66965.00,67009.00,66928.30,66928.30,227.075
1775217000000,66928.30,66991.70,66911.60,66971.70,126.245
1775217300000,66971.80,66983.50,66952.80,66983.40,147.420
1775217600000,66983.50,67018.00,66963.90,66980.00,220.384
1775217900000,66980.00,67014.80,66964.10,66982.20,172.250
1775218200000,66982.20,66982.20,66890.40,66978.30,273.623
1775218500000,66978.40,67029.90,66911.50,66953.00,183.133
1775218800000,66952.90,66988.90,66910.00,66922.10,187.983
1775219100000,66922.20,67110.40,66922.10,67087.10,611.438
1775219400000,67087.20,67350.00,66844.80,66892.30,4194.680
1775219700000,66892.20,66929.80,66771.00,66802.50,883.232
1775220000000,66802.50,66859.10,66751.90,66837.10,445.576
1775220300000,66836.70,66868.30,66711.10,66711.20,509.643
1775220600000,66711.10,66756.00,66605.90,66745.30,958.734
1775220900000,66745.40,66778.50,66681.20,66690.40,306.557
1775221200000,66690.40,66707.10,66585.50,66594.40,665.428
1775221500000,66594.40,66680.10,66543.60,66574.90,550.525
1775221800000,66575.00,66648.40,66525.40,66645.90,586.207
1775222100000,66645.90,66668.70,66564.00,66642.00,455.550
1775222400000,66642.10,66705.70,66625.60,66671.10,392.417
1775222700000,66671.10,66696.30,66624.70,66649.90,893.544
1775223000000,66650.00,66651.40,66546.70,66600.00,563.768
1775223300000,66599.90,66644.60,66563.30,66580.10,285.766
1775223600000,66580.10,66597.30,66551.10,66574.90,289.208
1775223900000,66574.90,66591.70,66478.50,66480.60,585.976
1775224200000,66480.70,66663.30,66480.60,66649.70,533.061
1775224500000,66649.80,66650.00,66595.10,66644.60,369.728
1775224800000,66644.60,66749.00,66600.00,66686.00,605.406
1775225100000,66686.10,66776.80,66686.00,66714.80,505.309
1775225400000,66714.90,66753.00,66683.60,66752.90,390.770
1775225700000,66752.90,66754.00,66688.50,66749.90,160.697
1775226000000,66750.00,66828.50,66737.90,66783.70,344.377
1775226300000,66783.80,66968.10,66783.70,66878.10,812.359
1775226600000,66878.20,66898.00,66843.00,66866.80,265.844
1775226900000,66866.80,66910.80,66773.30,66855.70,341.619
1775227200000,66855.60,66855.70,66775.80,66775.80,213.601
1775227500000,66775.90,66860.00,66775.80,66860.00,197.811
1775227800000,66859.90,66953.70,66850.20,66917.50,341.443
1775228100000,66917.50,66942.30,66900.00,66900.00,270.555
1775228400000,66899.90,66944.10,66876.60,66912.40,228.249
1775228700000,66912.30,66945.40,66896.80,66937.90,191.620
1775229000000,66937.90,66999.00,66913.20,66931.80,400.999
1775229300000,66931.80,66931.90,66852.20,66868.60,190.071
1775229600000,66868.60,66889.00,66828.60,66888.90,374.948
1775229900000,66889.00,66915.00,66880.70,66899.80,155.307
1775230200000,66899.80,66956.20,66846.40,66871.60,273.108
1775230500000,66871.60,66880.00,66804.20,66880.00,205.370
1775230800000,66879.90,66880.00,66804.80,66828.40,151.515
1775231100000,66828.50,66836.00,66778.90,66802.70,251.776
1775231400000,66802.60,66836.00,66802.60,66811.20,118.962
1775231700000,66811.30,66853.40,66806.00,66806.10,248.395
1775232000000,66806.00,66867.10,66800.00,66831.20,148.673
1775232300000,66831.30,66847.70,66805.30,66827.30,104.700
1775232600000,66827.20,66890.00,66827.20,66881.50,108.638
1775232900000,66881.60,66915.90,66843.30,66882.60,174.704
1775233200000,66882.70,66943.00,66882.70,66913.10,156.509
1775233500000,66913.00,66965.00,66913.00,66959.00,145.639
1775233800000,66958.90,66965.00,66917.10,66960.00,175.419
1775234100000,66960.00,66979.00,66900.50,66919.90,247.099
1775234400000,66919.90,66959.10,66896.40,66944.70,140.755
1775234700000,66944.70,67046.10,66911.30,66999.80,412.460
1775235000000,66999.80,67035.70,66986.40,67009.40,253.801
1775235300000,67009.30,67009.40,66966.00,66972.50,122.231
1775235600000,66972.50,66972.60,66928.40,66956.40,156.231
1775235900000,66957.90,67018.00,66940.00,67018.00,238.743
1775236200000,67018.00,67040.00,66920.20,66920.30,279.124
1775236500000,66920.30,66936.80,66714.10,66773.80,1143.261
1775236800000,66773.80,66874.20,66771.70,66851.00,294.710
1775237100000,66851.00,66851.00,66811.90,66844.60,84.583
1775237400000,66844.60,66923.60,66842.00,66842.00,399.493
1775237700000,66841.90,66865.00,66822.70,66856.50,98.672
1775238000000,66856.60,66860.00,66834.60,66860.00,102.825
1775238300000,66860.00,66869.90,66781.30,66792.70,187.372
1775238600000,66792.70,66827.40,66773.10,66821.60,118.861
1775238900000,66821.70,66850.00,66806.30,66811.00,87.039
