timestamp,open,high,low,close,volume
1770802200000,66947.60,66973.00,66764.50,66820.00,792.718
1770803100000,66820.00,66848.60,66682.10,66848.60,1235.237
1770804000000,66848.60,66848.60,66611.90,66716.50,1762.153
1770804900000,66716.50,66864.80,66640.20,66838.90,890.820
1770805800000,66839.00,66858.60,66519.40,66697.20,1820.255
1770806700000,66697.20,66744.80,66342.60,66506.00,4376.821
1770807600000,66506.10,66695.00,66477.90,66636.50,1433.555
1770808500000,66636.40,67087.40,66603.10,66961.60,2993.305
1770809400000,66961.60,67030.40,66854.60,66894.90,1611.245
1770810300000,66895.00,67064.70,66895.00,67023.00,1033.540
1770811200000,67022.90,67283.10,66922.50,67058.00,3304.881
1770812100000,67058.00,67400.00,67048.90,67188.10,3065.033
1770813000000,67188.10,67269.30,66987.00,67054.90,1619.844
1770813900000,67055.00,67141.30,66976.60,67099.20,1027.462
1770814800000,67099.20,67177.70,66793.10,66895.20,1931.966
1770815700000,66895.20,67000.70,66757.90,66986.10,1863.916
1770816600000,66985.80,67638.40,66836.50,67189.60,8964.199
1770817500000,67189.60,67533.10,66871.40,67424.20,4019.103
1770818400000,67424.10,68821.10,67408.00,68421.10,13799.147
1770819300000,68421.00,68554.90,67900.00,67974.30,6675.124
1770820200000,67974.30,68219.70,66900.20,67199.50,10764.762
1770821100000,67199.40,67401.30,66400.00,66559.90,8315.772
1770822000000,66559.80,66770.70,65718.50,66087.90,11609.524
1770822900000,66088.00,66534.60,65866.60,66162.70,7872.202
1770823800000,66162.80,66785.70,66081.70,66730.00,4841.329
1770824700000,66730.00,66788.70,66029.20,66489.30,4914.566
1770825600000,66489.40,67250.00,66383.00,67118.90,4768.583
1770826500000,67118.90,67161.60,66541.60,66579.10,3696.693
1770827400000,66579.00,66705.60,66088.00,66102.50,4727.429
1770828300000,66102.50,66289.90,65910.00,66008.00,3695.314
1770829200000,66008.00,66333.40,65834.50,66240.40,2884.741
1770830100000,66240.50,66718.70,66240.50,66625.90,2807.134
1770831000000,66625.90,66895.00,66504.00,66582.80,3283.728
1770831900000,66582.90,66750.10,66414.20,66489.10,2169.512
1770832800000,66489.10,66531.50,66114.50,66437.70,2121.660
1770833700000,66437.60,67063.80,66417.60,66891.20,2604.471
1770834600000,66891.10,67178.50,66770.00,66999.20,1960.696
1770835500000,66999.30,67274.60,66969.50,67239.20,2091.641
1770836400000,67239.20,67664.70,67069.40,67596.40,4002.022
1770837300000,67596.40,67732.90,67371.60,67392.10,2541.960
1770838200000,67392.10,67831.40,67254.80,67755.20,2052.899
1770839100000,67755.30,67798.90,67479.20,67547.70,2094.028
1770840000000,67547.60,67698.70,67381.60,67612.70,1086.500
1770840900000,67612.70,67720.00,67160.20,67178.00,1695.361
1770841800000,67177.90,67413.00,67138.40,67271.10,1294.171
1770842700000,67271.20,67620.10,67255.40,67523.20,1272.932
1770843600000,67523.30,67733.00,67371.50,67652.70,1185.983
1770844500000,67652.70,68194.90,67541.40,68153.50,3551.275
1770845400000,68153.50,68315.00,67893.50,67957.50,4450.324
1770846300000,67957.50,67993.80,67761.80,67780.60,1135.532
1770847200000,67780.60,67844.10,67553.90,67637.50,1272.322
1770848100000,67637.50,67755.30,67352.60,67535.20,1076.397
1770849000000,67535.20,67660.80,67353.80,67605.70,1052.642
1770849900000,67605.60,67689.50,67368.60,67392.00,625.258
1770850800000,67392.10,67528.70,67201.20,67293.10,1432.737
1770851700000,67293.00,67369.00,66808.70,66984.50,3270.481
1770852600000,66984.50,67105.70,66757.40,67057.20,1536.828
1770853500000,67057.10,67076.60,66850.00,67054.40,1093.021
1770854400000,67054.80,67348.40,67016.60,67331.30,1891.706
1770855300000,67331.40,67485.80,67278.10,67355.00,1784.150
1770856200000,67355.10,67685.00,67355.10,67554.40,1406.787
1770857100000,67554.50,67650.00,67428.20,67431.60,1038.847
1770858000000,67431.70,67676.90,67430.50,67671.90,1107.453
1770858900000,67671.90,67849.00,67521.70,67778.40,1608.013
1770859800000,67778.50,68021.00,67726.70,67819.80,1887.914
1770860700000,67819.90,67845.20,67576.60,67668.40,1500.475
1770861600000,67668.30,67769.10,67455.00,67466.40,1397.960
1770862500000,67466.50,67548.00,67370.70,67500.20,956.052
1770863400000,67500.20,67735.80,67447.00,67711.40,994.620
1770864300000,67711.40,67722.50,67390.00,67408.30,832.136
1770865200000,67408.30,67531.80,67325.60,67464.00,760.917
1770866100000,67464.10,67493.80,67267.10,67356.20,954.316
1770867000000,67356.20,67514.30,67300.30,67469.30,563.272
1770867900000,67469.50,67564.10,67410.10,67550.20,445.456
1770868800000,67550.30,67659.60,67461.30,67551.30,996.089
1770869700000,67551.40,67565.30,67159.20,67183.50,2342.567
1770870600000,67183.40,67271.00,67023.70,67207.60,1652.104
1770871500000,67207.60,67251.10,66962.80,66989.90,1033.950
1770872400000,66989.80,67178.20,66729.10,66777.90,2087.073
1770873300000,66778.00,66959.90,66640.00,66850.00,1818.574
1770874200000,66849.90,67100.00,66822.50,67056.20,1187.065
1770875100000,67056.10,67134.40,66969.20,67110.10,568.668
1770876000000,67110.10,67219.50,66976.80,67078.90,701.124
1770876900000,67078.90,67329.00,67053.80,67260.20,1126.664
1770877800000,67260.30,67324.90,67112.20,67197.70,744.946
1770878700000,67197.70,67275.50,67050.00,67096.10,572.926
1770879600000,67096.10,67124.50,66902.60,66962.60,991.806
1770880500000,66962.70,67296.80,66923.10,67195.20,991.105
1770881400000,67195.20,67224.30,67095.10,67095.10,596.861
1770882300000,67095.10,67203.40,67054.30,67181.50,557.694
1770883200000,67181.50,67313.90,67051.40,67216.60,927.515
1770884100000,67216.50,67216.50,66860.00,66896.30,1078.004
1770885000000,66896.30,67038.00,66878.30,66940.30,976.966
1770885900000,66940.30,67128.40,66940.20,67107.30,553.024
1770886800000,67107.40,67208.60,67012.50,67158.70,895.631
1770887700000,67158.70,67293.40,67132.00,67263.00,825.644
1770888600000,67263.00,67443.80,67207.60,67392.80,1529.258
1770889500000,67392.80,67699.90,67312.50,67517.70,2061.806
1770890400000,67517.70,67598.30,67450.00,67541.90,1142.271
1770891300000,67541.90,67582.30,67372.10,67580.90,852.265
1770892200000,67580.90,67821.80,67576.10,67636.00,1844.889
1770893100000,67636.00,67998.80,67622.60,67979.50,1832.475
1770894000000,67979.40,68091.00,67650.10,67874.20,3946.393
1770894900000,67874.20,68230.00,67799.40,68170.20,2190.921
1770895800000,68170.30,68265.50,67993.90,68057.00,1883.612
1770896700000,68057.00,68141.60,67971.70,68031.80,1169.153
1770897600000,68031.80,68125.80,67850.00,67988.70,2571.529
1770898500000,67988.70,68005.00,67822.70,67948.50,1183.254
1770899400000,67948.60,67966.10,67812.80,67840.00,915.536
1770900300000,67840.00,67913.20,67684.80,67832.40,1570.893
1770901200000,67832.40,67853.90,67646.10,67811.50,1296.380
1770902100000,67811.50,68043.50,67643.30,67733.30,2269.322
1770903000000,67733.30,68141.50,67691.50,68081.70,1955.800
1770903900000,68081.60,68375.90,67936.70,68339.90,3058.421
1770904800000,68340.00,68385.00,67820.00,67971.60,2656.471
1770905700000,67971.60,68047.00,67830.90,67958.50,1188.994
1770906600000,67958.50,68250.00,67558.30,67587.00,4800.449
1770907500000,67587.10,67972.40,67448.40,67547.50,4118.353
1770908400000,67547.80,67782.10,66958.00,67382.00,6761.592
1770909300000,67382.00,67927.50,67319.60,67821.50,3738.267
1770910200000,67821.60,67970.90,67210.20,67374.40,4089.801
1770911100000,67374.50,67513.30,67033.00,67107.00,2947.496
1770912000000,67107.00,67221.90,66460.50,66522.80,8469.442
1770912900000,66522.80,66766.00,65956.90,66034.50,7284.312
1770913800000,66034.40,66512.90,65888.00,66237.90,8364.341
1770914700000,66238.00,66338.00,65503.20,65825.70,8349.783
1770915600000,65825.70,65975.00,65518.50,65712.80,4786.321
1770916500000,65712.80,66238.80,65583.00,66100.00,4607.084
1770917400000,66100.00,66177.10,65801.00,65951.30,2529.144
1770918300000,65951.30,66023.10,65320.40,65383.90,4918.811
1770919200000,65383.80,65763.00,65344.20,65664.80,3193.145
1770920100000,65664.90,65693.30,65192.10,65277.30,4271.496
1770921000000,65277.20,65508.20,65081.00,65404.90,3115.214
1770921900000,65404.80,65671.00,65377.10,65559.40,2117.324
1770922800000,65559.40,65720.00,65234.00,65416.90,2282.744
1770923700000,65416.80,65941.20,65380.00,65742.60,2637.719
1770924600000,65742.50,66076.10,65728.00,65948.50,2262.955
1770925500000,65948.50,66090.80,65743.30,65760.70,1781.857
1770926400000,65760.70,66008.70,65566.80,65677.70,1662.518
1770927300000,65677.60,65787.70,65450.70,65475.60,1652.918
1770928200000,65475.70,65658.90,65364.90,65523.30,1807.957
1770929100000,65523.30,65563.70,65177.80,65401.00,2058.553
1770930000000,65401.00,65650.00,65400.10,65643.80,1120.106
1770930900000,65643.80,65770.00,65443.00,65575.70,1137.820
1770931800000,65575.70,65820.30,65549.30,65788.50,871.765
1770932700000,65788.40,65873.30,65706.40,65821.80,864.334
1770933600000,65821.70,65863.80,65715.00,65789.90,892.831
1770934500000,65789.90,65927.30,65610.00,65927.20,828.474
1770935400000,65927.30,66177.30,65850.00,66168.00,2014.151
1770936300000,66168.00,66382.00,66160.00,66262.40,2411.108
1770937200000,66262.40,66447.80,66170.30,66286.30,2322.949
1770938100000,66286.30,66460.80,66228.10,66370.80,1371.346
1770939000000,66370.80,66456.10,66172.00,66213.00,1002.891
1770939900000,66213.10,66280.20,66131.10,66243.10,1070.171
1770940800000,66243.20,66498.40,66138.00,66343.60,1481.649
1770941700000,66343.80,66347.80,65976.70,66000.10,1778.226
1770942600000,66000.00,66111.50,65870.70,65924.60,1633.878
1770943500000,65924.60,66038.10,65833.90,65881.40,948.251
1770944400000,65881.50,66250.10,65881.50,66219.90,1133.267
1770945300000,66219.90,66265.00,66052.80,66190.50,957.336
1770946200000,66190.50,66475.10,66190.50,66383.80,1129.031
1770947100000,66383.80,66595.20,66299.50,66423.40,1564.794
1770948000000,66423.40,66545.30,66350.10,66532.50,810.648
1770948900000,66532.40,66625.00,66345.10,66494.50,873.347
1770949800000,66494.60,66606.50,66427.40,66555.00,691.713
1770950700000,66555.00,66732.80,66510.80,66627.90,1179.321
1770951600000,66628.00,66741.60,66464.00,66481.50,1270.894
1770952500000,66481.60,66646.90,66453.00,66646.90,559.434
1770953400000,66646.80,66778.50,66579.10,66604.50,876.991
1770954300000,66604.60,66641.50,66423.10,66519.60,1161.685
1770955200000,66519.60,66566.00,66400.10,66504.90,697.769
1770956100000,66504.90,66650.20,66414.50,66418.70,790.562
1770957000000,66418.70,66450.00,66304.50,66334.60,860.455
1770957900000,66334.60,66414.20,66273.40,66299.90,795.151
1770958800000,66300.00,66424.50,66189.40,66211.20,1055.932
1770959700000,66211.10,66375.80,66194.40,66292.20,692.679
1770960600000,66292.10,66444.00,66276.10,66438.00,577.431
1770961500000,66438.10,66477.10,66151.50,66151.50,991.180
1770962400000,66151.50,66279.90,66135.20,66202.80,674.212
1770963300000,66202.80,66271.10,66003.20,66095.60,1182.324
1770964200000,66095.60,66095.90,65964.20,66061.60,1122.102
1770965100000,66061.70,66367.50,66018.80,66333.70,987.637
1770966000000,66333.70,66543.20,66304.50,66499.70,1575.643
1770966900000,66499.70,66545.70,66384.30,66489.00,813.834
1770967800000,66489.00,66489.10,66094.00,66094.00,1365.289
1770968700000,66094.00,66303.70,66012.20,66183.30,1598.638
1770969600000,66183.30,66476.00,66159.90,66230.90,1147.842
1770970500000,66230.80,66413.00,66180.00,66382.90,967.862
1770971400000,66382.90,66511.00,66341.40,66477.90,1022.079
1770972300000,66478.00,66723.00,66477.90,66673.00,1962.307
1770973200000,66673.00,66834.70,66574.90,66653.40,1746.668
1770974100000,66653.40,66809.80,66598.50,66789.90,1237.553
1770975000000,66789.90,66910.60,66737.20,66820.80,1706.620
1770975900000,66820.80,67046.20,66820.80,66924.30,2247.182
1770976800000,66924.40,66936.00,66789.00,66873.30,1743.438
1770977700000,66873.40,67078.40,66766.10,66882.10,1433.743
1770978600000,66882.00,67095.10,66808.80,66993.20,1248.118
1770979500000,66993.20,67058.40,66933.90,66939.40,1075.293
1770980400000,66939.50,66999.90,66807.10,66850.00,956.444
1770981300000,66849.90,66980.20,66827.50,66944.50,990.403
1770982200000,66944.60,66994.20,66750.00,66961.90,1212.312
1770983100000,66961.90,67196.80,66930.30,67137.80,2162.574
1770984000000,67137.80,67143.20,66912.00,66951.70,1278.866
1770984900000,66951.70,67090.90,66887.00,67058.90,845.736
1770985800000,67058.90,67102.80,67001.30,67057.40,626.639
1770986700000,67057.30,67180.10,66965.50,67050.00,1055.856
1770987600000,67050.10,67156.80,66903.00,66939.60,1011.614
1770988500000,66939.60,67400.00,66939.60,67304.40,3214.340
1770989400000,67304.30,67600.00,67163.10,67270.30,6560.607
1770990300000,67270.30,67388.00,67074.00,67238.20,2071.442
1770991200000,67238.10,67280.00,67094.40,67127.90,1285.759
1770992100000,67127.80,67368.80,67127.80,67284.80,1510.445
1770993000000,67284.90,67573.40,66823.60,67310.30,8205.590
1770993900000,67310.20,67999.90,67309.00,67709.50,9173.448
1770994800000,67709.60,68580.80,67653.00,68341.80,9247.053
1770995700000,68341.80,68888.00,68092.40,68864.10,7751.139
1770996600000,68864.10,69289.50,68673.10,68686.80,10745.445
1770997500000,68686.80,68763.70,68325.00,68652.00,6880.171
1770998400000,68652.10,69120.60,68500.00,69020.10,6673.049
1770999300000,69020.10,69141.00,68794.10,69043.40,3115.839
1771000200000,69043.40,69473.70,68946.00,69206.60,4849.399
1771001100000,69206.70,69232.00,68864.00,68920.80,3093.597
1771002000000,68920.90,69024.00,68593.80,68944.40,3491.018
1771002900000,68944.40,69112.40,68822.10,68938.10,1781.454
1771003800000,68938.10,69192.00,68924.20,69085.10,1578.767
1771004700000,69085.10,69215.70,68970.20,69003.90,1400.032
1771005600000,69004.00,69179.50,68853.90,68981.50,2362.534
1771006500000,68981.40,69125.10,68889.20,69037.80,1258.702
1771007400000,69037.80,69257.60,68972.00,69225.70,1611.144
1771008300000,69225.70,69378.80,69017.10,69086.70,2152.289
1771009200000,69086.80,69160.00,68926.50,69123.80,1268.780
1771010100000,69123.90,69197.00,68968.20,68970.00,1107.900
1771011000000,68970.00,69093.60,68878.30,68894.60,1560.333
1771011900000,68894.60,69056.40,68865.20,68904.20,859.422
1771012800000,68904.30,68936.10,68767.10,68774.30,1114.353
1771013700000,68774.20,68883.20,68670.70,68796.90,1381.586
1771014600000,68796.90,68925.70,68694.20,68811.90,1244.006
1771015500000,68811.90,68830.00,68639.70,68750.10,2214.561
1771016400000,68750.10,69006.80,68700.10,68963.20,1645.835
1771017300000,68963.10,69055.90,68842.90,68871.00,1240.144
1771018200000,68871.00,68909.60,68773.70,68909.60,773.726
1771019100000,68909.70,68916.80,68766.60,68869.20,815.610
1771020000000,68869.20,68962.30,68674.60,68707.00,1910.345
1771020900000,68706.90,68855.80,68706.90,68845.30,560.223
1771021800000,68845.30,68877.70,68760.40,68853.50,429.317
1771022700000,68853.50,68975.90,68784.40,68968.90,634.758
1771023600000,68968.90,68985.40,68808.10,68891.40,798.607
1771024500000,68891.40,68966.10,68844.50,68875.80,633.899
1771025400000,68875.90,68950.00,68799.90,68822.90,586.225
1771026300000,68822.80,68918.50,68784.10,68821.50,739.944
1771027200000,68821.50,68862.60,68755.00,68853.40,616.896
1771028100000,68853.40,68884.40,68736.20,68876.20,756.178
1771029000000,68876.10,69008.70,68856.20,68996.30,670.130
1771029900000,68996.20,69118.10,68946.10,69062.20,1357.885
1771030800000,69062.20,69077.30,68942.00,69061.10,965.673
1771031700000,69061.10,69082.80,68947.70,69023.00,854.438
1771032600000,69023.00,69041.00,68932.80,68950.90,656.914
1771033500000,68951.00,68999.50,68888.10,68932.00,313.589
1771034400000,68932.00,68981.10,68884.90,68957.80,448.675
1771035300000,68957.70,68966.20,68830.00,68878.20,490.445
1771036200000,68878.20,68931.00,68840.00,68930.90,579.355
1771037100000,68930.90,68930.90,68817.20,68849.20,631.539
1771038000000,68849.30,68887.40,68818.00,68877.80,369.957
1771038900000,68877.80,68925.00,68823.70,68905.50,356.117
1771039800000,68905.40,68972.40,68893.00,68918.30,304.314
1771040700000,68918.30,68994.10,68869.30,68947.70,270.592
1771041600000,68947.70,68967.30,68838.70,68863.20,375.333
1771042500000,68863.20,68900.00,68839.10,68880.70,235.556
1771043400000,68880.70,68893.70,68794.50,68827.70,414.137
1771044300000,68827.80,68827.80,68755.60,68763.60,499.580
1771045200000,68763.50,68854.90,68718.00,68830.30,524.309
1771046100000,68830.30,68878.30,68819.80,68839.00,266.247
1771047000000,68839.00,68843.80,68750.10,68794.60,421.067
1771047900000,68794.50,68821.30,68712.80,68738.10,509.568
1771048800000,68738.20,68770.00,68689.10,68750.00,522.425
1771049700000,68749.90,68860.60,68749.90,68860.60,531.538
1771050600000,68860.50,68877.30,68818.60,68839.80,359.310
1771051500000,68839.90,68897.60,68822.70,68895.30,255.651
1771052400000,68895.40,68908.80,68862.50,68862.50,357.167
1771053300000,68862.60,68930.00,68848.10,68924.80,430.655
1771054200000,68924.70,69165.00,68915.00,69152.40,1285.571
1771055100000,69152.30,69318.20,69100.30,69182.20,2139.271
1771056000000,69182.10,69780.00,69174.50,69524.80,4327.998
1771056900000,69524.80,69614.20,69422.70,69460.60,1181.239
1771057800000,69460.70,69699.00,69430.50,69625.50,1417.541
1771058700000,69625.60,69847.10,69625.50,69707.30,2087.987
1771059600000,69707.30,69868.60,69649.00,69674.40,1594.276
1771060500000,69674.30,69727.40,69532.30,69551.90,981.248
1771061400000,69552.00,69729.30,69551.60,69685.10,633.924
1771062300000,69685.10,69716.80,69651.90,69675.60,434.675
1771063200000,69675.60,69675.60,69546.00,69606.50,621.045
1771064100000,69606.50,69628.60,69542.30,69583.30,436.258
1771065000000,69583.40,69640.00,69568.90,69568.90,370.935
1771065900000,69569.00,69650.20,69568.90,69633.80,386.503
1771066800000,69633.80,70176.30,69633.70,70057.70,3537.187
1771067700000,70057.60,70455.00,69940.10,70159.80,4930.681
1771068600000,70159.80,70284.80,70008.40,70273.10,1789.597
1771069500000,70273.10,70557.70,70180.60,70464.80,2697.678
1771070400000,70464.80,70499.40,70323.80,70452.30,1934.349
1771071300000,70452.20,70458.60,70266.30,70324.90,966.236
1771072200000,70324.90,70331.20,69956.10,70053.00,3547.782
1771073100000,70053.00,70082.10,69525.60,69602.20,6672.255
1771074000000,69602.20,69692.50,69372.30,69671.00,4022.341
1771074900000,69671.10,69734.00,69163.70,69234.00,4312.710
1771075800000,69234.10,69540.00,69230.80,69416.90,1872.190
1771076700000,69416.90,69548.00,69270.10,69430.10,2016.073
1771077600000,69430.00,69471.60,69295.00,69429.90,1199.515
1771078500000,69430.00,69618.00,69362.00,69422.10,1585.089
1771079400000,69422.10,69647.30,69422.10,69646.50,1166.048
1771080300000,69646.50,69825.00,69549.40,69667.30,2056.037
1771081200000,69667.30,69766.20,69580.50,69580.50,991.194
1771082100000,69580.50,70010.60,69528.30,69830.50,2368.371
1771083000000,69830.50,69927.90,69732.70,69834.90,773.080
1771083900000,69835.00,69869.00,69680.30,69754.20,887.097
1771084800000,69754.20,69787.30,69612.00,69655.10,1068.324
1771085700000,69655.00,69655.10,69295.80,69394.30,2670.975
1771086600000,69394.20,69643.10,69259.10,69618.80,1997.760
1771087500000,69618.70,69765.20,69517.70,69731.30,1821.383
1771088400000,69731.20,69842.30,69581.90,69835.90,1341.468
1771089300000,69835.80,69903.30,69733.30,69794.60,1064.518
1771090200000,69794.60,69854.40,69632.00,69754.10,974.941
1771091100000,69754.10,69787.20,69651.90,69710.90,528.119
1771092000000,69710.90,69832.00,69641.60,69732.80,928.215
1771092900000,69732.80,69810.00,69693.00,69707.30,426.389
1771093800000,69707.40,69778.00,69650.00,69703.50,618.311
1771094700000,69703.60,69769.20,69671.00,69741.00,215.294
1771095600000,69741.10,69830.80,69685.80,69724.80,410.606
1771096500000,69724.80,69859.80,69573.80,69809.20,815.823
1771097400000,69809.10,69884.80,69771.70,69859.70,439.926
1771098300000,69859.70,69897.10,69790.00,69849.00,631.392
1771099200000,69848.90,69969.80,69768.80,69795.40,1071.262
1771100100000,69795.50,69881.70,69682.00,69799.20,1081.411
1771101000000,69799.10,69950.20,69780.00,69917.00,390.545
1771101900000,69917.00,69999.00,69909.10,69987.40,860.507
1771102800000,69987.50,70230.60,69987.40,70175.00,1553.263
1771103700000,70174.90,70223.30,69944.10,69962.10,1418.216
1771104600000,69962.10,69987.50,69600.00,69821.00,2581.365
1771105500000,69821.00,69898.50,69760.90,69896.40,455.625
1771106400000,69896.40,70000.00,69809.30,69966.00,709.445
1771107300000,69966.00,69966.10,69737.00,69900.90,1053.495
1771108200000,69901.00,69992.70,69883.90,69948.00,609.855
1771109100000,69947.90,70065.00,69906.10,69927.30,527.090
1771110000000,69927.30,69974.00,69866.10,69942.40,565.405
1771110900000,69942.90,69984.60,69678.10,69794.00,1705.452
1771111800000,69794.10,69822.10,69739.60,69778.00,567.536
1771112700000,69777.90,69833.30,69736.00,69795.40,861.109
1771113600000,69795.40,69827.30,69629.20,69648.50,770.678
1771114500000,69648.50,69734.60,69598.20,69667.10,1164.560
1771115400000,69667.10,69732.80,69593.10,69594.10,686.254
1771116300000,69594.00,69772.60,69562.00,69743.40,617.387
1771117200000,69743.40,69872.10,69718.60,69872.10,473.555
1771118100000,69872.00,69872.00,69431.80,69492.90,1509.368
1771119000000,69492.90,69640.00,69316.00,69376.20,1830.811
1771119900000,69376.20,69694.10,69352.40,69684.90,823.759
1771120800000,69684.90,69726.90,69435.40,69511.60,908.929
1771121700000,69511.60,69591.00,69372.10,69438.10,642.137
1771122600000,69438.00,69535.00,69325.90,69478.50,870.102
1771123500000,69478.40,69546.00,69403.90,69450.60,374.097
1771124400000,69450.60,69562.00,69430.50,69430.60,352.726
1771125300000,69430.60,69553.80,69412.00,69412.00,349.996
1771126200000,69412.10,69503.50,69212.20,69327.50,2045.746
1771127100000,69327.90,69967.40,69327.90,69926.00,5151.792
1771128000000,69925.90,70441.60,69925.90,70406.10,6719.197
1771128900000,70406.20,70499.80,70139.60,70170.90,2277.578
1771129800000,70170.90,70351.60,70161.70,70206.80,1060.316
1771130700000,70206.90,70322.10,70077.00,70157.00,1034.021
1771131600000,70156.90,70266.90,70101.50,70170.00,695.339
1771132500000,70170.10,70467.80,70136.60,70300.00,1597.035
1771133400000,70300.10,70391.40,70243.50,70330.30,691.940
1771134300000,70330.40,70418.40,70229.30,70235.90,579.389
1771135200000,70235.90,70260.00,70150.00,70201.50,692.637
1771136100000,70201.50,70514.80,70173.10,70348.20,1305.602
1771137000000,70348.30,70506.80,70329.00,70329.00,811.241
1771137900000,70329.00,70395.50,70253.90,70370.20,660.374
1771138800000,70370.20,70399.90,70275.50,70384.80,449.358
1771139700000,70384.80,70865.10,70358.20,70642.50,3262.463
1771140600000,70642.40,70907.70,70550.00,70700.80,2868.033
1771141500000,70700.70,70790.10,70640.60,70784.00,1542.849
1771142400000,70784.00,70938.50,70687.30,70699.90,1877.054
1771143300000,70699.90,70790.20,70521.30,70530.90,1681.986
1771144200000,70531.00,70572.30,70114.80,70288.00,4541.128
1771145100000,70288.10,70421.40,70255.20,70405.10,1085.968
1771146000000,70405.10,70628.00,70336.70,70542.00,1195.754
1771146900000,70542.10,70596.30,70470.00,70592.00,552.575
1771147800000,70591.90,70592.00,70409.00,70464.60,584.961
1771148700000,70464.60,70480.00,70330.70,70382.50,698.468
1771149600000,70382.50,70424.60,70166.90,70262.10,1007.590
1771150500000,70262.00,70419.90,70185.80,70400.90,859.481
1771151400000,70400.80,70426.00,70253.70,70425.10,572.510
1771152300000,70425.10,70487.80,70382.60,70389.50,679.659
1771153200000,70389.60,70514.60,70379.90,70379.90,557.478
1771154100000,70380.00,70445.90,70320.00,70353.70,664.070
1771155000000,70353.60,70356.90,70262.00,70335.40,923.826
1771155900000,70335.30,70366.40,70237.10,70268.70,834.295
1771156800000,70268.60,70299.50,70130.00,70195.60,1207.166
1771157700000,70195.50,70371.90,69946.00,70332.70,3221.322
1771158600000,70332.60,70391.00,70108.60,70226.40,840.221
1771159500000,70226.40,70226.50,69266.10,69284.90,7915.721
1771160400000,69285.00,69528.00,69255.00,69472.60,4191.075
1771161300000,69472.50,69593.20,68980.00,69020.00,5024.326
1771162200000,69020.10,69146.70,68840.00,68899.00,4864.225
1771163100000,68899.00,69041.50,68741.40,68907.20,3073.074
1771164000000,68907.20,69082.80,68811.50,68926.00,2517.921
1771164900000,68926.00,69064.00,68914.20,69059.50,1391.932
1771165800000,69059.50,69180.00,68936.00,69129.90,1957.379
1771166700000,69129.80,69161.70,69002.10,69140.00,992.591
1771167600000,69139.90,69230.00,69066.00,69174.10,1664.835
1771168500000,69174.00,69174.00,68845.00,68858.80,1397.368
1771169400000,68858.70,69048.90,68848.10,69047.20,861.696
1771170300000,69047.10,69068.10,68925.40,69068.10,666.197
1771171200000,69068.10,69068.10,68753.00,68960.00,1802.601
1771172100000,68959.90,69047.50,68841.00,69044.10,1287.271
1771173000000,69044.10,69074.00,68888.00,68996.40,671.638
1771173900000,68996.40,69052.60,68970.10,68977.60,518.643
1771174800000,68977.60,69050.40,68918.10,69031.80,825.033
1771175700000,69031.80,69033.00,68880.00,68961.50,653.432
1771176600000,68961.40,69026.30,68782.30,68799.50,1030.438
1771177500000,68799.50,68799.50,68152.00,68607.80,7712.223
1771178400000,68607.80,68721.40,68404.90,68656.90,1736.506
1771179300000,68656.90,68770.90,68524.70,68526.50,858.490
1771180200000,68526.50,68689.90,68353.90,68671.30,2613.204
1771181100000,68671.40,68683.00,68313.60,68420.00,1939.819
1771182000000,68420.00,68500.10,68029.60,68156.20,4276.764
1771182900000,68156.20,68542.60,68080.10,68524.40,2796.764
1771183800000,68524.50,68529.70,68182.70,68216.90,1052.589
1771184700000,68216.90,68417.00,68213.30,68263.60,808.804
1771185600000,68263.70,68419.00,68100.20,68393.30,1100.883
1771186500000,68393.30,68462.30,68275.90,68457.00,618.071
1771187400000,68457.00,68535.40,68397.40,68476.90,746.352
1771188300000,68476.90,68477.70,68371.00,68420.10,274.737
1771189200000,68420.10,68748.30,68420.10,68706.00,1444.439
1771190100000,68706.00,68800.00,68626.80,68764.70,913.898
1771191000000,68764.70,68934.00,68686.50,68703.00,1460.482
1771191900000,68703.00,68909.90,68675.50,68809.00,754.028
1771192800000,68809.00,68926.60,68764.10,68767.40,700.456
1771193700000,68767.40,69042.40,68756.30,68974.10,863.240
1771194600000,68974.10,69049.20,68928.00,69006.00,707.566
1771195500000,69006.00,69042.00,68873.00,68962.20,716.427
1771196400000,68962.20,68962.20,68291.10,68455.70,2737.962
1771197300000,68455.70,68642.60,68360.50,68612.80,819.156
1771198200000,68612.80,68770.30,68510.10,68648.90,1200.490
1771199100000,68648.90,68803.00,68629.80,68796.90,684.603
1771200000000,68796.90,68979.20,68688.90,68901.00,1357.666
1771200900000,68901.10,69033.60,68732.20,68812.90,947.151
1771201800000,68813.00,68933.90,68716.60,68716.70,509.375
1771202700000,68716.70,68916.40,68656.90,68810.40,675.515
1771203600000,68810.40,69010.00,68741.10,68824.50,753.625
1771204500000,68824.40,68887.80,68608.90,68690.70,781.151
1771205400000,68690.70,68734.00,68409.30,68556.30,1306.677
1771206300000,68556.30,68642.90,68540.20,68590.80,390.006
1771207200000,68590.80,68697.90,68431.90,68535.90,548.431
1771208100000,68535.80,68546.80,68301.00,68322.70,1127.980
1771209000000,68322.80,68493.80,68305.00,68423.10,764.382
1771209900000,68423.20,68491.90,68210.80,68295.10,993.045
1771210800000,68295.20,68420.00,68276.70,68350.20,653.668
1771211700000,68350.30,68385.10,68138.10,68152.70,974.584
1771212600000,68152.80,68330.00,68112.20,68323.70,1005.615
1771213500000,68323.70,68439.90,68290.20,68392.60,648.568
1771214400000,68392.60,68633.00,68385.00,68601.50,1177.778
1771215300000,68601.50,68768.00,68581.50,68742.00,1016.613
1771216200000,68742.00,68781.60,68650.30,68660.00,666.844
1771217100000,68660.00,68869.80,68656.10,68832.40,699.667
1771218000000,68832.40,68860.70,68427.70,68439.60,988.725
1771218900000,68439.70,68489.60,68345.70,68428.00,605.921
1771219800000,68428.00,68463.10,68255.00,68309.80,981.203
1771220700000,68309.70,68402.00,68298.10,68350.10,460.317
1771221600000,68350.10,68412.60,68315.70,68328.70,375.085
1771222500000,68328.80,68360.10,68183.30,68315.90,763.628
1771223400000,68315.80,68496.90,68298.20,68435.50,662.023
1771224300000,68435.40,68444.10,68357.80,68414.80,535.440
1771225200000,68414.80,68586.60,68330.40,68571.30,1175.812
1771226100000,68571.40,68637.10,68501.70,68538.50,839.053
1771227000000,68538.60,68612.50,68394.20,68461.30,739.214
1771227900000,68461.40,68588.10,68461.40,68552.40,636.166
1771228800000,68552.50,68631.10,68504.80,68512.10,726.145
1771229700000,68512.00,68710.60,68503.20,68698.70,681.190
1771230600000,68698.80,68735.50,68592.70,68732.90,691.145
1771231500000,68732.90,68769.50,68642.30,68724.50,659.310
1771232400000,68724.50,68935.00,68707.00,68856.90,1784.708
1771233300000,68856.90,68952.40,68762.80,68930.10,674.705
1771234200000,68930.10,69029.90,68835.40,68989.60,1322.060
1771235100000,68989.60,69013.20,68900.00,68961.10,607.197
1771236000000,68961.00,68961.00,68843.10,68913.30,515.848
1771236900000,68913.40,68913.70,68656.90,68763.10,879.947
1771237800000,68763.10,68907.80,68707.10,68749.90,583.943
1771238700000,68750.00,68810.80,68728.80,68762.00,429.194
1771239600000,68762.00,68817.20,68433.00,68481.40,1826.381
1771240500000,68481.40,68663.50,68300.00,68631.70,2348.669
1771241400000,68631.70,68697.00,68529.00,68546.90,729.739
1771242300000,68546.80,68899.30,68544.10,68769.40,1385.602
1771243200000,68769.40,68952.00,68769.40,68868.80,1293.982
1771244100000,68868.90,69586.90,68769.00,69467.40,5088.738
1771245000000,69467.40,69527.10,69244.10,69405.40,3675.878
1771245900000,69405.50,69826.00,69339.90,69739.30,4952.865
1771246800000,69739.30,70110.90,69585.90,69631.20,6102.029
1771247700000,69631.20,69730.00,68461.80,68574.10,8408.193
1771248600000,68574.10,68857.90,68225.00,68393.10,6559.115
1771249500000,68393.20,68453.80,68180.00,68355.60,4274.058
1771250400000,68355.50,68540.70,68208.60,68373.80,3065.915
1771251300000,68373.70,68607.80,68224.50,68274.30,2276.271
1771252200000,68274.30,68592.10,68251.60,68467.30,1659.370
1771253100000,68467.40,68684.40,68250.00,68386.70,1922.398
1771254000000,68386.60,68578.40,68283.60,68303.70,1821.015
1771254900000,68303.70,68376.40,68200.10,68204.10,1763.350
1771255800000,68204.10,68221.60,67250.00,67413.10,13725.469
1771256700000,67413.10,67680.00,67313.50,67505.50,2993.798
1771257600000,67505.50,67810.70,67475.00,67703.90,2932.938
1771258500000,67703.80,67776.00,67534.40,67742.60,1691.912
1771259400000,67742.70,67891.20,67573.00,67885.80,1322.081
1771260300000,67887.00,67950.00,67760.00,67854.00,1839.435
1771261200000,67854.10,67950.00,67666.60,67711.50,1500.714
1771262100000,67711.60,67940.30,67557.20,67892.50,1293.916
1771263000000,67892.50,68048.30,67859.80,67994.80,1271.906
1771263900000,67994.80,67994.80,67862.50,67917.20,926.831
1771264800000,67917.20,68135.00,67877.60,68097.10,1700.577
1771265700000,68097.00,68221.70,68033.10,68102.10,1809.945
1771266600000,68102.00,68108.20,67935.70,67968.70,729.170
1771267500000,67968.70,68011.00,67800.00,67833.00,1517.264
1771268400000,67833.00,67956.90,67833.00,67956.80,389.116
1771269300000,67956.80,68023.90,67785.40,67932.90,735.342
1771270200000,67933.00,68108.90,67933.00,68069.80,641.163
1771271100000,68069.70,68080.00,67860.60,67883.60,364.409
1771272000000,67883.50,67936.10,67788.60,67935.40,826.869
1771272900000,67935.40,68220.60,67893.60,68199.90,1078.463
1771273800000,68199.90,68272.00,68069.20,68209.00,1025.763
1771274700000,68209.00,68544.00,68171.70,68508.90,2504.498
1771275600000,68508.90,68578.60,68400.00,68548.90,1385.273
1771276500000,68548.90,68614.80,68426.10,68502.00,920.916
1771277400000,68501.90,68556.60,68426.10,68521.70,962.718
1771278300000,68521.60,68928.60,68431.80,68835.10,1713.883
1771279200000,68835.20,68870.70,68651.90,68733.80,1497.730
1771280100000,68733.90,68797.00,68550.20,68581.00,786.069
1771281000000,68580.90,68700.30,68482.60,68568.40,1006.753
1771281900000,68568.30,68650.40,68471.00,68561.10,548.312
1771282800000,68561.10,68732.10,68508.00,68710.00,692.156
1771283700000,68710.00,68810.40,68611.20,68615.70,664.872
1771284600000,68615.80,68708.70,68590.10,68654.00,842.571
1771285500000,68654.10,68962.10,68654.10,68862.50,1267.028
1771286400000,68862.60,68884.10,68727.80,68877.80,810.320
1771287300000,68877.80,68917.30,68667.10,68847.90,793.717
1771288200000,68847.90,68933.40,68803.50,68841.80,1066.196
1771289100000,68841.80,69033.00,68800.30,68849.90,1167.088
1771290000000,68849.90,68972.30,68750.80,68903.00,781.404
1771290900000,68902.90,68930.40,68805.00,68832.90,496.559
1771291800000,68833.00,68969.90,68789.20,68820.50,599.228
1771292700000,68820.60,68853.00,68537.00,68582.60,1440.843
1771293600000,68582.70,69228.60,68350.00,69094.30,3288.447
1771294500000,69094.30,69152.90,68952.60,69013.00,1156.592
1771295400000,69012.90,69047.10,68871.90,68920.60,831.296
1771296300000,68920.70,69017.70,68803.30,68806.30,723.062
1771297200000,68806.30,68832.70,68610.00,68697.40,1116.445
1771298100000,68697.40,68739.60,68547.90,68621.90,906.805
1771299000000,68621.90,68637.10,68457.30,68538.50,794.821
1771299900000,68538.50,68556.60,68435.70,68443.60,505.054
1771300800000,68443.60,68595.90,68356.70,68557.30,859.479
1771301700000,68557.40,68681.80,68451.50,68567.90,1067.386
1771302600000,68567.90,68568.00,68251.00,68400.40,1173.235
1771303500000,68400.30,68472.70,68355.80,68450.10,458.970
1771304400000,68450.00,68485.10,68303.80,68321.00,527.624
1771305300000,68321.10,68330.00,67892.80,68019.00,3827.129
1771306200000,68019.10,68160.70,67854.20,68127.80,1574.749
1771307100000,68127.80,68253.00,68078.70,68207.30,863.785
1771308000000,68207.20,68420.00,68191.90,68347.30,837.720
1771308900000,68347.30,68450.00,68260.00,68398.60,605.983
1771309800000,68398.60,68496.40,68351.20,68420.10,551.371
1771310700000,68420.00,68441.70,68366.00,68370.80,317.000
1771311600000,68370.70,68376.60,68229.90,68287.50,578.880
1771312500000,68287.60,68359.90,68168.00,68179.90,550.158
1771313400000,68179.90,68451.80,68133.10,68380.00,1155.085
1771314300000,68380.00,68441.50,68342.70,68353.40,486.940
1771315200000,68353.40,68445.80,68337.20,68358.80,577.106
1771316100000,68358.80,68358.90,68240.30,68265.60,528.025
1771317000000,68265.30,68319.50,68101.00,68191.20,857.970
1771317900000,68191.30,68236.60,68093.00,68140.00,577.093
1771318800000,68139.90,68277.00,68025.00,68074.50,726.060
1771319700000,68074.50,68136.10,67951.60,68002.40,1328.377
1771320600000,68002.40,68068.10,67960.40,68044.20,580.410
1771321500000,68044.10,68152.60,68016.30,68087.10,822.351
1771322400000,68087.00,68164.60,68040.00,68108.20,674.719
1771323300000,68108.10,68108.10,67760.90,67874.70,2031.111
1771324200000,67874.60,67912.20,67729.00,67757.20,1122.439
1771325100000,67757.30,67831.60,67655.00,67822.10,1425.457
1771326000000,67822.10,67894.60,67656.50,67860.20,1460.630
1771326900000,67860.20,67905.80,67701.90,67875.90,1106.883
1771327800000,67876.00,67890.00,67704.90,67709.90,509.412
1771328700000,67709.90,67870.00,67684.00,67824.40,871.428
1771329600000,67824.30,68150.90,67795.00,68045.60,2265.290
1771330500000,68045.50,68136.50,67991.90,68076.80,810.611
1771331400000,68076.80,68272.50,68056.20,68150.00,1476.875
1771332300000,68150.00,68156.90,67825.90,67893.20,1531.506
1771333200000,67893.30,68085.60,67700.30,68064.60,2420.981
1771334100000,68064.60,68350.00,67956.40,68091.00,1838.023
1771335000000,68091.00,68100.00,67924.90,67990.60,881.439
1771335900000,67990.50,68330.10,67958.60,68105.30,1945.031
1771336800000,68105.30,68319.50,68023.30,68070.50,1245.010
1771337700000,68070.40,68167.00,67959.50,67996.60,1060.437
1771338600000,67996.70,68225.00,66927.40,67067.00,10180.554
1771339500000,67067.10,67088.00,66676.10,66846.70,8732.987
1771340400000,66846.80,67191.50,66781.60,66781.60,5385.666
1771341300000,66781.70,67139.40,66707.70,66819.50,4001.675
1771342200000,66819.50,66979.30,66588.00,66979.00,3348.087
1771343100000,66979.10,67381.50,66963.10,67363.60,4058.736
1771344000000,67363.60,67943.30,67286.40,67710.10,6204.679
1771344900000,67710.00,67920.00,67478.00,67505.20,2800.405
1771345800000,67505.20,68127.90,67392.70,67675.70,4214.748
1771346700000,67675.60,67764.20,67469.70,67493.10,2207.152
1771347600000,67493.10,67697.20,67030.90,67231.70,3250.474
1771348500000,67231.70,67435.60,67165.00,67435.50,1744.911
1771349400000,67435.60,67480.40,66921.90,66973.50,2634.791
1771350300000,66973.40,67290.60,66824.50,67208.60,2767.992
1771351200000,67208.50,67365.70,67088.70,67316.30,1167.227
1771352100000,67316.20,67782.70,67203.80,67708.20,2492.338
1771353000000,67708.20,68122.20,67656.10,67943.70,2891.627
1771353900000,67943.70,68209.00,67820.80,68063.30,2622.087
1771354800000,68063.30,68172.60,67956.00,68140.40,1446.534
1771355700000,68140.50,68220.10,67830.00,67853.60,2164.002
1771356600000,67853.60,67978.90,67762.10,67964.20,1480.192
1771357500000,67964.20,68040.00,67703.50,67766.90,831.941
1771358400000,67766.90,67820.00,67511.90,67573.00,1475.138
1771359300000,67572.90,67762.00,67426.40,67707.80,967.535
1771360200000,67707.70,67896.10,67504.60,67821.20,979.568
1771361100000,67821.20,67855.00,67695.00,67719.30,684.518
1771362000000,67718.00,67862.40,67631.80,67851.70,954.850
1771362900000,67851.70,67897.60,67543.30,67557.50,586.589
1771363800000,67557.40,67581.80,67500.00,67567.10,304.058
1771364700000,67567.00,67651.10,67537.50,67642.40,357.908
1771365600000,67642.40,67660.40,67488.70,67564.10,411.676
1771366500000,67564.10,67673.00,67495.00,67673.00,431.486
1771367400000,67672.90,67755.00,67578.30,67594.80,314.247
1771368300000,67594.80,67615.10,67473.20,67498.20,354.039
1771369200000,67498.10,67538.60,67355.70,67438.90,720.789
1771370100000,67438.80,67592.80,67407.40,67408.30,458.104
1771371000000,67408.30,67517.40,67360.00,67496.60,704.750
1771371900000,67496.50,67554.60,67455.60,67475.90,263.017
1771372800000,67475.90,67595.50,67468.90,67590.20,433.069
1771373700000,67590.10,67595.50,67411.00,67466.00,454.525
1771374600000,67466.10,67579.60,67429.00,67429.00,313.713
1771375500000,67429.10,67429.10,67241.70,67263.90,1323.975
1771376400000,67267.00,67346.50,67021.00,67070.50,2076.861
1771377300000,67070.50,67205.70,67010.10,67020.80,836.744
1771378200000,67020.80,67165.50,66850.10,67136.90,2065.391
1771379100000,67136.90,67164.40,67028.00,67137.20,566.609
1771380000000,67137.20,67374.80,67115.20,67243.90,1143.388
1771380900000,67243.90,67297.30,67181.80,67185.70,567.682
1771381800000,67185.80,67398.20,67176.90,67334.70,589.674
1771382700000,67334.60,67343.80,67234.50,67297.90,433.719
1771383600000,67298.00,67436.10,67294.70,67382.20,569.575
1771384500000,67382.10,67526.70,67370.00,67505.90,573.010
1771385400000,67505.90,67620.20,67469.60,67593.10,945.428
1771386300000,67593.10,67683.40,67545.10,67590.20,966.094
1771387200000,67590.30,67687.50,67456.60,67529.50,1224.054
1771388100000,67529.60,67643.50,67521.70,67641.50,521.653
1771389000000,67641.60,67739.00,67597.20,67657.80,685.572
1771389900000,67657.80,67872.80,67624.20,67790.90,1065.036
1771390800000,67790.90,67865.90,67716.30,67840.40,764.018
1771391700000,67840.40,67909.90,67654.20,67697.80,1275.204
1771392600000,67697.90,67734.40,67586.80,67614.70,912.798
1771393500000,67614.70,67698.50,67572.00,67613.40,608.900
1771394400000,67613.30,67766.00,67577.00,67759.00,444.373
1771395300000,67759.00,67870.20,67706.10,67833.90,721.046
1771396200000,67834.00,67919.90,67787.70,67877.90,628.849
1771397100000,67877.80,67948.00,67780.00,67813.50,617.590
1771398000000,67813.60,67855.70,67715.90,67718.50,393.384
1771398900000,67718.50,67750.00,67655.90,67713.80,377.155
1771399800000,67713.70,68076.00,67707.20,68034.90,1517.017
1771400700000,68035.00,68190.20,67987.40,68078.40,1994.716
1771401600000,68078.50,68237.10,68060.00,68186.00,1730.654
1771402500000,68185.90,68438.00,68166.50,68254.70,2637.633
1771403400000,68254.70,68270.00,68095.20,68136.20,1495.924
1771404300000,68136.30,68190.00,68033.00,68099.90,1297.170
1771405200000,68099.90,68183.20,67966.00,68158.80,1237.163
1771406100000,68158.80,68222.80,68114.90,68121.90,1105.537
1771407000000,68121.90,68249.20,68100.00,68246.50,602.319
1771407900000,68246.50,68246.50,68117.60,68128.40,569.571
1771408800000,68128.40,68153.70,68051.20,68132.90,581.064
1771409700000,68132.90,68135.90,67938.30,68020.20,1099.867
1771410600000,68020.20,68020.20,67704.00,67759.60,1681.761
1771411500000,67759.60,67827.40,67726.00,67771.20,1218.674
1771412400000,67771.20,67781.40,67037.20,67355.30,7014.464
1771413300000,67355.20,67483.00,67200.00,67417.00,2302.695
1771414200000,67416.90,67571.10,67380.10,67520.70,1517.335
1771415100000,67520.80,67565.70,67319.90,67345.40,1211.250
1771416000000,67345.40,67658.00,67337.60,67557.40,1506.999
1771416900000,67557.30,67613.80,67457.40,67532.90,587.942
1771417800000,67532.90,67554.20,67312.00,67513.50,1434.247
1771418700000,67513.50,67571.80,67419.00,67429.80,571.814
1771419600000,67429.90,67555.00,67350.00,67503.60,965.493
1771420500000,67503.30,67566.40,67384.90,67442.70,828.804
1771421400000,67442.80,67455.30,67179.30,67258.60,1672.378
1771422300000,67258.60,67286.10,67007.00,67202.20,2499.236
1771423200000,67202.30,67329.90,67189.30,67250.90,1334.521
1771424100000,67250.80,67272.20,67035.30,67050.70,1513.668
1771425000000,67050.60,67300.00,66958.00,67123.40,3869.962
1771425900000,67123.40,67289.00,66666.20,67190.50,6213.198
1771426800000,67190.40,67525.90,67159.50,67340.10,4249.132
1771427700000,67340.10,67491.50,67281.50,67293.10,1630.531
1771428600000,67293.00,68336.00,67258.80,68090.60,10230.230
1771429500000,68090.60,68100.00,67581.50,67671.00,4034.674
1771430400000,67671.10,67684.60,66933.00,67037.70,7556.668
1771431300000,67037.70,67349.30,66961.00,67230.10,3188.238
1771432200000,67230.10,67309.90,67015.00,67195.90,1803.479
1771433100000,67195.90,67244.00,67001.60,67104.80,1446.752
1771434000000,67104.80,67455.70,67021.80,67052.80,2549.108
1771434900000,67052.40,67167.30,67026.20,67103.50,1117.975
1771435800000,67103.50,67210.90,67056.30,67073.80,874.141
1771436700000,67073.80,67200.00,67055.50,67156.30,1025.018
1771437600000,67156.60,67203.70,67056.40,67098.00,996.135
1771438500000,67098.00,67149.60,66600.80,66849.30,4814.628
1771439400000,66849.30,66918.20,66283.70,66310.10,4895.470
1771440300000,66310.20,66508.60,66129.60,66327.20,4400.745
1771441200000,66327.20,66588.00,66270.80,66338.60,2503.591
1771442100000,66338.60,66441.00,66069.30,66241.50,3313.911
1771443000000,66241.50,66280.40,65826.10,66118.70,5137.780
1771443900000,66118.70,66336.60,66017.50,66138.20,2730.413
1771444800000,66138.30,66318.80,66102.30,66217.20,1627.672
1771445700000,66217.20,66340.00,66122.10,66264.80,1020.400
1771446600000,66264.70,66528.80,66253.10,66388.50,1785.980
1771447500000,66388.50,66494.80,66098.90,66230.20,3193.535
1771448400000,66230.30,66305.00,65993.10,66170.30,2455.610
1771449300000,66170.20,66376.60,66159.40,66373.60,1012.823
1771450200000,66373.50,66466.80,66309.00,66390.70,1015.748
1771451100000,66390.70,66429.20,66232.00,66300.60,1084.241
1771452000000,66300.50,66364.80,66192.70,66224.10,622.613
1771452900000,66224.00,66341.20,66200.00,66284.90,470.539
1771453800000,66284.80,66438.90,66284.70,66358.90,393.392
1771454700000,66358.90,66451.50,66355.80,66379.00,373.532
1771455600000,66379.00,66415.80,66240.00,66349.90,576.279
1771456500000,66350.00,66374.30,66251.10,66287.10,400.643
1771457400000,66287.00,66450.00,66287.00,66435.90,780.065
1771458300000,66435.90,66472.60,66392.90,66422.80,749.535
1771459200000,66422.80,66573.60,66363.50,66380.90,906.203
1771460100000,66380.90,66506.70,66301.80,66371.00,591.068
1771461000000,66371.00,66519.30,66321.30,66490.10,402.348
1771461900000,66490.00,66524.90,66354.60,66410.70,515.348
1771462800000,66410.80,66746.10,66407.90,66668.10,1460.749
1771463700000,66668.00,66708.30,66500.00,66665.60,788.418
1771464600000,66665.70,66788.90,66586.50,66763.90,894.593
1771465500000,66764.00,66842.60,66714.40,66830.30,874.187
1771466400000,66830.40,66836.80,66716.70,66789.10,607.673
1771467300000,66789.20,66933.00,66767.40,66906.60,1068.829
1771468200000,66906.70,66910.30,66610.50,66633.50,1089.758
1771469100000,66633.50,66846.10,66633.50,66800.70,610.090
1771470000000,66800.80,66858.20,66690.10,66767.90,379.199
1771470900000,66768.00,66929.60,66767.90,66929.10,504.975
1771471800000,66929.10,66929.70,66811.80,66876.10,775.628
1771472700000,66876.10,66975.00,66822.50,66950.40,480.365
1771473600000,66950.40,67042.30,66910.30,66961.80,949.283
1771474500000,66961.80,66961.80,66826.00,66864.30,862.929
1771475400000,66864.40,66920.00,66774.20,66781.60,724.282
1771476300000,66781.60,66857.10,66721.70,66776.40,1003.510
1771477200000,66776.50,66818.90,66651.80,66746.30,661.877
1771478100000,66746.30,66867.70,66660.00,66712.10,623.246
1771479000000,66712.10,66790.00,66684.10,66743.70,440.209
1771479900000,66743.60,66854.70,66694.70,66847.60,399.455
1771480800000,66847.60,66981.70,66836.50,66969.00,778.028
1771481700000,66969.00,67189.60,66925.50,67146.80,1493.331
1771482600000,67146.70,67275.40,67056.00,67074.10,1296.579
1771483500000,67074.10,67181.10,67071.00,67123.80,557.695
1771484400000,67123.80,67178.30,67001.60,67111.80,838.314
1771485300000,67111.80,67237.60,67111.80,67183.30,749.283
1771486200000,67183.30,67299.40,67080.10,67158.80,903.317
1771487100000,67158.80,67193.50,67106.40,67180.40,706.493
1771488000000,67180.40,67180.40,67008.00,67037.40,1127.886
1771488900000,67037.30,67082.80,66845.20,66889.90,1543.440
1771489800000,66889.90,66931.50,66769.00,66908.30,1530.135
1771490700000,66908.30,66950.00,66806.60,66937.70,791.481
1771491600000,66937.70,67020.30,66844.80,66994.40,947.456
1771492500000,66994.20,67173.80,66960.30,67103.20,780.717
1771493400000,67103.20,67122.00,67013.10,67046.70,715.726
1771494300000,67046.70,67053.70,66724.60,66811.80,1851.825
1771495200000,66811.70,66896.70,66711.60,66839.00,933.005
1771496100000,66839.00,66905.90,66832.00,66836.30,496.196
1771497000000,66836.30,66942.50,66775.00,66925.20,573.480
1771497900000,66925.10,66925.10,66740.50,66810.10,679.515
1771498800000,66810.00,66889.00,66792.70,66888.80,394.340
1771499700000,66888.70,66907.40,66808.60,66814.80,444.186
1771500600000,66814.90,66823.90,66615.30,66636.60,1608.446
1771501500000,66636.50,66692.40,66431.10,66468.90,3216.775
1771502400000,66468.80,66551.30,66272.40,66538.90,2781.179
1771503300000,66538.80,66655.50,66458.80,66633.10,1667.712
1771504200000,66633.00,66643.40,66392.00,66577.10,1769.271
1771505100000,66577.10,66600.00,66470.00,66489.60,759.419
1771506000000,66489.50,66529.40,66188.00,66356.80,2786.168
1771506900000,66356.90,66390.00,66100.00,66137.60,3930.668
1771507800000,66137.60,66267.30,65885.30,65922.50,4824.460
1771508700000,65922.50,65960.20,65716.70,65871.20,4142.112
1771509600000,65871.20,66069.00,65800.00,66001.20,2502.064
1771510500000,66001.20,66028.50,65838.20,65942.00,1891.351
1771511400000,65941.90,66327.50,65595.70,66219.50,6635.411
1771512300000,66219.20,66635.50,66057.50,66381.90,6439.983
1771513200000,66382.00,66723.00,66000.00,66048.80,4936.426
1771514100000,66048.80,66379.90,65940.60,66011.80,3674.172
1771515000000,66011.80,66522.30,65931.20,66442.60,2598.333
1771515900000,66442.70,66572.00,66111.90,66362.70,2006.936
1771516800000,66362.60,66362.70,65863.80,66127.80,3041.942
1771517700000,66127.80,66388.00,66073.60,66156.60,1886.317
1771518600000,66156.60,66494.70,66156.60,66382.00,2293.257
1771519500000,66381.90,66447.20,66150.50,66267.60,1648.505
1771520400000,66267.60,66666.70,66234.20,66627.50,1925.008
1771521300000,66627.50,67035.00,66541.20,66587.90,5486.810
1771522200000,66588.00,66699.60,66450.00,66576.90,2479.387
1771523100000,66576.90,66642.10,66140.90,66336.10,2618.047
1771524000000,66336.00,66630.10,66215.10,66609.30,2316.763
1771524900000,66609.30,66899.10,66446.20,66873.50,2763.263
1771525800000,66873.50,66996.10,66671.10,66976.50,3090.197
1771526700000,66976.50,67067.30,66844.10,67003.20,2884.022
1771527600000,67003.20,67174.00,66834.00,66879.10,2293.847
1771528500000,66879.10,67052.00,66799.80,66910.20,1264.227
1771529400000,66910.30,66939.10,66667.00,66841.80,1381.763
1771530300000,66841.90,67105.40,66757.30,67022.90,1948.343
1771531200000,67022.80,67105.00,66903.10,66953.60,1041.428
1771532100000,66953.60,66969.60,66784.30,66905.50,875.395
1771533000000,66905.50,67006.40,66870.00,66918.10,635.353
1771533900000,66918.10,67147.80,66918.10,67118.70,1543.283
1771534800000,67118.60,67144.00,66996.80,66996.80,909.529
1771535700000,66996.80,67045.00,66962.50,67019.80,670.224
1771536600000,67019.80,67050.00,66921.70,66925.80,507.139
1771537500000,66925.70,66961.90,66867.50,66893.20,395.854
1771538400000,66893.10,66909.40,66730.00,66866.50,1035.003
1771539300000,66866.40,66866.40,66739.60,66739.60,490.189
1771540200000,66739.70,66829.10,66618.20,66817.70,1116.511
1771541100000,66817.70,66975.90,66730.00,66873.90,839.376
1771542000000,66873.90,66954.90,66784.10,66815.80,772.387
1771542900000,66815.90,66997.90,66815.80,66975.70,543.617
1771543800000,66975.60,66975.60,66879.40,66937.70,313.000
1771544700000,66937.70,66997.40,66879.20,66974.00,505.079
1771545600000,66973.90,67178.50,66912.40,67159.10,1183.142
1771546500000,67159.10,67490.00,67110.30,67352.70,4208.399
1771547400000,67352.70,67357.40,67221.70,67247.70,1100.563
1771548300000,67247.80,67264.10,67170.20,67190.10,817.859
1771549200000,67190.20,67326.00,67185.20,67302.00,861.870
1771550100000,67302.00,67302.00,67115.20,67179.30,774.333
1771551000000,67179.20,67320.00,67156.00,67297.00,571.760
1771551900000,67297.10,67297.10,67138.20,67249.20,805.945
1771552800000,67249.30,67318.90,67211.50,67249.80,580.053
1771553700000,67249.90,67268.50,67137.50,67163.30,647.648
1771554600000,67163.30,67287.70,67163.30,67278.80,500.348
1771555500000,67278.80,67300.00,67206.50,67208.10,460.196
1771556400000,67208.00,67287.50,67206.60,67243.20,362.824
1771557300000,67243.20,67455.50,67210.10,67383.30,1134.272
1771558200000,67383.20,67466.80,67274.40,67298.10,1473.909
1771559100000,67298.10,67364.70,67273.90,67327.20,679.972
1771560000000,67327.20,67359.30,67219.30,67299.90,1058.917
1771560900000,67299.90,67322.80,67079.30,67196.80,1666.046
1771561800000,67196.80,67300.00,67132.10,67279.80,954.845
1771562700000,67279.90,67279.90,67183.80,67228.40,526.210
1771563600000,67228.50,67245.10,67166.10,67222.10,627.749
1771564500000,67222.00,67420.10,67212.60,67380.00,1638.876
1771565400000,67380.00,67930.00,67377.00,67876.10,5250.363
1771566300000,67876.20,67999.90,67666.80,67756.00,3008.642
1771567200000,67756.10,67865.20,67669.30,67826.10,1310.139
1771568100000,67826.10,67865.20,67612.90,67688.90,1374.402
1771569000000,67689.00,67816.90,67620.50,67720.80,1197.304
1771569900000,67720.80,67862.30,67686.00,67809.40,766.355
1771570800000,67809.50,67830.00,67738.80,67790.20,507.237
1771571700000,67790.20,67956.30,67790.20,67910.60,1025.004
1771572600000,67910.60,67917.00,67825.30,67842.50,844.375
1771573500000,67842.60,67905.00,67704.50,67794.70,1374.928
1771574400000,67794.80,67865.90,67765.40,67832.10,603.774
1771575300000,67832.20,67920.00,67807.60,67829.30,773.523
1771576200000,67829.30,67862.20,67716.60,67753.40,825.570
1771577100000,67753.50,67870.20,67738.00,67839.90,478.448
1771578000000,67839.80,68178.80,67839.80,68092.00,4120.823
1771578900000,68091.90,68178.00,68060.00,68158.70,1230.230
1771579800000,68158.70,68199.40,68068.70,68096.90,1379.360
1771580700000,68097.00,68190.00,68089.40,68174.10,604.688
1771581600000,68174.20,68283.70,68050.10,68137.30,1710.989
1771582500000,68137.30,68256.70,68076.20,68213.30,1225.569
1771583400000,68213.40,68256.20,68103.20,68120.00,906.018
1771584300000,68119.90,68146.20,67733.80,67909.70,4019.405
1771585200000,67909.80,67945.10,67727.70,67835.10,2098.677
1771586100000,67835.00,67853.00,67750.20,67842.00,1206.844
1771587000000,67842.00,67862.10,67390.10,67417.70,3485.370
1771587900000,67417.70,67580.70,67250.00,67290.50,2964.736
1771588800000,67290.40,67475.10,67236.50,67440.00,2309.536
1771589700000,67440.10,67494.20,67222.70,67289.40,2292.583
1771590600000,67289.40,67467.20,67274.00,67441.50,1362.171
1771591500000,67441.60,67577.10,67426.10,67498.90,1421.235
1771592400000,67498.90,67503.30,67031.60,67105.90,5111.576
1771593300000,67105.80,67226.80,66925.80,67168.70,2892.446
1771594200000,67168.80,67184.40,66408.10,66600.00,11673.401
1771595100000,66599.90,66932.50,66586.40,66784.80,7643.030
1771596000000,66784.80,67060.00,66745.20,66898.30,2937.569
1771596900000,66898.30,67063.00,66629.90,66963.20,4357.607
1771597800000,66963.20,67299.90,66811.50,67042.30,6045.536
1771598700000,67042.30,67129.10,66836.10,67043.20,2379.598
1771599600000,67043.20,68099.90,66834.70,66859.10,16880.913
1771600500000,66859.10,67565.00,66500.80,67421.10,11615.250
1771601400000,67421.10,67443.90,66900.00,67195.10,4708.071
1771602300000,67195.00,67649.10,67117.50,67547.60,5380.350
1771603200000,67547.60,67769.70,67460.10,67696.00,4263.556
1771604100000,67696.00,67888.00,67268.10,67289.60,5153.936
1771605000000,67289.60,67497.60,67253.00,67463.20,2261.771
1771605900000,67463.30,67888.00,67450.00,67763.20,2085.400
1771606800000,67763.20,67763.20,66965.00,67032.00,5339.076
1771607700000,67031.90,67226.60,66976.40,66992.70,4792.827
1771608600000,66992.70,67278.20,66915.00,67197.20,2976.064
1771609500000,67197.30,67663.20,67077.30,67582.00,10287.307
1771610400000,67581.90,67800.00,67456.00,67553.90,3391.053
1771611300000,67554.00,67680.40,67437.60,67636.90,1372.705
1771612200000,67636.90,67998.90,67500.00,67770.90,4645.161
1771613100000,67770.90,67956.80,67662.00,67901.10,2444.572
1771614000000,67901.00,67983.00,67647.20,67683.40,1859.583
1771614900000,67683.40,67773.80,67513.40,67592.80,1218.334
1771615800000,67592.80,67813.80,67506.80,67584.10,1212.981
1771616700000,67584.20,67680.00,67538.10,67616.50,687.719
1771617600000,67616.50,67800.00,67605.00,67778.60,1009.601
1771618500000,67778.60,67778.60,67535.00,67551.50,844.144
1771619400000,67551.60,67699.50,67486.60,67697.80,734.891
1771620300000,67697.90,67733.00,67594.70,67719.70,748.794
1771621200000,67719.40,67776.00,67600.00,67683.00,1222.831
1771622100000,67682.90,67723.70,67630.70,67718.10,466.940
1771623000000,67718.00,67816.40,67669.90,67730.00,1022.614
1771623900000,67730.00,67795.80,67687.20,67792.30,467.584
1771624800000,67792.30,67798.60,67603.20,67626.30,499.811
1771625700000,67626.30,67990.00,67626.30,67900.00,1478.771
1771626600000,67900.00,68115.90,67851.60,67927.00,1877.091
1771627500000,67927.00,68075.90,67884.40,68049.80,736.622
1771628400000,68049.80,68220.00,67985.10,67992.10,2044.122
1771629300000,67992.00,68030.20,67917.00,67964.70,661.542
1771630200000,67964.80,68005.40,67880.00,67944.60,818.183
1771631100000,67944.50,68007.40,67925.40,67979.30,739.004
1771632000000,67979.30,68023.70,67897.40,67977.20,1072.038
1771632900000,67977.30,67983.00,67857.10,67894.60,772.539
1771633800000,67894.50,67921.80,67821.30,67821.30,782.643
1771634700000,67821.40,67848.60,67745.30,67805.20,806.348
1771635600000,67805.10,67898.80,67805.10,67898.70,482.558
1771636500000,67898.70,67898.70,67818.40,67818.50,308.329
1771637400000,67818.50,67981.70,67818.50,67942.10,639.383
1771638300000,67942.00,67973.70,67908.40,67916.10,275.276
1771639200000,67916.20,67993.10,67875.30,67952.90,511.723
1771640100000,67952.90,68037.40,67944.10,68030.00,600.288
1771641000000,68030.00,68079.00,67978.50,68052.40,551.274
1771641900000,68052.30,68052.30,67961.30,67970.30,310.453
1771642800000,67970.30,67970.50,67633.60,67727.40,2864.634
1771643700000,67727.40,67789.00,67702.00,67767.20,388.179
1771644600000,67767.20,67807.20,67488.90,67589.80,2325.784
1771645500000,67589.80,67637.00,67544.20,67637.00,792.936
1771646400000,67636.90,67671.60,67559.40,67620.80,811.190
1771647300000,67620.90,67690.80,67555.20,67685.40,729.170
1771648200000,67685.40,67733.20,67655.10,67655.70,489.811
1771649100000,67655.80,67823.10,67655.80,67782.20,675.870
1771650000000,67782.30,67850.00,67782.20,67813.50,525.531
1771650900000,67813.50,67849.90,67782.20,67829.40,391.682
1771651800000,67829.40,67859.20,67757.10,67826.90,428.626
1771652700000,67827.00,67842.70,67790.70,67827.10,217.969
1771653600000,67827.20,67899.00,67813.70,67883.80,521.511
1771654500000,67883.80,67886.80,67836.10,67836.10,182.543
1771655400000,67836.10,67836.20,67711.40,67746.20,588.477
1771656300000,67746.20,67762.00,67723.00,67759.50,221.751
1771657200000,67759.60,67825.30,67712.60,67791.90,289.956
1771658100000,67791.90,67827.00,67791.80,67820.90,185.140
1771659000000,67820.80,67852.50,67785.00,67799.50,324.469
1771659900000,67799.50,67827.30,67799.40,67821.00,251.360
1771660800000,67821.00,67876.30,67776.20,67876.20,402.381
1771661700000,67876.30,67960.00,67876.20,67939.40,768.006
1771662600000,67939.40,67984.90,67901.10,67962.90,549.991
1771663500000,67963.00,68047.50,67926.70,68016.90,1016.374
1771664400000,68016.90,68040.50,67933.30,67960.00,875.059
1771665300000,67960.00,68249.90,67960.00,68198.30,3668.738
1771666200000,68198.20,68280.00,68100.40,68160.90,2234.528
1771667100000,68161.00,68188.00,68103.80,68115.80,706.302
1771668000000,68115.70,68221.60,68108.60,68150.10,710.882
1771668900000,68150.20,68184.20,68110.40,68162.50,542.218
1771669800000,68162.50,68210.20,68150.70,68207.40,541.204
1771670700000,68207.30,68209.60,68130.20,68184.60,423.611
1771671600000,68184.60,68251.80,68165.00,68249.00,1170.619
1771672500000,68249.00,68259.40,68140.20,68142.10,1003.201
1771673400000,68142.00,68162.00,68047.40,68068.00,1045.555
1771674300000,68068.00,68097.70,68045.50,68060.90,766.246
1771675200000,68061.00,68105.40,67922.10,67957.60,1260.533
1771676100000,67957.60,67985.00,67919.10,67933.30,1043.723
1771677000000,67933.30,68000.00,67882.80,67997.50,1561.654
1771677900000,67997.50,68186.90,67997.40,68175.90,1586.368
1771678800000,68175.90,68175.90,68090.20,68117.70,460.850
1771679700000,68117.70,68250.00,68073.00,68207.40,732.323
1771680600000,68207.40,68222.30,68136.00,68139.90,385.787
1771681500000,68140.00,68229.60,68130.00,68223.30,442.190
1771682400000,68223.30,68242.50,68146.60,68242.50,763.503
1771683300000,68242.40,68651.40,68184.50,68407.80,5663.507
1771684200000,68407.80,68600.00,68380.00,68506.50,2705.046
1771685100000,68506.40,68554.20,68400.20,68416.60,985.880
1771686000000,68416.60,68485.00,68389.20,68455.30,670.372
1771686900000,68455.30,68543.20,68420.80,68421.00,830.073
1771687800000,68421.10,68687.00,68382.70,68593.20,1675.293
1771688700000,68593.20,68676.50,68560.80,68571.50,1171.731
1771689600000,68571.50,68599.30,68270.00,68323.00,3472.760
1771690500000,68323.10,68326.60,68066.00,68237.40,2829.304
1771691400000,68237.30,68330.80,68100.00,68328.90,1241.129
1771692300000,68328.90,68328.90,68274.00,68292.40,553.526
1771693200000,68292.30,68318.30,68156.40,68227.40,693.565
1771694100000,68227.50,68291.60,68173.70,68249.80,562.830
1771695000000,68249.80,68444.40,68227.60,68395.30,914.600
1771695900000,68395.30,68443.80,68355.90,68408.80,726.731
1771696800000,68408.80,68413.60,68339.50,68371.60,432.508
1771697700000,68371.70,68525.00,68371.70,68458.90,1262.806
1771698600000,68458.80,68550.00,68451.40,68522.10,783.297
1771699500000,68522.10,68616.80,68457.10,68547.20,874.829
1771700400000,68547.30,68632.50,68491.60,68554.60,674.421
1771701300000,68554.60,68595.10,68509.00,68531.00,628.714
1771702200000,68531.00,68621.00,68530.40,68601.30,442.527
1771703100000,68601.20,68601.20,68490.00,68516.30,417.016
1771704000000,68516.30,68517.50,68440.40,68455.60,469.491
1771704900000,68455.60,68568.10,68454.00,68528.20,434.680
1771705800000,68528.20,68539.90,68275.80,68356.00,982.534
1771706700000,68356.10,68389.20,68114.40,68180.90,1355.110
