timestamp,open,high,low,close,volume
1760641200000,108656.19000000,108751.02000000,107685.40000000,108197.66000000,1826.29670000
1760644800000,108197.67000000,108424.11000000,107427.00000000,107838.01000000,941.04286000
1760648400000,107838.00000000,108463.31000000,107592.00000000,108443.70000000,490.84182000
1760652000000,108443.71000000,108500.00000000,107783.76000000,107798.85000000,451.11345000
1760655600000,107798.85000000,108420.73000000,107736.56000000,108194.28000000,371.40842000
1760659200000,108194.27000000,108849.19000000,107934.40000000,108800.00000000,657.03622000
1760662800000,108799.99000000,109115.08000000,108506.79000000,108839.84000000,663.22366000
1760666400000,108839.84000000,109082.80000000,108390.21000000,108972.97000000,559.71151000
1760670000000,108972.98000000,109240.00000000,108910.45000000,109176.74000000,537.92170000
1760673600000,109176.74000000,109236.01000000,108786.00000000,108787.26000000,487.87266000
1760677200000,108787.26000000,108926.06000000,108299.12000000,108381.76000000,800.45747000
1760680800000,108381.75000000,108519.49000000,106639.79000000,106741.28000000,2840.49166000
1760684400000,106741.28000000,106901.85000000,105542.09000000,105633.75000000,3891.25354000
1760688000000,105633.75000000,105716.15000000,104505.00000000,104884.38000000,4632.98336000
1760691600000,104884.38000000,105626.67000000,104520.70000000,104531.35000000,2034.60892000
1760695200000,104530.00000000,104926.19000000,103528.23000000,104751.99000000,3620.28453000
1760698800000,104751.99000000,106651.22000000,104674.00000000,105683.72000000,3620.45641000
1760702400000,105683.71000000,106070.14000000,105227.45000000,105350.40000000,1384.38576000
1760706000000,105350.40000000,106166.00000000,104876.19000000,105835.63000000,2340.35273000
1760709600000,105835.62000000,105989.01000000,104533.21000000,105163.42000000,1894.44771000
1760713200000,105163.41000000,106852.14000000,105087.29000000,106803.53000000,2228.15693000
1760716800000,106803.52000000,107575.60000000,106239.75000000,106372.34000000,1909.04788000
1760720400000,106372.34000000,106729.00000000,106071.42000000,106453.27000000,723.50939000
1760724000000,106453.26000000,107089.99000000,106453.26000000,106647.11000000,761.17199000
1760727600000,106647.11000000,106889.11000000,106233.65000000,106454.72000000,522.73818000
1760731200000,106457.24000000,107177.08000000,106342.47000000,107021.37000000,502.81407000
1760734800000,107021.38000000,107440.02000000,107016.87000000,107301.40000000,474.97927000
1760738400000,107301.41000000,107415.73000000,106807.50000000,107000.10000000,467.14000000
1760742000000,107000.09000000,107000.10000000,106392.08000000,106431.68000000,365.62283000
1760745600000,106431.68000000,106845.52000000,106322.20000000,106845.52000000,471.69377000
1760749200000,106845.52000000,107306.06000000,106824.00000000,107149.30000000,525.12520000
1760752800000,107149.30000000,107297.87000000,106493.23000000,106597.98000000,923.59727000
1760756400000,106597.97000000,107126.55000000,106573.60000000,107070.40000000,747.88716000
1760760000000,107070.41000000,107070.41000000,106439.38000000,106478.71000000,738.59104000
1760763600000,106478.66000000,106842.50000000,106478.66000000,106812.52000000,357.02039000
1760767200000,106812.52000000,106950.00000000,106711.95000000,106839.96000000,582.06053000
1760770800000,106839.97000000,107499.00000000,106607.20000000,106665.00000000,1298.66311000
1760774400000,106665.01000000,106966.62000000,106605.93000000,106719.20000000,1204.63747000
1760778000000,106719.20000000,106938.00000000,106629.66000000,106884.41000000,371.44202000
1760781600000,106884.41000000,107145.81000000,106788.41000000,106924.47000000,365.74020000
1760785200000,106924.47000000,107222.00000000,106770.00000000,107208.60000000,394.90850000
1760788800000,107208.61000000,107300.00000000,106965.23000000,107065.17000000,265.11201000
1760792400000,107065.17000000,107102.14000000,106810.00000000,106888.78000000,270.57628000
1760796000000,106888.77000000,107111.11000000,106739.33000000,107028.36000000,552.94765000
1760799600000,107028.37000000,107146.18000000,106815.86000000,106948.75000000,336.98269000
1760803200000,106948.75000000,107063.89000000,106484.00000000,106664.01000000,353.04791000
1760806800000,106664.01000000,106955.79000000,106567.95000000,106880.03000000,246.03342000
1760810400000,106880.04000000,106920.00000000,106722.72000000,106843.75000000,158.99856000
1760814000000,106843.75000000,107091.87000000,106762.83000000,107080.14000000,153.17902000
1760817600000,107080.14000000,107339.03000000,107000.00000000,107018.51000000,262.63077000
1760821200000,107018.50000000,107220.24000000,106851.84000000,107177.05000000,198.46296000
1760824800000,107177.05000000,107283.71000000,107067.54000000,107125.87000000,219.09125000
1760828400000,107125.88000000,107200.00000000,107014.58000000,107185.01000000,124.75848000
1760832000000,107185.00000000,107267.20000000,106755.88000000,106898.03000000,393.96341000
1760835600000,106898.03000000,106988.81000000,106734.17000000,106973.26000000,184.14483000
1760839200000,106973.27000000,107000.00000000,106805.05000000,106847.02000000,121.85742000
1760842800000,106847.03000000,107367.16000000,106802.32000000,107275.78000000,358.14644000
1760846400000,107275.79000000,107290.00000000,106949.90000000,107046.90000000,256.58858000
1760850000000,107046.89000000,107180.00000000,106794.23000000,106888.59000000,516.95583000
1760853600000,106888.60000000,106909.98000000,106558.61000000,106777.75000000,315.62124000
1760857200000,106777.75000000,106912.08000000,106702.00000000,106786.00000000,158.03024000
1760860800000,106786.00000000,107203.29000000,106278.74000000,106443.95000000,969.35569000
1760864400000,106443.96000000,108213.04000000,106103.36000000,107401.47000000,2187.76100000
1760868000000,107401.47000000,107887.99000000,106999.57000000,107882.71000000,889.96820000
1760871600000,107882.71000000,108260.50000000,107633.05000000,107783.47000000,1012.47378000
1760875200000,107783.47000000,107859.42000000,107421.90000000,107631.43000000,816.58870000
1760878800000,107631.43000000,108227.44000000,107355.02000000,108096.34000000,912.20232000
1760882400000,108096.33000000,108508.00000000,107887.28000000,108405.47000000,1356.87620000
1760886000000,108405.47000000,108621.68000000,108328.25000000,108486.70000000,550.80586000
1760889600000,108486.71000000,108988.27000000,108240.00000000,108624.19000000,746.00280000
1760893200000,108624.19000000,109437.43000000,108615.20000000,109113.52000000,842.94186000
1760896800000,109113.53000000,109450.07000000,109037.50000000,109383.01000000,390.21394000
1760900400000,109383.00000000,109383.01000000,108800.57000000,108908.43000000,451.40437000
1760904000000,108908.43000000,108984.90000000,108810.17000000,108845.06000000,661.43199000
1760907600000,108845.07000000,108869.87000000,108620.00000000,108744.82000000,272.94763000
1760911200000,108744.83000000,109370.99000000,108744.83000000,109146.80000000,673.56143000
1760914800000,109146.80000000,109146.80000000,108471.10000000,108642.78000000,440.82047000
1760918400000,108642.77000000,108642.77000000,107402.52000000,108047.46000000,1198.86530000
1760922000000,108047.46000000,108276.04000000,107894.00000000,108053.58000000,602.84285000
1760925600000,108053.57000000,108970.51000000,107854.71000000,108767.02000000,605.86943000
1760929200000,108767.03000000,110427.86000000,108571.59000000,110145.44000000,1275.97750000
1760932800000,110145.45000000,110535.13000000,109951.96000000,110422.10000000,865.34314000
1760936400000,110422.10000000,111111.00000000,110291.27000000,111033.79000000,991.81207000
1760940000000,111033.79000000,111377.34000000,111001.91000000,111298.55000000,1196.86696000
1760943600000,111298.55000000,111445.67000000,111050.78000000,111169.92000000,913.95455000
1760947200000,111169.91000000,111679.25000000,110943.40000000,111097.15000000,925.77025000
1760950800000,111097.16000000,111200.00000000,110691.96000000,110964.13000000,1095.42239000
1760954400000,110964.14000000,111098.01000000,110612.00000000,110731.78000000,644.26773000
1760958000000,110731.78000000,111026.93000000,110608.27000000,111016.75000000,787.40667000
1760961600000,111016.75000000,111203.06000000,110780.00000000,110843.81000000,425.00243000
1760965200000,110843.82000000,111203.06000000,110588.23000000,111161.35000000,666.08434000
1760968800000,111161.35000000,111395.84000000,110736.00000000,111210.86000000,911.55485000
1760972400000,111210.86000000,111705.56000000,111001.34000000,111144.55000000,1003.56342000
1760976000000,111144.55000000,111303.05000000,110110.00000000,110683.19000000,1717.87854000
1760979600000,110683.20000000,111071.40000000,109855.83000000,110282.76000000,1077.41690000
1760983200000,110282.76000000,110968.98000000,110220.00000000,110937.92000000,457.18317000
1760986800000,110937.92000000,111067.33000000,110542.00000000,110803.22000000,464.17808000
1760990400000,110803.22000000,111272.00000000,110665.03000000,111091.46000000,480.99811000
1760994000000,111091.46000000,111243.64000000,110464.91000000,110563.20000000,332.06604000
1760997600000,110563.20000000,110867.39000000,110418.25000000,110794.08000000,267.98447000
1761001200000,110794.08000000,110828.75000000,110521.85000000,110532.09000000,285.13241000
1761004800000,110532.09000000,110532.09000000,110168.00000000,110446.69000000,437.52159000
1761008400000,110446.68000000,110489.41000000,109555.00000000,109863.19000000,677.11170000
1761012000000,109863.18000000,109922.89000000,109303.86000000,109514.92000000,773.29938000
1761015600000,109514.92000000,109620.31000000,109052.09000000,109059.22000000,517.88075000
1761019200000,109059.23000000,109059.23000000,107650.94000000,107779.70000000,1936.39331000
1761022800000,107779.71000000,107979.46000000,107473.72000000,107537.12000000,1531.85421000
1761026400000,107537.12000000,108200.00000000,107499.19000000,107909.79000000,754.26623000
1761030000000,107909.79000000,108200.00000000,107645.21000000,108086.37000000,707.81305000
1761033600000,108086.38000000,108098.72000000,107484.22000000,107695.79000000,804.21106000
1761037200000,107695.79000000,107866.72000000,107540.09000000,107754.27000000,543.10308000
1761040800000,107754.27000000,108811.47000000,107580.00000000,108499.56000000,1096.00730000
1761044400000,108499.56000000,108639.76000000,108169.81000000,108580.01000000,546.40513000
1761048000000,108580.00000000,109485.78000000,108466.48000000,108793.40000000,1229.63283000
1761051600000,108793.39000000,108913.68000000,107922.06000000,108426.98000000,1261.18680000
1761055200000,108426.98000000,112290.31000000,108408.00000000,112170.52000000,3335.72830000
1761058800000,112170.52000000,113557.62000000,111716.91000000,113422.61000000,4175.55944000
1761062400000,113422.60000000,114000.00000000,112465.33000000,112565.88000000,2654.63776000
1761066000000,112565.88000000,112993.67000000,111813.18000000,111973.42000000,5531.17962000
1761069600000,111973.41000000,112297.14000000,111324.29000000,111990.55000000,1962.19243000
1761073200000,111990.55000000,112200.00000000,111562.94000000,111780.39000000,583.46835000
1761076800000,111780.40000000,111801.41000000,110554.22000000,110787.56000000,1166.16267000
1761080400000,110787.56000000,111111.00000000,110111.00000000,110816.32000000,986.90737000
1761084000000,110816.33000000,110816.33000000,108271.68000000,109066.98000000,2484.48697000
1761087600000,109066.98000000,109423.19000000,108045.81000000,108297.67000000,1531.00726000
1761091200000,108297.66000000,108643.61000000,107841.20000000,107986.14000000,1537.60176000
1761094800000,107986.15000000,108460.02000000,107986.14000000,108364.21000000,1493.26761000
1761098400000,108364.22000000,108678.21000000,108198.85000000,108198.85000000,699.65823000
1761102000000,108198.85000000,108219.12000000,107860.92000000,108216.02000000,1121.03699000
1761105600000,108216.03000000,108635.92000000,108162.09000000,108625.60000000,696.45277000
1761109200000,108625.61000000,108638.99000000,107879.93000000,108166.81000000,1434.44211000
1761112800000,108166.82000000,108331.75000000,107945.50000000,107980.02000000,675.25677000
1761116400000,107980.02000000,108321.64000000,107610.00000000,108321.63000000,1077.00799000
1761120000000,108321.64000000,108358.76000000,108079.86000000,108229.30000000,505.66169000
1761123600000,108229.30000000,108274.43000000,107773.89000000,107963.13000000,557.31037000
1761127200000,107963.12000000,108114.80000000,107650.00000000,107657.98000000,497.00462000
1761130800000,107657.98000000,108207.99000000,106708.18000000,107555.05000000,2452.68318000
1761134400000,107555.04000000,108399.00000000,107443.01000000,108044.96000000,841.76229000
1761138000000,108044.96000000,109014.34000000,107630.39000000,108783.36000000,1889.17586000
1761141600000,108783.35000000,108998.00000000,107500.00000000,108947.50000000,3240.71769000
1761145200000,108947.49000000,109163.88000000,107737.04000000,108416.50000000,1954.01743000
1761148800000,108416.50000000,108796.42000000,107877.27000000,108226.00000000,1590.12287000
1761152400000,108226.00000000,108339.89000000,107566.65000000,107778.45000000,913.68528000
1761156000000,107778.45000000,108200.00000000,107463.29000000,108023.33000000,668.80381000
1761159600000,108023.33000000,108411.61000000,107685.61000000,107870.35000000,835.44242000
1761163200000,107870.35000000,108069.93000000,107500.00000000,107696.03000000,1003.67170000
1761166800000,107696.03000000,107749.02000000,106666.69000000,107207.98000000,1548.13803000
1761170400000,107207.98000000,107683.25000000,106917.57000000,107196.82000000,742.32871000
1761174000000,107196.82000000,107946.15000000,107169.69000000,107567.44000000,635.53433000
1761177600000,107567.45000000,107980.52000000,107500.00000000,107845.30000000,396.06020000
1761181200000,107845.30000000,108500.00000000,107813.20000000,108150.00000000,1012.18554000
1761184800000,108150.01000000,108410.30000000,108058.66000000,108410.29000000,360.75702000
1761188400000,108410.29000000,108720.39000000,108323.59000000,108377.96000000,604.50041000
1761192000000,108377.96000000,108940.33000000,108350.36000000,108644.32000000,394.82009000
1761195600000,108644.31000000,108991.81000000,108622.05000000,108940.58000000,448.44483000
1761199200000,108940.58000000,110298.29000000,108849.07000000,110246.94000000,1472.30240000
1761202800000,110246.93000000,110273.48000000,109207.75000000,109269.90000000,999.21853000
1761206400000,109269.90000000,109903.83000000,109245.48000000,109505.44000000,737.41671000
1761210000000,109505.45000000,109545.76000000,109123.01000000,109426.99000000,503.07972000
1761213600000,109427.00000000,109701.90000000,109370.05000000,109439.20000000,401.49030000
1761217200000,109439.20000000,109655.89000000,109100.40000000,109253.89000000,562.02430000
1761220800000,109253.88000000,109253.89000000,108685.72000000,109164.94000000,953.31213000
1761224400000,109164.95000000,109650.01000000,108800.01000000,109500.62000000,1286.55668000
1761228000000,109500.62000000,109851.62000000,108723.13000000,109594.90000000,1111.45274000
1761231600000,109594.90000000,110109.99000000,109486.38000000,109908.28000000,933.26870000
1761235200000,109908.29000000,110576.50000000,109647.34000000,110263.74000000,883.87893000
1761238800000,110263.74000000,111293.61000000,109650.00000000,111241.71000000,1605.70962000
1761242400000,111241.71000000,111289.36000000,110261.48000000,110571.66000000,761.73368000
1761246000000,110571.66000000,110619.90000000,110106.00000000,110200.00000000,388.99846000
1761249600000,110200.01000000,110200.01000000,109341.28000000,109524.81000000,629.20848000
1761253200000,109524.81000000,109727.22000000,109380.12000000,109532.97000000,424.08473000
1761256800000,109532.96000000,110158.37000000,109517.37000000,109943.94000000,443.21336000
1761260400000,109943.95000000,110099.17000000,109839.00000000,110078.18000000,259.37538000
1761264000000,110078.19000000,110709.22000000,109983.93000000,110500.28000000,531.07612000
1761267600000,110500.29000000,110665.53000000,110141.38000000,110585.08000000,371.99990000
1761271200000,110585.09000000,110829.67000000,110358.34000000,110570.12000000,303.69215000
1761274800000,110570.13000000,110630.81000000,110274.85000000,110441.46000000,332.11629000
1761278400000,110441.46000000,111470.32000000,110332.00000000,111178.55000000,958.63918000
1761282000000,111178.54000000,111310.31000000,110941.02000000,111261.36000000,515.30958000
1761285600000,111261.37000000,111488.00000000,111120.71000000,111464.36000000,480.69090000
1761289200000,111464.36000000,111522.30000000,110768.23000000,111054.61000000,750.55477000
1761292800000,111054.61000000,111226.02000000,110680.01000000,111097.80000000,627.57826000
1761296400000,111097.79000000,111482.99000000,111000.00000000,111324.51000000,446.13074000
1761300000000,111324.51000000,111325.42000000,111069.46000000,111114.03000000,346.40996000
1761303600000,111114.03000000,111267.99000000,110600.00000000,111066.29000000,561.52762000
1761307200000,111066.29000000,112104.98000000,110867.15000000,111297.01000000,1692.92113000
1761310800000,111297.02000000,111451.47000000,110379.51000000,110937.94000000,1200.08389000
1761314400000,110937.94000000,110937.95000000,109700.01000000,110219.17000000,1902.54077000
1761318000000,110219.17000000,110620.00000000,109896.51000000,110046.91000000,737.57678000
1761321600000,110046.92000000,110387.79000000,109797.13000000,110261.81000000,441.40283000
1761325200000,110261.81000000,110571.18000000,110180.74000000,110235.22000000,368.64619000
1761328800000,110235.22000000,110639.04000000,110166.00000000,110619.39000000,336.10914000
1761332400000,110619.39000000,110945.39000000,110525.06000000,110615.07000000,323.90966000
1761336000000,110615.07000000,111025.95000000,110478.00000000,110893.70000000,514.06470000
1761339600000,110893.69000000,111100.00000000,110646.64000000,111085.57000000,915.59401000
1761343200000,111085.57000000,111138.62000000,110927.23000000,111023.01000000,203.92240000
1761346800000,111023.01000000,111123.87000000,110882.05000000,111004.89000000,142.67216000
1761350400000,111004.90000000,111044.86000000,110672.86000000,110766.60000000,210.65830000
1761354000000,110766.61000000,111226.67000000,110750.00000000,111070.31000000,235.37952000
1761357600000,111070.31000000,111128.91000000,110950.02000000,111025.77000000,134.00021000
1761361200000,111025.77000000,111136.65000000,110998.21000000,111029.99000000,249.31110000
1761364800000,111029.99000000,111458.81000000,111029.99000000,111228.00000000,411.01306000
1761368400000,111228.00000000,111433.54000000,111093.99000000,111386.79000000,235.19046000
1761372000000,111386.78000000,111497.10000000,111261.01000000,111366.42000000,334.48878000
1761375600000,111366.43000000,111820.87000000,111366.43000000,111489.60000000,436.39799000
1761379200000,111489.59000000,111805.10000000,111488.44000000,111763.80000000,348.94057000
1761382800000,111763.81000000,111850.13000000,111491.62000000,111521.47000000,474.02907000
1761386400000,111521.47000000,111718.99000000,111375.81000000,111559.94000000,382.43284000
1761390000000,111559.94000000,111664.00000000,111480.68000000,111563.81000000,172.78406000
1761393600000,111563.81000000,111943.19000000,111530.38000000,111899.03000000,363.41104000
1761397200000,111899.03000000,111916.00000000,111520.00000000,111680.91000000,355.08597000
1761400800000,111680.92000000,111765.97000000,111520.01000000,111591.19000000,216.60101000
1761404400000,111591.20000000,111591.20000000,111311.19000000,111385.18000000,318.98695000
1761408000000,111385.18000000,111479.99000000,111164.39000000,111372.25000000,430.41077000
1761411600000,111372.25000000,111451.16000000,111300.00000000,111374.96000000,134.57742000
1761415200000,111374.97000000,111731.78000000,111317.34000000,111719.98000000,227.92326000
1761418800000,111719.98000000,111720.00000000,111579.75000000,111623.45000000,170.60799000
1761422400000,111623.46000000,111659.39000000,111370.00000000,111431.94000000,154.33849000
1761426000000,111431.94000000,111477.76000000,111342.25000000,111477.76000000,133.46965000
1761429600000,111477.76000000,111683.64000000,111409.54000000,111621.69000000,159.63737000
1761433200000,111621.69000000,111675.49000000,111535.48000000,111646.27000000,118.29276000
1761436800000,111646.27000000,111899.56000000,111544.15000000,111715.98000000,370.92714000
1761440400000,111715.98000000,111835.85000000,111520.00000000,111644.42000000,270.69687000
1761444000000,111644.41000000,111687.37000000,111408.54000000,111448.85000000,214.46307000
1761447600000,111448.85000000,111500.00000000,111260.45000000,111260.46000000,170.69475000
1761451200000,111260.46000000,111479.99000000,111260.46000000,111430.40000000,129.38461000
1761454800000,111430.39000000,111650.90000000,111367.19000000,111615.32000000,209.94274000
1761458400000,111615.33000000,111686.65000000,111548.75000000,111635.95000000,156.20448000
1761462000000,111635.96000000,111724.96000000,111620.02000000,111723.98000000,169.97811000
1761465600000,111723.98000000,111850.00000000,111723.98000000,111776.94000000,240.40616000
1761469200000,111776.94000000,112779.81000000,111708.63000000,112528.83000000,1330.29795000
1761472800000,112528.82000000,112571.26000000,112189.33000000,112477.10000000,337.77399000
1761476400000,112477.11000000,113466.23000000,112430.56000000,113286.09000000,1079.09408000
1761480000000,113286.09000000,113827.02000000,113279.85000000,113575.05000000,1229.55057000
1761483600000,113575.06000000,114000.00000000,113283.80000000,113711.53000000,1099.62143000
1761487200000,113711.53000000,113885.27000000,113544.02000000,113575.36000000,739.58798000
1761490800000,113575.35000000,113725.48000000,113425.87000000,113694.97000000,437.55153000
1761494400000,113694.97000000,113761.98000000,113290.62000000,113517.53000000,556.71599000
1761498000000,113517.54000000,113747.85000000,113442.12000000,113442.13000000,319.42533000
1761501600000,113442.14000000,113793.93000000,113442.13000000,113575.15000000,279.30190000
1761505200000,113575.15000000,113720.63000000,113503.82000000,113585.99000000,204.67267000
1761508800000,113585.98000000,113585.98000000,113283.11000000,113320.80000000,248.15480000
1761512400000,113320.80000000,113590.48000000,112901.00000000,113497.06000000,464.11186000
1761516000000,113497.06000000,115466.80000000,113497.06000000,114681.33000000,2524.96249000
1761519600000,114681.34000000,114966.15000000,114385.13000000,114559.40000000,670.95687000
1761523200000,114559.41000000,115176.47000000,114362.26000000,114767.29000000,1142.27258000
1761526800000,114767.28000000,115388.96000000,114710.92000000,115284.01000000,725.93495000
1761530400000,115284.01000000,115445.39000000,114815.60000000,114883.39000000,826.25748000
1761534000000,114883.40000000,115242.65000000,114829.48000000,114958.51000000,587.18766000
1761537600000,114958.52000000,115283.27000000,114938.01000000,115256.44000000,400.40691000
1761541200000,115256.43000000,115652.89000000,115256.43000000,115556.57000000,828.01463000
1761544800000,115556.56000000,116129.50000000,115361.65000000,116053.49000000,1794.85942000
1761548400000,116053.50000000,116400.00000000,115489.53000000,115554.60000000,2455.66454000
1761552000000,115554.59000000,115607.48000000,114900.00000000,115014.88000000,1249.66033000
1761555600000,115014.88000000,115356.99000000,114814.69000000,115254.01000000,1148.54888000
1761559200000,115254.01000000,115550.02000000,115120.90000000,115447.94000000,557.73562000
1761562800000,115447.93000000,115528.74000000,115128.04000000,115362.02000000,745.97843000
1761566400000,115362.02000000,115437.48000000,115000.00000000,115065.67000000,1172.23501000
1761570000000,115065.96000000,115415.99000000,114566.83000000,115264.28000000,1010.17279000
1761573600000,115264.29000000,115358.00000000,114503.99000000,114810.05000000,987.16577000
1761577200000,114810.06000000,115224.44000000,114778.00000000,114969.68000000,1323.86576000
1761580800000,114969.68000000,115636.86000000,114872.12000000,115497.57000000,818.25063000
1761584400000,115497.57000000,115706.06000000,115311.19000000,115706.06000000,442.08673000
1761588000000,115706.06000000,115790.00000000,115325.00000000,115342.19000000,400.61809000
1761591600000,115342.18000000,115342.19000000,114790.81000000,114942.64000000,597.25209000
1761595200000,114942.64000000,114942.64000000,114408.00000000,114455.17000000,550.98109000
1761598800000,114455.17000000,114626.99000000,114135.61000000,114302.70000000,494.80813000
1761602400000,114302.69000000,114585.01000000,114059.40000000,114112.51000000,475.05268000
1761606000000,114112.50000000,114226.23000000,113830.01000000,114107.65000000,715.22221000
1761609600000,114107.65000000,114374.20000000,113788.32000000,113961.67000000,554.91770000
1761613200000,113961.67000000,114547.20000000,113961.67000000,114424.76000000,485.50547000
1761616800000,114424.76000000,114474.10000000,113569.91000000,113936.94000000,686.42190000
1761620400000,113936.93000000,114109.86000000,113717.00000000,113908.24000000,457.29772000
1761624000000,113908.25000000,114076.91000000,113761.71000000,113964.59000000,440.12507000
1761627600000,113964.60000000,113981.73000000,113483.30000000,113605.31000000,628.71639000
1761631200000,113605.32000000,114186.01000000,113605.32000000,114115.52000000,542.51916000
1761634800000,114115.52000000,114364.99000000,114091.51000000,114188.37000000,579.31808000
1761638400000,114188.38000000,114480.19000000,114113.30000000,114427.23000000,307.52828000
1761642000000,114427.23000000,114634.46000000,114205.28000000,114528.60000000,373.30544000
1761645600000,114528.61000000,114608.78000000,114429.78000000,114595.71000000,230.01260000
1761649200000,114595.70000000,114673.68000000,114297.06000000,114357.73000000,326.08736000
1761652800000,114357.72000000,114517.29000000,114138.06000000,114449.55000000,421.93096000
1761656400000,114449.55000000,115522.91000000,114449.55000000,115522.90000000,1045.59275000
1761660000000,115522.91000000,116086.00000000,114223.63000000,115068.17000000,1820.63839000
1761663600000,115068.18000000,115425.84000000,114516.00000000,114641.38000000,720.35046000
1761667200000,114641.38000000,115500.00000000,114530.00000000,115341.59000000,754.64859000
1761670800000,115341.59000000,115591.41000000,115229.45000000,115290.00000000,436.86490000
1761674400000,115289.99000000,115366.45000000,114642.94000000,115022.80000000,370.32321000
1761678000000,115022.80000000,115075.08000000,113566.44000000,113689.99000000,1157.95866000
1761681600000,113689.00000000,113703.32000000,112324.82000000,112808.05000000,1738.00789000
1761685200000,112808.05000000,113225.53000000,112211.00000000,112994.40000000,726.23538000
1761688800000,112994.41000000,113289.02000000,112838.81000000,113224.08000000,336.06989000
1761692400000,113224.08000000,113224.08000000,112779.57000000,112898.45000000,383.04632000
1761696000000,112898.44000000,112898.45000000,112442.87000000,112442.88000000,505.29871000
1761699600000,112442.87000000,112975.75000000,112100.00000000,112500.03000000,916.66416000
1761703200000,112500.03000000,112780.00000000,112414.47000000,112666.75000000,352.69724000
1761706800000,112666.75000000,112666.75000000,112339.77000000,112523.49000000,301.56130000
1761710400000,112523.49000000,112878.65000000,112505.58000000,112810.55000000,311.50456000
1761714000000,112810.56000000,113379.00000000,112807.34000000,113039.10000000,640.93765000
1761717600000,113039.09000000,113348.78000000,112976.93000000,113284.20000000,443.58086000
1761721200000,113284.21000000,113577.90000000,113240.01000000,113577.90000000,640.61019000
1761724800000,113577.90000000,113624.12000000,112956.00000000,113070.94000000,507.26681000
1761728400000,113070.94000000,113105.08000000,112768.63000000,112974.44000000,659.57288000
1761732000000,112974.44000000,113186.58000000,112732.91000000,112870.01000000,425.87130000
1761735600000,112870.00000000,113240.72000000,112741.26000000,113132.36000000,378.28227000
1761739200000,113132.35000000,113325.13000000,113050.01000000,113139.13000000,343.38468000
1761742800000,113139.13000000,113643.73000000,112705.00000000,112873.07000000,1155.92441000
1761746400000,112873.08000000,112916.00000000,112234.74000000,112488.44000000,1185.34226000
1761750000000,112488.45000000,112564.31000000,111401.50000000,111509.74000000,1921.74476000
1761753600000,111509.74000000,111523.32000000,110960.00000000,111106.35000000,1388.36304000
1761757200000,111106.35000000,111922.44000000,111002.23000000,111883.49000000,811.18965000
1761760800000,111883.50000000,112030.23000000,109200.00000000,110806.38000000,4372.18973000
1761764400000,110806.38000000,111438.65000000,110157.03000000,110640.00000000,1170.09639000
1761768000000,110640.00000000,111538.16000000,110403.28000000,111433.46000000,728.51015000
1761771600000,111433.45000000,111800.00000000,111368.02000000,111617.26000000,405.07841000
1761775200000,111617.26000000,111618.46000000,110949.68000000,111028.20000000,447.25113000
1761778800000,111028.20000000,111077.76000000,109733.22000000,110021.29000000,1066.79122000
1761782400000,110021.30000000,110583.86000000,109703.43000000,110559.48000000,649.59178000
1761786000000,110559.48000000,110725.64000000,110257.77000000,110460.76000000,575.63954000
1761789600000,110460.75000000,111011.99000000,110331.04000000,110985.92000000,488.21463000
1761793200000,110985.93000000,110985.93000000,110538.68000000,110751.47000000,628.73987000
1761796800000,110751.48000000,110761.43000000,107925.06000000,108575.27000000,3536.96505000
1761800400000,108575.26000000,110434.58000000,108420.00000000,110248.29000000,1212.17428000
1761804000000,110248.28000000,110964.09000000,109978.01000000,110768.01000000,1000.82897000
1761807600000,110768.01000000,111592.00000000,110639.25000000,111366.72000000,831.79805000
1761811200000,111366.72000000,111467.01000000,110681.22000000,110714.31000000,1187.21618000
1761814800000,110714.31000000,110814.00000000,110125.17000000,110171.69000000,659.11121000
1761818400000,110171.68000000,110231.92000000,109829.54000000,110105.75000000,573.15523000
1761822000000,110105.75000000,110144.25000000,109692.30000000,109717.29000000,551.05951000
1761825600000,109717.19000000,109777.93000000,108280.65000000,108387.86000000,1449.48653000
1761829200000,108387.86000000,108728.54000000,107400.00000000,107627.16000000,2868.53704000
1761832800000,107627.15000000,108374.21000000,107610.44000000,108285.54000000,1206.17345000
1761836400000,108285.54000000,108350.44000000,107328.00000000,107711.56000000,1019.91386000
1761840000000,107711.56000000,108214.85000000,107559.98000000,108144.57000000,667.54851000
1761843600000,108144.58000000,108150.56000000,106801.00000000,107486.69000000,1492.47982000
1761847200000,107486.69000000,107556.65000000,106791.78000000,106837.09000000,766.54153000
1761850800000,106837.09000000,107158.62000000,106304.34000000,106536.39000000,1440.69222000
1761854400000,106536.39000000,107652.00000000,106316.17000000,107510.91000000,1205.05225000
1761858000000,107510.91000000,107950.00000000,107400.00000000,107907.68000000,846.16919000
1761861600000,107907.67000000,107939.00000000,107472.00000000,107912.81000000,333.78851000
1761865200000,107912.81000000,108334.53000000,107600.01000000,108322.88000000,797.95117000
1761868800000,108322.87000000,109586.94000000,108275.28000000,109317.21000000,1084.42941000
1761872400000,109317.21000000,110042.16000000,109180.00000000,109619.77000000,1402.71517000
1761876000000,109619.77000000,109685.32000000,108565.26000000,108857.99000000,866.79172000
1761879600000,108858.00000000,109324.40000000,108613.11000000,109227.86000000,820.34500000
1761883200000,109227.87000000,110215.00000000,109114.88000000,110084.02000000,1133.07928000
1761886800000,110084.02000000,110084.03000000,109691.92000000,109899.15000000,939.00824000
1761890400000,109899.15000000,109968.71000000,109517.49000000,109650.00000000,532.21593000
1761894000000,109650.00000000,109807.90000000,109266.58000000,109449.31000000,994.16577000
1761897600000,109449.32000000,110100.00000000,109214.13000000,110062.44000000,719.63357000
1761901200000,110062.45000000,110450.00000000,109807.89000000,109848.39000000,632.93862000
1761904800000,109848.39000000,110117.32000000,109710.08000000,109819.20000000,375.06762000
1761908400000,109819.21000000,110550.00000000,109461.53000000,110415.61000000,712.18313000
1761912000000,110415.62000000,110681.00000000,109619.94000000,109653.19000000,904.10139000
1761915600000,109653.20000000,110240.00000000,109366.91000000,110157.54000000,1164.32028000
1761919200000,110157.54000000,111054.61000000,109590.46000000,110790.14000000,2487.24179000
1761922800000,110790.14000000,111190.00000000,110132.02000000,110202.90000000,1557.65344000
1761926400000,110202.90000000,110300.00000000,108671.25000000,108845.40000000,1222.91214000
1761930000000,108845.40000000,109417.91000000,108635.00000000,109299.98000000,1008.03929000
1761933600000,109299.98000000,109817.51000000,108974.76000000,109452.35000000,808.98594000
1761937200000,109452.20000000,110237.66000000,109114.52000000,109828.78000000,824.47324000
1761940800000,109828.78000000,109828.79000000,109438.12000000,109493.85000000,531.76370000
1761944400000,109493.84000000,109750.00000000,109329.15000000,109558.48000000,331.78769000
1761948000000,109558.48000000,109801.89000000,109483.66000000,109580.09000000,286.93529000
1761951600000,109580.08000000,109683.31000000,109518.22000000,109608.01000000,177.41674000
1761955200000,109608.01000000,109751.99000000,109394.81000000,109730.78000000,314.60723000
1761958800000,109730.78000000,110048.00000000,109699.84000000,109734.11000000,205.95055000
1761962400000,109734.10000000,109872.29000000,109478.09000000,109790.27000000,322.30901000
1761966000000,109790.27000000,110315.54000000,109789.17000000,110226.37000000,486.66403000
1761969600000,110226.38000000,110564.49000000,110109.58000000,110291.67000000,486.28878000
1761973200000,110291.66000000,110382.87000000,110050.00000000,110140.79000000,231.47577000
1761976800000,110140.78000000,110175.38000000,109933.86000000,110004.82000000,272.13630000
1761980400000,110004.82000000,110251.67000000,109992.78000000,110071.40000000,284.01087000
1761984000000,110071.40000000,110270.90000000,110071.40000000,110248.88000000,310.52873000
1761987600000,110248.88000000,110254.55000000,109970.18000000,109991.29000000,350.98951000
1761991200000,109991.29000000,110169.23000000,109854.72000000,110147.83000000,273.03449000
1761994800000,110147.83000000,110238.78000000,110000.01000000,110137.59000000,193.43473000
1761998400000,110137.59000000,110200.00000000,110000.01000000,110017.27000000,289.94506000
1762002000000,110017.26000000,110054.96000000,109702.66000000,109946.27000000,273.80468000
1762005600000,109946.26000000,109993.98000000,109728.94000000,109933.85000000,343.69011000
1762009200000,109933.86000000,110348.00000000,109910.22000000,110310.65000000,619.56524000
1762012800000,110310.65000000,110529.99000000,110208.49000000,110464.33000000,670.42039000
1762016400000,110464.33000000,110495.04000000,110192.00000000,110208.97000000,297.51556000
1762020000000,110208.96000000,110361.03000000,110193.43000000,110341.27000000,169.41416000
1762023600000,110341.28000000,110341.28000000,110220.77000000,110299.99000000,109.98551000
1762027200000,110300.00000000,110516.17000000,110298.17000000,110406.20000000,211.21273000
1762030800000,110406.21000000,110426.00000000,109858.44000000,109862.85000000,273.04557000
1762034400000,109862.85000000,110098.59000000,109862.84000000,110092.78000000,259.45939000
1762038000000,110092.79000000,110144.49000000,109974.00000000,110098.10000000,129.01591000
1762041600000,110098.10000000,110127.26000000,109895.27000000,109974.09000000,318.19118000
1762045200000,109974.09000000,110091.36000000,109921.05000000,109978.01000000,159.66153000
1762048800000,109978.01000000,110263.91000000,109879.39000000,110015.77000000,233.11834000
1762052400000,110015.76000000,110086.82000000,109962.06000000,110053.23000000,145.30218000
1762056000000,110053.22000000,110784.13000000,110030.06000000,110670.27000000,1380.24287000
1762059600000,110670.27000000,110714.04000000,110274.65000000,110497.98000000,1261.57372000
1762063200000,110497.98000000,110725.90000000,110274.90000000,110663.89000000,867.85040000
1762066800000,110663.90000000,111045.09000000,110429.70000000,110895.53000000,919.53603000
1762070400000,110895.53000000,111013.43000000,110716.52000000,110850.17000000,518.64490000
1762074000000,110850.17000000,111037.94000000,110525.89000000,110714.00000000,566.42995000
1762077600000,110714.00000000,110876.53000000,110346.15000000,110492.00000000,715.95933000
1762081200000,110491.99000000,111229.78000000,110482.60000000,111196.99000000,627.26421000
1762084800000,111196.99000000,111250.01000000,110678.25000000,110736.24000000,460.53292000
1762088400000,110736.24000000,110766.79000000,110173.84000000,110568.65000000,420.28873000
1762092000000,110568.65000000,110667.62000000,110202.16000000,110422.24000000,420.72705000
1762095600000,110422.24000000,110566.86000000,110096.32000000,110117.48000000,387.83077000
1762099200000,110117.49000000,110143.53000000,109735.59000000,110115.34000000,614.25585000
1762102800000,110115.34000000,110263.91000000,110027.93000000,110190.40000000,215.89779000
1762106400000,110190.41000000,110331.00000000,110174.33000000,110331.00000000,137.67403000
1762110000000,110331.00000000,110331.00000000,109960.95000000,110180.84000000,217.64836000
1762113600000,110180.85000000,110213.20000000,109890.34000000,110086.70000000,208.23814000
1762117200000,110086.70000000,110126.94000000,109972.00000000,109990.90000000,196.61258000
1762120800000,109990.91000000,110012.00000000,109471.34000000,109899.99000000,458.99057000
1762124400000,109900.00000000,110742.26000000,109900.00000000,110540.68000000,654.52944000
1762128000000,110540.69000000,110750.00000000,109757.10000000,109757.11000000,449.08984000
1762131600000,109757.10000000,109910.33000000,109366.75000000,109665.50000000,905.23675000
1762135200000,109665.50000000,109754.14000000,108666.66000000,109033.83000000,1088.01796000
1762138800000,109033.84000000,109155.74000000,107907.44000000,107937.45000000,1524.18495000
1762142400000,107937.45000000,107999.53000000,107480.13000000,107900.37000000,1058.54590000
1762146000000,107900.37000000,108075.00000000,107400.00000000,107606.75000000,815.12463000
1762149600000,107606.75000000,107714.05000000,107006.05000000,107494.23000000,1115.28935000
1762153200000,107494.24000000,107832.45000000,107272.93000000,107468.23000000,874.56308000
1762156800000,107468.23000000,107705.15000000,106888.00000000,107586.97000000,1033.44721000
1762160400000,107586.98000000,107912.86000000,107083.33000000,107197.94000000,675.70561000
1762164000000,107197.95000000,107621.06000000,106726.63000000,106974.99000000,987.39790000
1762167600000,106974.99000000,107920.92000000,106963.00000000,107787.42000000,774.01269000
1762171200000,107787.42000000,108265.44000000,107713.10000000,107768.90000000,742.62608000
1762174800000,107768.91000000,108068.59000000,107574.77000000,107908.68000000,647.66063000
1762178400000,107908.68000000,108333.00000000,107369.01000000,108059.99000000,919.91286000
1762182000000,108060.00000000,108148.81000000,105511.00000000,105745.71000000,3853.95819000
1762185600000,105745.71000000,106798.01000000,105306.56000000,106678.44000000,3622.24107000
1762189200000,106678.43000000,107783.20000000,106536.11000000,107481.19000000,1563.75664000
1762192800000,107481.20000000,107599.85000000,106813.00000000,106961.62000000,1651.54985000
1762196400000,106961.61000000,107395.25000000,106455.23000000,107090.00000000,950.86728000
1762200000000,107090.00000000,107169.68000000,106310.43000000,106657.55000000,850.20850000
1762203600000,106657.55000000,107094.27000000,106088.73000000,106888.71000000,790.25915000
1762207200000,106888.71000000,106888.71000000,105755.59000000,106489.95000000,1150.56648000
1762210800000,106489.94000000,106750.00000000,106030.14000000,106583.04000000,636.96519000
1762214400000,106583.05000000,106808.51000000,105852.37000000,106471.45000000,1195.65517000
1762218000000,106471.45000000,107298.74000000,106277.46000000,107040.01000000,1133.99025000
1762221600000,107040.00000000,107243.23000000,106477.10000000,106482.60000000,701.66328000
1762225200000,106482.61000000,107233.83000000,106223.14000000,107158.79000000,1057.66983000
1762228800000,107158.79000000,107299.00000000,106703.82000000,106750.14000000,745.43101000
1762232400000,106750.14000000,106750.15000000,104200.00000000,104215.76000000,3268.35780000
1762236000000,104215.76000000,105201.00000000,104200.00000000,104766.14000000,2382.47316000
1762239600000,104766.14000000,104997.64000000,104317.56000000,104490.72000000,1633.60477000
1762243200000,104490.73000000,104631.39000000,103759.99000000,104051.90000000,1804.04853000
1762246800000,104051.90000000,104138.65000000,103636.00000000,103857.96000000,1455.72161000
1762250400000,103857.96000000,104106.55000000,103605.00000000,103816.39000000,1073.24239000
1762254000000,103816.39000000,104699.07000000,103774.33000000,104584.76000000,988.08793000
1762257600000,104584.75000000,104638.29000000,103844.39000000,103952.54000000,1216.95881000
1762261200000,103952.54000000,104243.67000000,103576.00000000,103924.25000000,1018.30395000
1762264800000,103924.26000000,104694.28000000,102915.05000000,104500.01000000,2915.82303000
1762268400000,104500.01000000,104842.63000000,103185.89000000,103197.01000000,2271.81312000
1762272000000,103197.02000000,103500.05000000,102164.00000000,102257.70000000,3313.32683000
1762275600000,102257.70000000,102257.70000000,100800.00000000,101114.83000000,4223.40802000
1762279200000,101114.82000000,101492.74000000,100010.73000000,101363.98000000,4101.41064000
1762282800000,101363.97000000,101711.84000000,100414.00000000,100542.64000000,1814.79036000
1762286400000,100542.64000000,101119.40000000,99600.00000000,100755.43000000,4335.57159000
1762290000000,100755.42000000,100831.49000000,98944.36000000,100311.46000000,4105.76650000
1762293600000,100311.46000000,101893.09000000,100082.00000000,101295.71000000,2258.84809000
1762297200000,101295.70000000,101740.00000000,100907.36000000,101497.22000000,1518.90709000
1762300800000,101497.23000000,101752.96000000,100350.00000000,100564.30000000,1452.38181000
1762304400000,100564.30000000,101015.01000000,98966.80000000,100761.62000000,3025.00486000
1762308000000,100761.62000000,101922.98000000,100754.54000000,101677.93000000,3700.99085000
1762311600000,101677.94000000,102272.23000000,101461.98000000,102130.00000000,2834.46709000
1762315200000,102130.00000000,102236.92000000,101517.47000000,101998.30000000,2059.55564000
1762318800000,101998.30000000,102370.00000000,101595.00000000,101824.89000000,1088.37371000
1762322400000,101824.89000000,102139.36000000,101500.00000000,102119.99000000,869.66608000
1762326000000,102120.00000000,102152.58000000,101601.71000000,101993.02000000,644.24535000
1762329600000,101993.03000000,102000.02000000,101176.47000000,101699.74000000,1179.77273000
1762333200000,101699.74000000,102203.48000000,101608.00000000,101995.29000000,785.11664000
1762336800000,101995.28000000,101995.29000000,101285.09000000,101401.97000000,724.99165000
1762340400000,101401.97000000,102110.48000000,101381.68000000,102070.61000000,887.62047000
1762344000000,102070.62000000,102800.71000000,101916.77000000,102673.35000000,1241.26951000
1762347600000,102673.34000000,103253.39000000,102291.82000000,102985.91000000,1451.58240000
1762351200000,102985.90000000,103470.00000000,102169.06000000,103202.30000000,1801.60223000
1762354800000,103202.30000000,103798.37000000,102829.51000000,103728.30000000,1851.46451000
1762358400000,103728.30000000,104039.66000000,103057.56000000,103919.20000000,1677.80348000
1762362000000,103919.20000000,104000.00000000,103388.46000000,103904.05000000,1795.89346000
1762365600000,103904.05000000,104429.75000000,103759.53000000,104347.40000000,1222.46217000
1762369200000,104347.41000000,104529.41000000,103986.96000000,104008.09000000,796.61274000
1762372800000,104008.09000000,104534.74000000,103620.00000000,103831.22000000,881.47869000
1762376400000,103831.22000000,103831.22000000,103500.80000000,103672.37000000,586.96502000
1762380000000,103672.38000000,103798.95000000,103305.05000000,103706.55000000,686.44411000
1762383600000,103706.55000000,104100.00000000,103667.26000000,103885.16000000,533.01051000
1762387200000,103885.16000000,103897.86000000,103324.21000000,103677.72000000,1223.43533000
1762390800000,103677.71000000,103677.72000000,102716.26000000,103365.65000000,1156.07343000
1762394400000,103365.64000000,103567.93000000,102855.66000000,103321.81000000,711.05988000
1762398000000,103321.80000000,103933.33000000,103315.48000000,103636.03000000,691.22573000
1762401600000,103636.92000000,104200.00000000,103580.00000000,104030.79000000,671.34024000
1762405200000,104030.80000000,104030.80000000,103088.00000000,103143.57000000,755.30818000
1762408800000,103143.57000000,103591.47000000,103006.17000000,103318.75000000,555.63033000
1762412400000,103318.76000000,103561.94000000,102910.66000000,103185.48000000,988.58677000
1762416000000,103184.75000000,103440.00000000,102971.99000000,103200.26000000,647.13062000
1762419600000,103200.26000000,103261.93000000,102810.00000000,102810.01000000,536.64925000
1762423200000,102810.01000000,103288.59000000,102651.63000000,103122.54000000,932.94397000
1762426800000,103122.54000000,103300.01000000,102743.82000000,103227.58000000,540.52931000
1762430400000,103227.59000000,103333.18000000,102383.64000000,102552.38000000,1051.14565000
1762434000000,102552.39000000,103626.46000000,102552.38000000,103319.71000000,941.18298000
1762437600000,103319.71000000,103579.68000000,102044.63000000,102125.00000000,1661.00797000
1762441200000,102124.99000000,102932.94000000,101630.00000000,102014.48000000,3027.20967000
1762444800000,102014.49000000,102393.51000000,100300.95000000,100867.20000000,3035.72721000
1762448400000,100867.19000000,101946.31000000,100770.57000000,101804.01000000,1310.77048000
1762452000000,101804.02000000,102338.00000000,100916.74000000,101722.13000000,956.16247000
1762455600000,101722.12000000,101999.44000000,101202.73000000,101388.81000000,756.60374000
1762459200000,101388.82000000,101643.28000000,100638.55000000,100914.11000000,812.36283000
1762462800000,100914.11000000,101220.90000000,100541.17000000,101117.17000000,938.29195000
1762466400000,101117.17000000,101480.00000000,101009.70000000,101415.05000000,639.89634000
1762470000000,101415.05000000,101538.00000000,101132.60000000,101346.04000000,1274.34706000
1762473600000,101346.04000000,101640.00000000,100749.94000000,101479.78000000,823.54705000
1762477200000,101479.79000000,101894.83000000,100905.10000000,101538.96000000,1095.04627000
1762480800000,101538.96000000,101928.99000000,101242.79000000,101905.11000000,779.48744000
1762484400000,101905.12000000,102500.00000000,101876.03000000,101916.29000000,1267.53296000
1762488000000,101916.30000000,102100.25000000,101582.92000000,102027.19000000,798.08441000
1762491600000,102027.20000000,102527.00000000,102024.75000000,102447.47000000,701.21696000
1762495200000,102447.48000000,102496.00000000,101819.10000000,101819.10000000,469.88373000
1762498800000,101819.11000000,102010.00000000,101638.43000000,102010.00000000,1093.42589000
1762502400000,102009.99000000,102050.00000000,101438.39000000,101496.18000000,817.45963000
1762506000000,101496.18000000,101512.51000000,100775.65000000,101013.66000000,1382.92001000
1762509600000,101013.67000000,101250.03000000,100564.43000000,100770.85000000,1279.53134000
1762513200000,100770.85000000,100796.86000000,99803.58000000,100411.89000000,3120.50016000
1762516800000,100411.89000000,100625.00000000,99260.86000000,99638.28000000,1799.68202000
1762520400000,99638.29000000,100579.72000000,99455.10000000,100347.35000000,1635.46609000
1762524000000,100347.35000000,100922.78000000,99519.32000000,100806.08000000,2597.13075000
1762527600000,100806.70000000,101253.99000000,100353.45000000,100797.95000000,2600.73788000
1762531200000,100797.95000000,101628.43000000,100517.06000000,101169.20000000,1975.20246000
1762534800000,101169.19000000,102736.84000000,100942.73000000,102397.12000000,2091.96075000
1762538400000,102397.13000000,102859.99000000,102282.20000000,102609.46000000,1585.11088000
1762542000000,102609.46000000,103395.25000000,102481.75000000,103395.25000000,1184.29403000
1762545600000,103395.92000000,103900.00000000,102958.00000000,103783.09000000,970.62813000
1762549200000,103783.08000000,103879.23000000,103311.33000000,103879.23000000,743.31566000
1762552800000,103879.22000000,104096.36000000,103595.38000000,103633.03000000,736.65333000
1762556400000,103633.04000000,103759.36000000,103329.79000000,103339.08000000,510.69159000
1762560000000,103339.09000000,103406.22000000,102539.49000000,102713.15000000,877.26495000
1762563600000,102713.15000000,103240.32000000,102662.25000000,102996.84000000,498.24095000
1762567200000,102996.85000000,103333.33000000,102766.31000000,102846.65000000,494.72835000
1762570800000,102846.66000000,103293.21000000,102592.75000000,102592.76000000,531.57226000
1762574400000,102592.76000000,102836.00000000,102409.52000000,102565.03000000,602.92361000
1762578000000,102565.03000000,102733.83000000,102272.66000000,102304.00000000,396.06427000
1762581600000,102304.01000000,102519.03000000,102092.26000000,102215.62000000,590.77493000
1762585200000,102215.63000000,102399.88000000,101902.64000000,102352.96000000,452.19970000
1762588800000,102352.96000000,102687.72000000,102156.36000000,102431.74000000,470.18368000
1762592400000,102431.74000000,102615.53000000,102225.52000000,102399.46000000,359.62626000
1762596000000,102399.45000000,102575.35000000,102310.00000000,102480.04000000,301.03917000
1762599600000,102480.04000000,102630.14000000,101715.76000000,101857.10000000,707.36146000
1762603200000,101857.10000000,102108.00000000,101731.19000000,102065.14000000,439.24627000
1762606800000,102065.14000000,102186.99000000,101720.67000000,101804.63000000,952.83284000
1762610400000,101804.62000000,102083.67000000,101454.00000000,101827.19000000,1159.38189000
1762614000000,101827.19000000,101954.00000000,101500.00000000,101711.45000000,511.67056000
1762617600000,101711.46000000,101963.66000000,101525.98000000,101850.22000000,502.57143000
1762621200000,101850.23000000,102003.57000000,101549.85000000,101994.52000000,479.97599000
1762624800000,101994.53000000,102219.39000000,101824.86000000,102139.53000000,766.44634000
1762628400000,102139.52000000,102186.87000000,101522.08000000,101989.65000000,371.41335000
1762632000000,101989.65000000,102172.35000000,101957.94000000,102068.06000000,206.62460000
1762635600000,102068.06000000,102367.72000000,102028.62000000,102272.81000000,234.42240000
1762639200000,102272.82000000,102426.12000000,102171.73000000,102377.46000000,249.46029000
1762642800000,102377.46000000,102482.20000000,102276.82000000,102312.94000000,234.75430000
1762646400000,102312.95000000,102337.89000000,101620.23000000,101797.74000000,616.42627000
1762650000000,101797.74000000,102100.00000000,101686.72000000,102045.07000000,373.40232000
1762653600000,102045.07000000,102045.07000000,101568.41000000,101633.25000000,398.65792000
1762657200000,101633.25000000,101817.20000000,101400.00000000,101662.05000000,767.84962000
1762660800000,101662.05000000,102130.61000000,101635.96000000,101724.91000000,378.19223000
1762664400000,101724.90000000,102028.07000000,101680.02000000,101928.54000000,291.74297000
1762668000000,101928.54000000,101980.00000000,101712.17000000,101752.83000000,213.04181000
1762671600000,101752.83000000,101972.90000000,101681.75000000,101944.59000000,218.68631000
1762675200000,101944.60000000,102048.15000000,101813.73000000,101972.94000000,216.75810000
1762678800000,101972.94000000,102127.26000000,101631.62000000,101657.46000000,411.11856000
1762682400000,101657.46000000,101918.00000000,101500.00000000,101876.36000000,695.12490000
1762686000000,101876.36000000,102307.68000000,101876.35000000,102239.41000000,502.56822000
1762689600000,102239.41000000,102425.19000000,102050.64000000,102086.90000000,522.32408000
1762693200000,102086.91000000,102997.38000000,102067.09000000,102911.39000000,788.58745000
1762696800000,102911.40000000,104041.25000000,102769.99000000,103037.90000000,2232.81061000
1762700400000,103037.90000000,104168.00000000,102972.55000000,103762.17000000,1143.92670000
1762704000000,103762.18000000,103900.53000000,103316.23000000,103845.04000000,741.52049000
1762707600000,103845.04000000,103964.81000000,103329.49000000,103637.57000000,460.77714000
1762711200000,103637.58000000,104591.32000000,103520.00000000,104512.65000000,773.02957000
1762714800000,104512.66000000,104805.57000000,104153.84000000,104805.57000000,849.18697000
1762718400000,104805.57000000,105061.08000000,104414.40000000,104633.12000000,700.89351000
1762722000000,104633.13000000,104845.16000000,104314.89000000,104528.82000000,475.91997000
1762725600000,104528.82000000,104819.99000000,104058.59000000,104732.48000000,1344.74595000
1762729200000,104732.47000000,105495.62000000,104533.24000000,104722.96000000,1221.67929000
1762732800000,104722.95000000,106525.00000000,104265.02000000,106314.96000000,2711.00239000
1762736400000,106314.96000000,106670.11000000,105698.94000000,105699.99000000,2166.65056000
1762740000000,105700.00000000,106054.26000000,105556.68000000,106006.69000000,775.83999000
1762743600000,106006.70000000,106291.43000000,105843.22000000,106027.97000000,847.84998000
1762747200000,106027.97000000,106300.01000000,105846.26000000,106153.14000000,677.49361000
1762750800000,106153.14000000,106473.73000000,106000.00000000,106100.00000000,619.39822000
1762754400000,106100.00000000,106311.90000000,105963.30000000,106221.88000000,531.36548000
1762758000000,106221.89000000,106539.40000000,106156.70000000,106461.45000000,855.88178000
1762761600000,106461.46000000,106554.00000000,105900.00000000,105965.46000000,758.17354000
1762765200000,105965.46000000,106599.47000000,105836.00000000,106440.00000000,736.84126000
1762768800000,106440.00000000,106454.73000000,105962.15000000,105995.26000000,470.32569000
1762772400000,105995.26000000,106321.16000000,105955.29000000,106176.50000000,391.10179000
1762776000000,106176.50000000,106216.00000000,105868.00000000,105944.17000000,656.39469000
1762779600000,105944.17000000,106589.89000000,105923.57000000,106548.02000000,785.48627000
1762783200000,106548.02000000,106548.02000000,104681.90000000,104898.15000000,1937.55608000
1762786800000,104898.15000000,105628.00000000,104667.00000000,105079.99000000,2341.34370000
1762790400000,105079.99000000,105352.86000000,104784.36000000,105242.05000000,1018.54158000
1762794000000,105242.04000000,105981.79000000,105189.01000000,105953.10000000,695.86986000
1762797600000,105953.10000000,106094.31000000,105478.00000000,105478.00000000,580.04807000
1762801200000,105478.00000000,106042.46000000,105408.00000000,105817.99000000,461.94988000
1762804800000,105818.00000000,106299.22000000,105802.35000000,106010.73000000,635.97915000
1762808400000,106010.74000000,106021.35000000,105280.00000000,105631.27000000,1140.24521000
1762812000000,105631.26000000,106144.94000000,105364.68000000,106062.80000000,418.65674000
1762815600000,106062.81000000,106275.16000000,105893.36000000,106011.13000000,468.26121000
1762819200000,106011.13000000,106139.84000000,105500.00000000,106139.83000000,562.07527000
1762822800000,106139.82000000,107500.00000000,106026.79000000,106110.36000000,1869.15910000
1762826400000,106110.36000000,107130.00000000,105610.00000000,106655.02000000,1751.73895000
1762830000000,106655.02000000,107100.00000000,106363.04000000,106456.00000000,752.05430000
1762833600000,106456.00000000,106546.00000000,105714.24000000,105755.32000000,640.19881000
1762837200000,105755.33000000,105758.88000000,105166.66000000,105249.35000000,774.38555000
1762840800000,105249.35000000,105345.68000000,104888.00000000,105261.27000000,1146.86686000
1762844400000,105261.28000000,105327.75000000,104741.20000000,104783.98000000,754.78302000
1762848000000,104783.99000000,105284.69000000,104762.23000000,105157.80000000,509.99239000
1762851600000,105157.80000000,105485.71000000,104909.74000000,104971.63000000,505.20070000
1762855200000,104971.62000000,105237.16000000,104920.25000000,105176.38000000,417.15368000
1762858800000,105176.39000000,105497.99000000,105145.47000000,105311.90000000,372.28222000
1762862400000,105311.90000000,105500.00000000,104349.26000000,104530.83000000,2106.11964000
1762866000000,104530.83000000,104706.09000000,104022.92000000,104390.92000000,3314.65247000
1762869600000,104390.93000000,104665.67000000,103840.91000000,104560.16000000,1215.16933000
1762873200000,104560.15000000,104560.15000000,103170.33000000,103455.99000000,2215.12756000
1762876800000,103455.99000000,103730.00000000,103206.10000000,103399.43000000,664.19158000
1762880400000,103399.42000000,103637.27000000,102840.22000000,103338.99000000,917.43867000
1762884000000,103338.99000000,103572.37000000,103059.52000000,103401.07000000,487.03154000
1762887600000,103401.07000000,103453.07000000,102861.72000000,103126.39000000,479.29730000
1762891200000,103126.39000000,103224.29000000,102658.36000000,102809.27000000,742.04221000
1762894800000,102809.27000000,103090.69000000,102476.09000000,102633.92000000,796.94775000
1762898400000,102633.92000000,103150.02000000,102503.00000000,103000.01000000,652.65633000
1762902000000,103000.02000000,103209.13000000,102800.01000000,103058.99000000,549.94195000
1762905600000,103059.00000000,103340.59000000,102812.64000000,102885.99000000,598.51997000
1762909200000,102886.00000000,103394.01000000,102687.72000000,103254.64000000,999.58610000
1762912800000,103254.63000000,103413.09000000,102939.85000000,103151.66000000,705.65849000
1762916400000,103151.66000000,103440.96000000,103092.50000000,103310.00000000,368.29105000
1762920000000,103310.00000000,103456.82000000,103011.00000000,103246.87000000,320.89726000
1762923600000,103246.87000000,103467.20000000,103230.00000000,103385.30000000,465.38371000
1762927200000,103385.31000000,103654.38000000,103354.34000000,103366.97000000,689.47040000
1762930800000,103366.98000000,103534.98000000,103051.59000000,103112.66000000,689.87309000
1762934400000,103112.65000000,104228.90000000,103112.24000000,104147.24000000,1064.00216000
1762938000000,104147.25000000,105079.31000000,104145.98000000,104521.56000000,1348.44138000
1762941600000,104521.56000000,105038.59000000,104510.50000000,104899.99000000,611.04736000
1762945200000,104900.00000000,105200.00000000,104746.85000000,105020.83000000,520.21601000
1762948800000,105020.82000000,105333.33000000,104821.00000000,104993.74000000,538.28345000
1762952400000,104993.74000000,105187.13000000,104622.43000000,105039.99000000,652.43577000
1762956000000,105039.99000000,105039.99000000,103604.57000000,103990.40000000,1426.89556000
1762959600000,103990.39000000,104299.98000000,101961.97000000,102173.51000000,2574.38835000
1762963200000,102173.51000000,102285.18000000,101300.00000000,101442.61000000,2365.20417000
1762966800000,101442.62000000,102167.17000000,101397.74000000,101748.02000000,903.07839000
1762970400000,101748.01000000,101947.88000000,101416.69000000,101542.17000000,626.06370000
1762974000000,101542.18000000,101569.66000000,100813.59000000,101297.31000000,974.91965000
