timestamp,open,high,low,close,volume
1731859200000,90260.01000000,90640.18000000,89664.34000000,90044.00000000,3112.39163000
1731873600000,90044.00000000,90212.13000000,88722.00000000,89855.99000000,4734.41552000
1731888000000,89855.98000000,90935.44000000,89617.96000000,90668.58000000,3252.23252000
1731902400000,90668.58000000,92300.00000000,90438.85000000,91719.90000000,6378.66485000
1731916800000,91719.90000000,92211.99000000,90051.10000000,90275.13000000,6488.59666000
1731931200000,90275.13000000,92594.00000000,89376.90000000,92309.51000000,12873.97296000
1731945600000,92309.51000000,92584.95000000,89667.66000000,90608.26000000,9954.79626000
1731960000000,90608.26000000,91980.00000000,90224.02000000,90464.08000000,7596.77123000
1731974400000,90464.07000000,91529.00000000,90357.00000000,91428.00000000,3575.26612000
1731988800000,91428.00000000,92000.00000000,91238.09000000,91620.01000000,3893.80469000
1732003200000,91620.00000000,91950.00000000,91200.00000000,91652.02000000,3730.94665000
1732017600000,91652.01000000,92788.00000000,90975.80000000,92391.99000000,13823.62822000
1732032000000,92391.99000000,93905.51000000,92147.12000000,93227.87000000,11450.77730000
1732046400000,93227.87000000,93571.08000000,91320.00000000,92310.79000000,7185.62384000
1732060800000,92310.80000000,92418.68000000,91500.00000000,92039.99000000,4096.22399000
1732075200000,92039.99000000,92851.09000000,91850.00000000,92850.38000000,3477.17855000
1732089600000,92850.38000000,93669.98000000,92720.00000000,93454.65000000,6216.74888000
1732104000000,93454.65000000,94807.62000000,93314.49000000,94739.97000000,12702.54443200
1732118400000,94739.98000000,94831.97000000,93138.00000000,94000.00000000,10761.10690000
1732132800000,94000.00000000,94599.98000000,93770.07000000,94286.56000000,4949.39596000
1732147200000,94286.56000000,95904.00000000,94040.00000000,95798.12000000,9339.05750500
1732161600000,95798.12000000,97852.00000000,95798.11000000,96912.01000000,13220.18381900
1732176000000,96912.01000000,98384.86000000,96723.96000000,97974.99000000,10048.90103000
1732190400000,97975.00000000,98250.00000000,95600.00000000,96672.00000000,16850.11898000
1732204800000,96672.00000000,98988.00000000,96276.69000000,97829.83000000,13009.78113300
1732219200000,97829.84000000,98723.65000000,97533.18000000,98317.12000000,6760.31801000
1732233600000,98317.12000000,99299.99000000,97840.00000000,98836.50000000,7532.47490300
1732248000000,98836.49000000,99419.99000000,98517.21000000,99173.70000000,6632.86560000
1732262400000,99173.70000000,99267.19000000,98219.84000000,98870.38000000,6290.74803000
1732276800000,98870.39000000,98949.00000000,97122.11000000,98664.00000000,11263.93551000
1732291200000,98663.99000000,99588.01000000,98220.00000000,99079.74000000,9541.05621000
1732305600000,99079.74000000,99449.00000000,98535.00000000,98892.00000000,4928.22899000
1732320000000,98892.00000000,98908.85000000,98300.00000000,98666.67000000,3918.31400000
1732334400000,98666.66000000,98800.00000000,98284.61000000,98560.85000000,3360.38068000
1732348800000,98560.84000000,98623.76000000,98300.00000000,98429.99000000,3176.75105000
1732363200000,98430.00000000,98847.68000000,98400.00000000,98400.00000000,4138.68982000
1732377600000,98400.01000000,98459.56000000,97336.06000000,97504.00000000,7486.78427000
1732392000000,97504.00000000,98015.82000000,97136.00000000,97672.40000000,2676.92385000
1732406400000,97672.40000000,98564.00000000,97620.74000000,98200.10000000,3989.58138000
1732420800000,98200.10000000,98431.06000000,97872.20000000,98431.05000000,3583.35015000
1732435200000,98431.05000000,98472.98000000,97239.29000000,97280.03000000,3606.92172000
1732449600000,97280.04000000,97606.52000000,95900.01000000,95901.51000000,9382.31921000
1732464000000,95901.52000000,96747.98000000,95734.77000000,96320.02000000,5662.86960000
1732478400000,96320.01000000,98369.46000000,96195.47000000,97900.04000000,4975.93632000
1732492800000,97900.05000000,98050.00000000,96888.00000000,97898.80000000,3838.26336000
1732507200000,97898.81000000,98376.99000000,97491.66000000,98047.34000000,5230.71565000
1732521600000,98047.34000000,98871.80000000,97850.00000000,98188.09000000,5195.73129000
1732536000000,98188.09000000,98313.08000000,94525.00000000,96000.56000000,14345.48831000
1732550400000,96000.57000000,96500.00000000,94400.00000000,94669.48000000,10283.14008000
1732564800000,94669.49000000,95300.00000000,92600.19000000,93010.01000000,11954.11227000
1732579200000,93010.01000000,94923.69000000,92727.90000000,94464.00000000,6245.66011000
1732593600000,94464.00000000,94973.37000000,93500.08000000,93785.71000000,4722.02616000
1732608000000,93785.72000000,93785.72000000,91466.52000000,92356.85000000,13592.93588000
1732622400000,92356.84000000,93559.00000000,91739.70000000,92813.00000000,13179.13015000
1732636800000,92812.99000000,94685.60000000,91554.11000000,91683.89000000,10628.56926000
1732651200000,91683.90000000,92364.00000000,90791.10000000,91965.16000000,9490.40982000
1732665600000,91965.16000000,93037.38000000,91792.14000000,92588.00000000,5555.58018000
1732680000000,92588.00000000,93648.00000000,92361.66000000,93597.16000000,4840.27212000
1732694400000,93597.16000000,93885.60000000,93109.12000000,93367.99000000,3994.01189000
1732708800000,93367.99000000,95850.00000000,92847.84000000,95556.01000000,9868.59893000
1732723200000,95556.00000000,96631.68000000,95184.79000000,96627.99000000,9525.88556000
1732737600000,96627.99000000,97208.21000000,95731.72000000,95863.11000000,7369.07866000
1732752000000,95863.11000000,96564.00000000,94822.54000000,95471.43000000,6275.70277000
1732766400000,95471.44000000,95922.39000000,95063.15000000,95299.66000000,5014.99892000
1732780800000,95299.66000000,95780.00000000,94640.00000000,95452.01000000,4752.02590000
1732795200000,95452.00000000,96221.80000000,94900.00000000,95007.14000000,5548.28802000
1732809600000,95007.15000000,95435.68000000,94817.00000000,95119.48000000,3678.82621000
1732824000000,95119.48000000,96023.48000000,94698.00000000,95643.98000000,3544.70175000
1732838400000,95643.99000000,96859.00000000,95364.99000000,96590.36000000,3208.77651000
1732852800000,96590.35000000,96630.09000000,95600.03000000,95625.05000000,2916.98299000
1732867200000,95625.05000000,97358.21000000,95616.00000000,97237.91000000,4164.43477000
1732881600000,97237.91000000,98619.99000000,96768.00000000,98019.47000000,8857.57633000
1732896000000,98019.46000000,98440.00000000,96853.82000000,97329.73000000,5993.35722000
1732910400000,97329.73000000,97624.62000000,96981.01000000,97460.00000000,2560.65449000
1732924800000,97460.00000000,97463.95000000,96309.85000000,96640.02000000,3052.57440000
1732939200000,96640.02000000,97234.02000000,96532.70000000,96783.38000000,3397.39114000
1732953600000,96783.38000000,96968.78000000,96092.01000000,96267.99000000,2445.61538000
1732968000000,96267.99000000,96732.15000000,96242.14000000,96645.41000000,2060.42388000
1732982400000,96645.42000000,97062.50000000,96531.35000000,97019.68000000,1822.59102000
1732996800000,97019.69000000,97040.00000000,96320.99000000,96407.99000000,1725.23724000
1733011200000,96407.99000000,96672.49000000,95693.88000000,96336.75000000,3622.03491000
1733025600000,96336.76000000,96515.52000000,96195.99000000,96472.97000000,1284.90142000
1733040000000,96472.97000000,97179.04000000,96424.99000000,97108.89000000,2803.36709000
1733054400000,97108.89000000,97388.78000000,96660.88000000,97028.02000000,3260.08114000
1733068800000,97028.02000000,97523.41000000,96958.48000000,97178.73000000,2968.12339000
1733083200000,97178.73000000,97836.00000000,96800.01000000,97185.18000000,3000.09657000
1733097600000,97185.17000000,98130.00000000,96350.00000000,96483.75000000,5392.94900000
1733112000000,96483.75000000,96924.00000000,95749.97000000,95999.99000000,5378.45190000
1733126400000,95999.99000000,96112.00000000,94820.41000000,95128.68000000,6299.85507000
1733140800000,95128.67000000,97214.77000000,94766.00000000,97048.00000000,8297.68046000
1733155200000,97048.01000000,97356.69000000,94395.00000000,95816.00000000,8796.99302000
1733169600000,95816.01000000,96327.87000000,95112.01000000,95840.62000000,3792.74036000
1733184000000,95840.61000000,96305.52000000,95400.00000000,96079.36000000,3671.38924000
1733198400000,96079.36000000,96238.10000000,95277.35000000,95550.00000000,3510.45774000
1733212800000,95550.00000000,95662.94000000,94595.38000000,94988.01000000,4056.48891000
1733227200000,94988.00000000,96250.00000000,93578.17000000,95682.54000000,13543.07849000
1733241600000,95682.54000000,96169.99000000,94860.00000000,95428.60000000,5936.97324000
1733256000000,95428.61000000,96140.01000000,95272.50000000,95849.69000000,5108.93521000
1733270400000,95849.69000000,96614.16000000,95224.17000000,95770.32000000,4788.30848000
1733284800000,95770.32000000,96714.41000000,95717.54000000,96588.81000000,3607.43743000
1733299200000,96588.81000000,96950.00000000,96172.00000000,96190.41000000,3780.11030000
1733313600000,96190.41000000,96560.00000000,95352.41000000,95742.81000000,7959.19099000
1733328000000,95742.80000000,97232.01000000,94587.83000000,97209.64000000,9467.01122000
1733342400000,97209.64000000,99000.00000000,97128.52000000,98587.32000000,14248.47886000
1733356800000,98587.32000000,104088.00000000,97888.89000000,102964.00000000,29911.48943200
1733371200000,102964.00000000,103544.71000000,101324.16000000,102236.10000000,14930.57327000
1733385600000,102236.10000000,103159.76000000,102236.10000000,102566.91000000,9004.86605000
1733400000000,102566.91000000,103550.00000000,100925.97000000,101292.01000000,15250.81785000
1733414400000,101292.00000000,101999.00000000,98599.36000000,99028.00000000,14788.63995000
1733428800000,99028.01000000,99479.72000000,90500.00000000,96945.63000000,26035.34311000
1733443200000,96945.63000000,98828.70000000,95981.72000000,97735.29000000,10502.77687000
1733457600000,97735.29000000,98288.00000000,97370.19000000,98138.54000000,4600.17485000
1733472000000,98138.53000000,98705.23000000,97622.86000000,98069.62000000,5508.51297000
1733486400000,98069.61000000,99483.81000000,97512.26000000,99309.99000000,9368.18040000
1733500800000,99310.00000000,101799.00000000,98762.60000000,101439.99000000,9652.35617000
1733515200000,101439.99000000,101898.99000000,99053.03000000,99740.84000000,5417.53184000
1733529600000,99740.84000000,100428.00000000,99285.71000000,99299.63000000,2803.39835000
1733544000000,99299.64000000,99666.31000000,98844.00000000,99405.20000000,3254.00298000
1733558400000,99405.20000000,99821.83000000,99260.00000000,99620.00000000,2290.29479000
1733572800000,99620.00000000,99800.00000000,99036.01000000,99756.01000000,2409.08289000
1733587200000,99756.00000000,100263.64000000,99460.37000000,100077.45000000,2257.58478000
1733601600000,100077.45000000,100439.18000000,99595.11000000,99831.99000000,1917.58211000
1733616000000,99831.99000000,100328.88000000,99632.28000000,99934.82000000,1688.21452000
1733630400000,99934.83000000,100030.00000000,99336.00000000,99675.11000000,1590.35590000
1733644800000,99675.11000000,99844.28000000,98657.70000000,99701.16000000,2557.39593000
1733659200000,99701.17000000,100500.00000000,99357.16000000,99912.01000000,3388.44325000
1733673600000,99912.01000000,100198.00000000,99480.00000000,100100.98000000,2219.63339000
1733688000000,100100.99000000,101351.00000000,99736.06000000,101109.59000000,3168.95389000
1733702400000,101109.60000000,101215.93000000,98432.18000000,99090.84000000,6131.57247000
1733716800000,99090.84000000,99729.88000000,98328.00000000,99576.51000000,4641.05371000
1733731200000,99576.51000000,99679.71000000,98035.57000000,98088.47000000,5754.93600000
1733745600000,98088.47000000,100421.80000000,97508.58000000,97812.00000000,10565.60263000
1733760000000,97812.00000000,98398.00000000,97000.00000000,97070.32000000,7646.39206000
1733774400000,97070.33000000,97572.52000000,94150.05000000,97276.47000000,19209.55908000
1733788800000,97276.48000000,98138.00000000,95565.41000000,96931.99000000,7967.90111000
1733803200000,96931.99000000,97519.20000000,95900.00000000,97196.44000000,4851.30267000
1733817600000,97196.44000000,97937.50000000,96938.19000000,97722.52000000,3732.90811000
1733832000000,97722.53000000,98270.00000000,95555.00000000,95658.79000000,11589.32855000
1733846400000,95658.79000000,96500.00000000,94256.54000000,95856.50000000,17282.11364000
1733860800000,95856.50000000,97200.70000000,95616.00000000,96593.00000000,6285.13525000
1733875200000,96593.00000000,97625.76000000,95658.24000000,97398.43000000,6101.81371000
1733889600000,97398.42000000,97790.36000000,97181.70000000,97334.60000000,2882.63101000
1733904000000,97334.59000000,98472.57000000,97316.78000000,98292.61000000,3915.05820000
1733918400000,98292.61000000,100800.00000000,98072.33000000,100361.64000000,10646.28169000
1733932800000,100361.64000000,101141.01000000,99608.23000000,101122.71000000,9214.79257000
1733947200000,101122.71000000,101888.00000000,100866.42000000,101125.00000000,4993.20573000
1733961600000,101125.00000000,101829.00000000,100331.61000000,101025.87000000,4584.27765000
1733976000000,101025.88000000,101191.85000000,100402.82000000,100499.99000000,3018.02596000
1733990400000,100499.99000000,101126.54000000,100178.32000000,100358.42000000,2593.08394000
1734004800000,100358.42000000,101861.60000000,100348.35000000,101797.14000000,7527.72986000
1734019200000,101797.14000000,102540.00000000,99311.64000000,99481.32000000,7934.57131000
1734033600000,99481.33000000,100476.19000000,99465.33000000,100004.29000000,3574.39873000
1734048000000,100004.29000000,100356.85000000,99205.00000000,99729.09000000,3169.68724000
1734062400000,99729.09000000,100225.52000000,99500.00000000,100130.00000000,2722.44317000
1734076800000,100130.01000000,100789.00000000,99896.00000000,100353.37000000,2260.04806000
1734091200000,100353.37000000,101375.26000000,99700.00000000,99873.16000000,4395.11384000
1734105600000,99873.16000000,101895.26000000,99800.00000000,101462.34000000,6176.84479000
1734120000000,101462.34000000,101879.98000000,101090.90000000,101424.25000000,3179.90213000
1734134400000,101424.24000000,102650.00000000,101148.35000000,102088.00000000,4102.31163000
1734148800000,102088.00000000,102138.00000000,101590.90000000,101824.00000000,2355.50886000
1734163200000,101824.00000000,101863.64000000,101321.00000000,101583.99000000,1246.03828000
1734177600000,101584.00000000,101742.43000000,100826.38000000,101625.12000000,2737.98405000
1734192000000,101625.12000000,101737.70000000,100831.63000000,101313.54000000,2313.84837000
1734206400000,101313.54000000,101499.08000000,100609.41000000,101420.00000000,1436.01207000
1734220800000,101420.00000000,102196.97000000,101237.14000000,101733.82000000,2717.24990000
1734235200000,101733.83000000,102850.00000000,101534.01000000,101732.09000000,3091.00658000
1734249600000,101732.09000000,102691.01000000,101581.07000000,102671.44000000,1800.59415000
1734264000000,102671.44000000,103359.97000000,102473.01000000,102704.01000000,4918.19696000
1734278400000,102704.00000000,103490.00000000,102583.65000000,103252.95000000,2441.92022000
1734292800000,103252.96000000,105250.00000000,102621.50000000,104463.99000000,7259.95396500
1734307200000,104463.99000000,106648.00000000,104259.48000000,104582.28000000,8803.84824600
1734321600000,104582.28000000,105420.76000000,104469.89000000,104992.79000000,3083.27266000
1734336000000,104992.79000000,105016.85000000,103625.78000000,103757.99000000,3972.26006000
1734350400000,103758.00000000,106499.99000000,103333.00000000,106332.01000000,9289.30941000
1734364800000,106332.00000000,107793.07000000,105797.41000000,106583.12000000,11995.10426400
1734379200000,106583.13000000,106648.48000000,105480.02000000,106058.66000000,4158.60810000
1734393600000,106058.65000000,107000.00000000,105657.34000000,106866.49000000,3882.88127000
1734408000000,106866.50000000,107143.29000000,106368.45000000,106805.75000000,2937.82223000
1734422400000,106805.75000000,107550.02000000,106708.86000000,106808.31000000,3622.94784000
1734436800000,106808.31000000,108353.00000000,105725.99000000,106478.47000000,8939.18045600
1734451200000,106478.48000000,107633.00000000,106148.00000000,106475.89000000,5875.35581000
1734465600000,106475.89000000,106903.99000000,105321.49000000,106133.74000000,3806.74886000
1734480000000,106133.74000000,106524.98000000,104581.58000000,104763.98000000,5784.93924000
1734494400000,104763.99000000,104763.99000000,103137.82000000,104250.75000000,7256.63713000
1734508800000,104250.75000000,105033.33000000,103729.18000000,105028.33000000,2927.64166000
1734523200000,105028.33000000,105350.00000000,103650.00000000,104428.54000000,7242.86665000
1734537600000,104428.54000000,104999.98000000,102817.82000000,102817.82000000,9166.33778000
1734552000000,102817.82000000,102997.77000000,100000.00000000,100204.01000000,17929.57509000
1734566400000,100204.01000000,101310.25000000,98802.00000000,101193.15000000,11011.14924000
1734580800000,101193.15000000,101727.28000000,100629.99000000,101656.57000000,3199.07619000
1734595200000,101656.57000000,102609.72000000,101380.10000000,102449.99000000,4074.86626000
1734609600000,102450.00000000,102800.11000000,99500.00000000,100679.86000000,10496.80787000
1734624000000,100679.86000000,101200.00000000,96251.32000000,97199.72000000,15856.49892000
1734638400000,97199.72000000,98500.00000000,95700.00000000,97461.86000000,10508.99952000
1734652800000,97461.86000000,97814.09000000,96000.00000000,97106.02000000,8712.02871000
1734667200000,97106.02000000,98233.00000000,96374.03000000,97832.53000000,6871.39877000
1734681600000,97832.52000000,97864.91000000,92612.10000000,92723.98000000,19009.19125000
1734696000000,92723.99000000,97572.00000000,92232.54000000,96991.62000000,16343.30766000
1734710400000,96991.63000000,97748.00000000,96300.00000000,97116.00000000,7186.02296000
1734724800000,97116.00000000,97816.44000000,95393.84000000,97805.44000000,4762.18635000
1734739200000,97805.44000000,97813.59000000,97188.09000000,97487.46000000,2878.66863000
1734753600000,97487.47000000,99540.61000000,97378.50000000,99040.00000000,5467.95008000
1734768000000,99040.00000000,99187.95000000,97800.00000000,98262.08000000,3434.11954000
1734782400000,98262.08000000,98283.95000000,96398.39000000,97527.97000000,5930.10480000
1734796800000,97527.96000000,97723.18000000,96819.36000000,97269.03000000,2933.73741000
1734811200000,97269.03000000,98057.51000000,96539.91000000,97291.99000000,2838.96097000
1734825600000,97292.00000000,97448.08000000,96549.37000000,96994.37000000,1848.52784000
1734840000000,96994.37000000,97071.97000000,95890.28000000,96210.24000000,2981.41637000
1734854400000,96210.25000000,97351.57000000,96196.85000000,97101.28000000,2184.98880000
1734868800000,97101.29000000,97300.00000000,95109.13000000,95377.72000000,4444.90674000
1734883200000,95377.71000000,96444.45000000,94700.00000000,94836.55000000,3910.30845000
1734897600000,94836.55000000,95824.00000000,94250.35000000,95186.27000000,3983.68216000
1734912000000,95186.28000000,96043.99000000,93700.42000000,96025.15000000,6028.44240000
1734926400000,96025.15000000,96509.98000000,94705.07000000,95404.01000000,3919.13480000
1734940800000,95404.01000000,96538.92000000,95036.77000000,95932.42000000,3020.85272000
1734955200000,95932.41000000,96423.00000000,93107.52000000,93250.37000000,8316.98998000
1734969600000,93250.38000000,94260.00000000,92690.00000000,93044.79000000,6236.29663000
1734984000000,93044.79000000,95509.09000000,92520.00000000,94881.47000000,5289.05050000
1734998400000,94881.47000000,94881.47000000,93569.02000000,94348.75000000,3135.82400000
1735012800000,94348.75000000,94653.45000000,93810.45000000,94233.19000000,1999.49298000
1735027200000,94233.20000000,94635.70000000,93840.00000000,94398.60000000,1936.10063000
1735041600000,94398.60000000,98300.00000000,94075.10000000,98300.00000000,6970.36477000
1735056000000,98299.99000000,99487.99000000,97546.57000000,97581.09000000,6446.91305000
1735070400000,97581.10000000,99068.90000000,97250.00000000,98663.58000000,3185.52945000
1735084800000,98663.58000000,98878.44000000,97725.27000000,98029.48000000,2347.02600000
1735099200000,98029.49000000,98581.90000000,97844.18000000,98084.33000000,1454.63832000
1735113600000,98084.33000000,99349.31000000,97773.83000000,97907.61000000,3026.36685000
1735128000000,97907.61000000,98832.89000000,97632.02000000,98519.98000000,2843.35507000
1735142400000,98519.99000000,99299.99000000,98134.40000000,99018.52000000,2094.84554000
1735156800000,99018.52000000,99569.15000000,98384.61000000,99429.60000000,2707.93332000
1735171200000,99429.61000000,99963.70000000,98468.26000000,98995.17000000,3339.03441000
1735185600000,98995.18000000,98995.18000000,97711.17000000,97719.99000000,2538.93374000
1735200000000,97719.99000000,97772.13000000,95199.14000000,95695.81000000,6056.25765000
1735214400000,95695.81000000,96280.25000000,95234.93000000,96042.88000000,4267.56835000
1735228800000,96042.89000000,96621.95000000,95444.44000000,96102.25000000,2892.18792000
1735243200000,96102.24000000,96114.46000000,95302.00000000,95791.60000000,2098.38520000
1735257600000,95791.60000000,96443.68000000,95401.03000000,96417.84000000,2935.24410000
1735272000000,96417.84000000,96604.24000000,94646.03000000,95104.76000000,4600.52902000
1735286400000,95104.76000000,97544.58000000,95104.76000000,96952.38000000,4963.50857000
1735300800000,96952.38000000,97035.80000000,94011.11000000,94573.75000000,6425.73336000
1735315200000,94573.75000000,94996.16000000,93500.01000000,94750.00000000,5278.97717000
1735329600000,94750.11000000,94823.09000000,94100.60000000,94299.03000000,2297.27207000
1735344000000,94299.03000000,94720.00000000,94135.66000000,94594.91000000,1341.52605000
1735358400000,94594.91000000,94800.00000000,94307.00000000,94381.99000000,971.18403000
1735372800000,94381.98000000,94883.00000000,94312.67000000,94754.83000000,1063.67759000
1735387200000,94754.83000000,95340.36000000,94375.80000000,94447.29000000,2013.14298000
1735401600000,94447.28000000,95245.24000000,94389.45000000,95027.76000000,1698.97945000
1735416000000,95027.75000000,95733.99000000,94878.26000000,95300.00000000,1297.38280000
1735430400000,95300.00000000,95340.00000000,94808.00000000,95172.40000000,1053.11164000
1735444800000,95172.41000000,95283.99000000,94971.44000000,95272.04000000,875.93086000
1735459200000,95272.05000000,95315.50000000,95010.00000000,95032.57000000,788.50288000
1735473600000,95032.58000000,95231.58000000,94010.00000000,94511.12000000,2881.21420000
1735488000000,94511.11000000,94578.89000000,93367.52000000,93612.89000000,4040.48021000
1735502400000,93612.89000000,93949.52000000,93009.52000000,93738.20000000,3936.76599000
1735516800000,93738.19000000,94274.29000000,93368.93000000,93722.71000000,2898.63024000
1735531200000,93722.72000000,94060.35000000,93240.03000000,93731.65000000,2439.98241000
1735545600000,93731.66000000,94068.56000000,93469.56000000,93923.14000000,1683.90269000
1735560000000,93923.14000000,94277.23000000,91530.45000000,92130.21000000,9295.96250000
1735574400000,92130.21000000,94684.09000000,91800.00000000,94417.04000000,6130.98017000
1735588800000,94417.04000000,95024.50000000,91901.57000000,92792.05000000,5169.96449000
1735603200000,92792.05000000,92907.03000000,92033.73000000,92509.59000000,2673.26662000
1735617600000,92509.60000000,93040.10000000,92344.07000000,92860.75000000,1910.77295000
1735632000000,92860.75000000,94741.68000000,92842.88000000,94232.68000000,3728.42811000
1735646400000,94232.68000000,96250.00000000,94232.67000000,95412.00000000,5922.39263000
1735660800000,95412.00000000,95590.52000000,93189.59000000,94166.88000000,3654.49229000
1735675200000,94166.88000000,94222.50000000,93375.38000000,93576.00000000,1722.68129000
1735689600000,93576.00000000,94509.42000000,93489.03000000,93838.04000000,1840.29813000
1735704000000,93838.04000000,93937.19000000,93500.00000000,93684.10000000,958.86153000
1735718400000,93684.11000000,93756.02000000,92888.00000000,93444.64000000,1867.48363000
1735732800000,93444.65000000,94500.00000000,93407.07000000,94432.94000000,2077.71092000
1735747200000,94432.94000000,94823.75000000,93760.93000000,94627.07000000,1721.05382000
1735761600000,94627.08000000,95151.15000000,94542.00000000,94591.79000000,1907.91810000
1735776000000,94591.78000000,95516.00000000,94392.00000000,95010.33000000,3071.06776000
1735790400000,95010.34000000,96000.00000000,94984.84000000,95822.00000000,2597.83185000
1735804800000,95822.01000000,96876.38000000,95640.05000000,96732.99000000,3181.19751000
1735819200000,96733.00000000,97440.91000000,95924.60000000,96455.01000000,6594.73113000
1735833600000,96455.01000000,97777.00000000,96040.04000000,97317.74000000,4552.10190000
1735848000000,97317.74000000,97839.50000000,96666.66000000,96984.79000000,1973.55933000
1735862400000,96984.79000000,97342.44000000,96650.00000000,97062.30000000,1301.75815000
1735876800000,97062.30000000,97066.18000000,96280.65000000,96304.00000000,1511.25736000
1735891200000,96304.00000000,96830.00000000,96100.01000000,96757.58000000,1875.17783000
1735905600000,96757.57000000,97660.00000000,96472.43000000,97521.35000000,3996.57846000
1735920000000,97521.36000000,98976.91000000,97406.54000000,98592.01000000,4583.69677000
1735934400000,98592.02000000,98748.00000000,98067.99000000,98174.18000000,1985.36079000
1735948800000,98174.17000000,98314.15000000,97800.00000000,98200.00000000,1400.83188000
1735963200000,98200.01000000,98350.04000000,97862.87000000,98271.88000000,1220.86223000
1735977600000,98271.87000000,98306.22000000,97532.58000000,97889.39000000,1585.26406000
1735992000000,97889.40000000,98152.02000000,97514.79000000,97657.94000000,1867.22331000
1736006400000,97657.95000000,98350.00000000,97549.99000000,98166.26000000,1394.26571000
1736020800000,98166.26000000,98778.43000000,98143.20000000,98220.50000000,1521.60932000
1736035200000,98220.51000000,98391.59000000,98050.00000000,98187.96000000,830.57053000
1736049600000,98187.97000000,98522.76000000,98187.96000000,98268.77000000,719.22974000
1736064000000,98268.77000000,98268.78000000,97600.00000000,97641.63000000,1371.38309000
1736078400000,97641.62000000,98281.89000000,97276.79000000,98028.98000000,1867.30793000
1736092800000,98028.98000000,98332.54000000,97577.46000000,98079.63000000,1421.36695000
1736107200000,98079.64000000,98836.85000000,98024.00000000,98363.61000000,1885.77899000
1736121600000,98363.61000000,99333.00000000,97920.00000000,99037.57000000,3197.22330000
1736136000000,99037.57000000,99892.00000000,99037.57000000,99318.70000000,2944.63327000
1736150400000,99318.70000000,99625.69000000,98709.28000000,99259.99000000,2315.45844000
1736164800000,99259.99000000,102468.92000000,98711.94000000,102147.95000000,8408.22358000
1736179200000,102147.95000000,102480.00000000,101250.00000000,101817.22000000,5128.12803000
1736193600000,101817.22000000,102329.98000000,101600.05000000,102235.60000000,3269.76713000
1736208000000,102235.60000000,102724.38000000,101512.91000000,101708.08000000,2357.41538000
1736222400000,101708.09000000,102015.01000000,101582.79000000,101664.81000000,1492.76799000
1736236800000,101664.81000000,101995.64000000,100472.45000000,100830.86000000,3234.87532000
1736251200000,100830.86000000,100960.06000000,97153.50000000,97952.26000000,12652.02745000
1736265600000,97952.26000000,98347.81000000,96323.67000000,96451.98000000,7820.91705000
1736280000000,96451.99000000,97220.76000000,96181.81000000,96954.61000000,4501.87218000
1736294400000,96954.60000000,97268.65000000,96216.83000000,96525.20000000,3503.85267000
1736308800000,96525.20000000,96654.61000000,95250.76000000,95657.09000000,5008.27213000
1736323200000,95657.09000000,96132.47000000,94543.86000000,95134.92000000,4080.06431000
1736337600000,95134.92000000,96079.32000000,94624.43000000,95493.77000000,7524.11163000
1736352000000,95493.77000000,95555.25000000,92500.90000000,94243.89000000,10263.38282000
1736366400000,94243.89000000,95310.94000000,93600.00000000,95060.61000000,3324.99538000
1736380800000,95060.61000000,95382.32000000,93422.89000000,94027.90000000,5419.68508000
1736395200000,94027.91000000,94618.63000000,93186.38000000,93221.59000000,2824.32014000
1736409600000,93221.59000000,93877.46000000,92750.00000000,93465.23000000,4574.38662000
1736424000000,93465.23000000,94588.23000000,91800.00000000,94244.02000000,9108.35063000
1736438400000,94244.02000000,94685.25000000,91900.01000000,91909.59000000,6624.66398000
1736452800000,91909.59000000,92720.67000000,91203.67000000,92552.49000000,5993.43040000
1736467200000,92552.49000000,93727.83000000,92431.73000000,93696.13000000,2928.04066000
1736481600000,93696.13000000,95000.00000000,93500.00000000,94492.63000000,3602.28378000
1736496000000,94492.62000000,95293.40000000,94388.50000000,95073.95000000,2846.56733000
1736510400000,95073.95000000,95117.26000000,92206.02000000,93730.92000000,12008.10901000
1736524800000,93730.93000000,95836.00000000,93177.40000000,95327.06000000,7960.59139000
1736539200000,95327.07000000,95442.15000000,94586.02000000,94726.11000000,2137.27207000
1736553600000,94726.10000000,94746.37000000,94106.49000000,94206.95000000,1275.83371000
1736568000000,94206.96000000,94441.87000000,93831.73000000,94246.36000000,989.55966000
1736582400000,94246.36000000,94791.67000000,94031.22000000,94625.65000000,1009.69139000
1736596800000,94625.66000000,94655.20000000,94307.25000000,94410.26000000,891.77961000
1736611200000,94410.26000000,94708.12000000,93984.55000000,94249.26000000,1016.34928000
1736625600000,94249.27000000,95050.94000000,94200.89000000,94599.99000000,1864.69065000
1736640000000,94599.99000000,94699.00000000,94296.99000000,94622.40000000,984.48539000
1736654400000,94622.40000000,94650.00000000,94274.01000000,94323.85000000,555.17676000
1736668800000,94323.85000000,94393.57000000,93711.19000000,94255.10000000,1542.32088000
1736683200000,94255.10000000,95450.10000000,94173.48000000,95071.90000000,2128.13742000
1736697600000,95071.91000000,95314.12000000,94578.54000000,94650.26000000,1321.59389000
1736712000000,94650.26000000,94800.00000000,93800.00000000,94545.06000000,2075.15188000
1736726400000,94545.07000000,95940.00000000,93899.99000000,94269.23000000,3486.55763000
1736740800000,94269.23000000,94913.03000000,93281.00000000,93590.24000000,2651.83860000
1736755200000,93590.24000000,93661.55000000,90833.12000000,90851.22000000,10070.64435000
1736769600000,90851.23000000,93100.00000000,89256.69000000,92123.75000000,15768.82719000
1736784000000,92123.75000000,92534.10000000,91250.00000000,92312.18000000,5597.12697000
1736798400000,92312.18000000,94727.15000000,91908.20000000,94536.10000000,5044.56949000
1736812800000,94536.11000000,95280.80000000,94346.22000000,94861.40000000,3303.28378000
1736827200000,94861.39000000,95464.71000000,94753.42000000,94864.00000000,2358.76020000
1736841600000,94863.99000000,97371.00000000,94860.11000000,96548.04000000,6495.82711000
1736856000000,96548.04000000,97265.48000000,95748.93000000,96471.65000000,8394.33223000
1736870400000,96471.65000000,97088.57000000,95351.76000000,96537.80000000,5134.58254000
1736884800000,96537.23000000,96921.13000000,96152.31000000,96560.86000000,2159.83167000
1736899200000,96560.85000000,97554.63000000,96500.00000000,97317.12000000,3289.96951000
1736913600000,97317.12000000,97724.96000000,96750.00000000,97301.35000000,3059.85859000
1736928000000,97301.35000000,97524.00000000,96521.00000000,96762.18000000,2662.70368000
1736942400000,96762.19000000,99799.98000000,96539.77000000,98992.42000000,11578.95097000
1736956800000,98992.42000000,99990.00000000,98602.05000000,99844.90000000,5037.81977000
1736971200000,99844.91000000,100681.94000000,99460.80000000,100497.35000000,4880.68927000
1736985600000,100497.35000000,100866.66000000,99170.00000000,99478.03000000,4764.75349000
1737000000000,99478.04000000,99921.86000000,99322.19000000,99799.99000000,1971.85838000
1737014400000,99800.00000000,99820.00000000,98617.55000000,99158.71000000,4224.49604000
1737028800000,99158.70000000,99517.93000000,97335.13000000,99296.17000000,7952.93002000
1737043200000,99296.17000000,100448.72000000,99079.05000000,100417.20000000,5345.71609000
1737057600000,100417.20000000,100641.99000000,99377.00000000,99987.30000000,3573.09915000
1737072000000,99987.30000000,102148.13000000,99950.77000000,101051.73000000,6891.54414000
1737086400000,101051.73000000,101899.49000000,100952.10000000,101440.50000000,3198.48530000
1737100800000,101440.51000000,102581.45000000,101439.77000000,102237.60000000,5380.48317000
1737115200000,102237.60000000,104254.19000000,102195.90000000,104000.00000000,9298.37508000
1737129600000,104000.00000000,105865.22000000,103841.18000000,105834.93000000,9336.85365000
1737144000000,105834.93000000,105847.02000000,104065.25000000,104077.48000000,5066.11158000
1737158400000,104077.47000000,104656.87000000,103000.25000000,103559.82000000,3518.82558000
1737172800000,103559.82000000,103771.21000000,102602.48000000,102821.75000000,4937.13140000
1737187200000,102821.75000000,103883.01000000,102277.55000000,103589.29000000,4114.11548000
1737201600000,103589.29000000,104988.88000000,103107.65000000,104568.96000000,5002.17801000
1737216000000,104568.96000000,104719.29000000,103156.02000000,104382.01000000,4197.15572000
1737230400000,104382.00000000,104750.00000000,103765.44000000,104556.23000000,2538.42379000
1737244800000,104556.23000000,105458.55000000,104013.51000000,104984.01000000,3271.33432000
1737259200000,104984.01000000,105634.78000000,104191.19000000,105167.12000000,4785.51322000
1737273600000,105167.11000000,105496.03000000,103450.69000000,104363.23000000,7895.87414000
1737288000000,104363.24000000,105706.48000000,104300.75000000,104936.35000000,6026.11475000
1737302400000,104936.35000000,106200.74000000,104520.01000000,106200.00000000,3579.79556000
1737316800000,106200.00000000,106422.43000000,99651.60000000,101331.57000000,17838.65099000
1737331200000,101331.57000000,102321.42000000,99550.00000000,101891.93000000,13939.26024000
1737345600000,101891.94000000,109588.00000000,101535.28000000,107120.65000000,21204.58766200
1737360000000,107120.65000000,109193.23000000,107093.33000000,108239.19000000,9010.89785000
1737374400000,108239.19000000,108700.01000000,104480.00000000,104957.99000000,13711.24313000
1737388800000,104957.99000000,107050.00000000,100333.00000000,103691.63000000,25962.90260000
1737403200000,103691.64000000,104331.00000000,101701.01000000,102260.01000000,5700.34025000
1737417600000,102260.00000000,103260.10000000,100119.04000000,102936.01000000,10133.69299000
1737432000000,102936.01000000,102974.14000000,101111.68000000,101989.05000000,5400.15858000
1737446400000,101989.06000000,103973.02000000,101740.82000000,103758.25000000,6235.66073000
1737460800000,103758.25000000,105320.00000000,102803.43000000,103943.00000000,9899.25066000
1737475200000,103942.99000000,107240.81000000,103822.02000000,107031.34000000,9757.23378000
1737489600000,107031.34000000,107199.99000000,105420.00000000,106143.82000000,4515.02328000
1737504000000,106143.82000000,106394.46000000,105448.99000000,105600.01000000,3019.25833000
1737518400000,105600.01000000,105952.00000000,105043.88000000,105084.77000000,2894.59275000
1737532800000,105084.77000000,105464.83000000,104647.75000000,105100.39000000,3008.01462000
1737547200000,105100.38000000,105584.23000000,103662.58000000,104180.01000000,6007.84866000
1737561600000,104180.01000000,104754.64000000,103339.12000000,104630.00000000,4362.47109000
1737576000000,104630.00000000,104830.12000000,103611.66000000,103706.66000000,2956.50709000
1737590400000,103706.66000000,103819.99000000,102100.00000000,102461.25000000,4960.28164000
1737604800000,102461.24000000,102968.31000000,101575.50000000,102710.27000000,3922.18053000
1737619200000,102710.28000000,102724.94000000,101262.28000000,101944.49000000,3213.96175000
1737633600000,101944.50000000,106050.86000000,101281.62000000,105263.52000000,17241.02811000
1737648000000,105263.52000000,106850.00000000,103399.98000000,103770.04000000,10175.26517000
1737662400000,103770.05000000,106421.03000000,102195.70000000,103910.34000000,14440.40311000
1737676800000,103910.35000000,104298.00000000,102750.00000000,103891.75000000,3785.23369000
1737691200000,103891.75000000,105355.00000000,103804.77000000,105046.80000000,3142.49691000
1737705600000,105046.79000000,105759.00000000,104922.41000000,105420.10000000,2980.39420000
1737720000000,105420.11000000,106321.66000000,104669.17000000,105859.98000000,4922.31503000
1737734400000,105859.99000000,107120.00000000,105589.00000000,105760.94000000,5483.37032000
1737748800000,105760.93000000,105781.00000000,104456.89000000,104870.50000000,3295.43002000
1737763200000,104870.51000000,105280.82000000,104361.89000000,105202.40000000,2029.85839000
1737777600000,105202.40000000,105202.40000000,104216.81000000,104385.98000000,1407.20452000
1737792000000,104385.99000000,104700.01000000,104106.09000000,104670.99000000,1254.59690000
1737806400000,104670.99000000,105111.11000000,104456.00000000,104897.79000000,1464.11662000
1737820800000,104897.79000000,105286.52000000,104449.75000000,105055.16000000,1831.57775000
1737835200000,105055.16000000,105250.00000000,104696.00000000,104746.85000000,1080.96959000
1737849600000,104746.86000000,105273.24000000,104503.70000000,105062.42000000,1315.60742000
1737864000000,105062.41000000,105500.00000000,104950.00000000,104998.35000000,1228.94709000
1737878400000,104998.36000000,105221.36000000,104444.01000000,104818.69000000,1340.56686000
1737892800000,104818.68000000,105126.11000000,104703.58000000,104967.01000000,1136.95799000
1737907200000,104967.02000000,105260.36000000,104896.00000000,105081.63000000,866.43502000
1737921600000,105081.64000000,105200.00000000,102520.44000000,102620.00000000,3923.99800000
1737936000000,102620.01000000,103260.00000000,100720.53000000,101395.64000000,8353.88719000
1737950400000,101395.64000000,101399.99000000,97777.77000000,99048.02000000,12651.63419000
1737964800000,99048.01000000,99533.33000000,98263.49000000,98761.13000000,6790.38919000
1737979200000,98761.12000000,102317.94000000,98714.28000000,101112.03000000,11346.07460000
1737993600000,101112.03000000,101250.56000000,98864.00000000,99700.02000000,6873.59773000
1738008000000,99700.01000000,102405.00000000,99606.46000000,102082.83000000,4742.55120000
1738022400000,102082.83000000,102892.00000000,101334.55000000,102636.32000000,3670.23637000
1738036800000,102636.32000000,103371.24000000,102527.39000000,102789.72000000,2654.45746000
1738051200000,102789.72000000,103181.82000000,102393.94000000,102762.01000000,2051.60214000
1738065600000,102762.02000000,103800.00000000,101815.26000000,102777.99000000,5106.45100000
1738080000000,102777.99000000,103108.00000000,101820.15000000,102424.24000000,4696.05403000
1738094400000,102424.24000000,102538.00000000,100272.68000000,101335.52000000,3843.25665000
1738108800000,101335.52000000,102319.69000000,101328.01000000,102038.20000000,1696.38336000
1738123200000,102038.21000000,102853.53000000,101955.51000000,102755.82000000,1764.20643000
1738137600000,102755.81000000,103000.00000000,102180.65000000,102646.00000000,2209.71378000
1738152000000,102646.00000000,102842.04000000,101582.37000000,101980.78000000,4382.66276000
1738166400000,101980.78000000,103999.00000000,101400.01000000,103583.99000000,7259.91780000
1738180800000,103584.00000000,104782.68000000,102868.00000000,103733.24000000,5842.47389000
1738195200000,103733.25000000,105300.00000000,103278.54000000,105196.00000000,3876.90317000
1738209600000,105196.00000000,105595.81000000,104799.66000000,105132.07000000,2795.08494000
1738224000000,105132.07000000,105534.00000000,104925.26000000,105300.63000000,1690.21583000
1738238400000,105300.63000000,106457.44000000,104660.00000000,105564.00000000,5586.81148000
1738252800000,105563.99000000,106013.01000000,104762.59000000,105711.27000000,3142.75313000
1738267200000,105711.28000000,105821.62000000,104693.82000000,104722.94000000,2282.30617000
1738281600000,104722.94000000,105029.72000000,103930.09000000,104344.46000000,2510.54787000
1738296000000,104344.46000000,104814.46000000,103972.13000000,104188.56000000,1868.93867000
1738310400000,104188.57000000,104848.65000000,103936.54000000,104736.00000000,1992.81020000
1738324800000,104736.01000000,106012.00000000,104106.00000000,105464.01000000,4829.65222000
1738339200000,105464.00000000,105574.40000000,102122.00000000,102312.32000000,6376.84832000
1738353600000,102312.31000000,102482.94000000,101560.00000000,102429.56000000,4404.38465000
1738368000000,102429.56000000,102783.71000000,102198.52000000,102249.19000000,1810.34285000
1738382400000,102249.19000000,102588.57000000,102118.56000000,102166.49000000,1052.21801000
1738396800000,102166.49000000,102276.99000000,101412.00000000,102028.81000000,2029.14504000
1738411200000,102028.82000000,102329.01000000,101730.79000000,102073.89000000,1704.67519000
1738425600000,102073.89000000,102297.99000000,101448.00000000,101669.60000000,1472.58058000
1738440000000,101669.60000000,101669.60000000,100279.51000000,100635.65000000,4221.99580000
1738454400000,100635.66000000,101456.60000000,99148.91000000,99206.86000000,4565.34638000
1738468800000,99206.85000000,100515.99000000,99031.19000000,99643.30000000,3478.78338000
1738483200000,99643.30000000,100100.00000000,98645.00000000,98864.60000000,4107.22330000
1738497600000,98864.60000000,99439.05000000,98157.00000000,99346.87000000,5265.38592000
1738512000000,99346.87000000,99361.97000000,96821.54000000,98273.16000000,9695.73736000
1738526400000,98273.17000000,98628.74000000,96150.00000000,97700.59000000,7507.02305000
1738540800000,97700.59000000,97782.79000000,91231.00000000,94038.74000000,29729.49110000
1738555200000,94038.75000000,95426.63000000,92646.36000000,95333.01000000,7783.31800000
1738569600000,95333.01000000,95950.68000000,94799.29000000,95107.89000000,6292.62471000
1738584000000,95107.89000000,99500.00000000,94131.14000000,98842.00000000,14148.56207000
1738598400000,98842.00000000,101880.00000000,98038.58000000,101880.00000000,10494.44455000
1738612800000,101879.99000000,102500.01000000,100918.00000000,101328.52000000,6716.29807000
1738627200000,101328.51000000,101732.31000000,100534.03000000,100629.70000000,3827.79756000
1738641600000,100629.70000000,100764.11000000,98229.82000000,98448.02000000,7495.21052000
1738656000000,98448.01000000,99445.17000000,97860.00000000,98967.70000000,4539.23391000
1738670400000,98967.70000000,100415.00000000,98275.98000000,99347.19000000,8422.36725000
1738684800000,99347.18000000,100777.93000000,98778.58000000,98859.77000000,6617.95049000
1738699200000,98859.78000000,99444.02000000,96150.00000000,97763.13000000,9365.42724000
1738713600000,97763.14000000,98930.44000000,97131.43000000,98040.00000000,4039.38442000
1738728000000,98040.01000000,98332.41000000,97352.77000000,97864.43000000,3233.50156000
1738742400000,97864.43000000,98256.00000000,97257.05000000,98198.00000000,3128.59694000
1738756800000,98198.00000000,99149.00000000,97734.69000000,98116.24000000,5192.00486000
1738771200000,98116.24000000,98277.02000000,96500.00000000,97370.00000000,4822.00148000
1738785600000,97370.00000000,97706.37000000,96155.00000000,96612.43000000,5817.81518000
1738800000000,96612.44000000,97493.07000000,96430.78000000,97355.67000000,2552.15194000
1738814400000,97355.66000000,98436.61000000,97273.71000000,98195.61000000,2075.46063000
1738828800000,98195.60000000,99120.00000000,97910.01000000,98877.99000000,2729.43375000
1738843200000,98877.99000000,99040.09000000,96930.17000000,97333.09000000,6201.57209000
1738857600000,97333.09000000,97547.71000000,95676.64000000,95983.00000000,6034.55958000
1738872000000,95982.99000000,97093.50000000,95800.00000000,96554.35000000,3922.02606000
1738886400000,96554.35000000,97805.60000000,96409.65000000,97444.04000000,3156.67580000
1738900800000,97444.04000000,97883.12000000,96566.00000000,96757.05000000,2473.49968000
1738915200000,96757.04000000,97750.00000000,96613.24000000,97750.00000000,2223.55235000
1738929600000,97749.99000000,100137.99000000,97165.51000000,98283.98000000,12394.34552000
1738944000000,98283.98000000,98563.55000000,96856.78000000,96898.56000000,6759.22647000
1738958400000,96898.56000000,96944.10000000,95620.34000000,96506.80000000,4786.92083000
1738972800000,96506.80000000,96880.00000000,96335.42000000,96699.23000000,2006.38123000
1738987200000,96699.24000000,96699.24000000,95785.09000000,96209.92000000,1789.48604000
1739001600000,96209.92000000,96293.48000000,95865.71000000,96120.00000000,1164.01705000
1739016000000,96120.00000000,96517.52000000,95688.00000000,95843.74000000,2499.53256000
1739030400000,95843.74000000,96750.00000000,95749.88000000,96579.99000000,1536.63554000
1739044800000,96579.99000000,96712.00000000,96358.50000000,96444.74000000,1151.19052000
1739059200000,96444.75000000,97300.00000000,96360.14000000,97300.00000000,2064.37300000
1739073600000,97299.99000000,97323.09000000,96777.77000000,97057.83000000,1130.18566000
1739088000000,97057.83000000,97294.46000000,96509.96000000,96554.01000000,1810.78846000
1739102400000,96554.01000000,96703.99000000,95700.00000000,96488.15000000,3215.85687000
1739116800000,96488.14000000,96567.80000000,95888.88000000,96064.74000000,1504.31820000
1739131200000,96064.73000000,96760.00000000,94713.00000000,96462.75000000,4395.39394000
1739145600000,96462.75000000,97131.47000000,95256.00000000,96814.98000000,4441.97007000
1739160000000,96814.97000000,97640.02000000,96632.81000000,97429.83000000,3716.17533000
1739174400000,97429.83000000,97954.69000000,97358.79000000,97661.16000000,3520.47325000
1739188800000,97661.15000000,98345.00000000,96866.66000000,97218.69000000,4536.33685000
1739203200000,97218.68000000,97643.29000000,96866.39000000,97376.00000000,2785.34059000
1739217600000,97376.00000000,97490.71000000,97128.79000000,97430.82000000,1572.57928000
1739232000000,97430.82000000,98149.92000000,97416.62000000,97607.30000000,2024.92177000
1739246400000,97607.31000000,98478.42000000,97558.99000000,98268.97000000,2586.68133000
1739260800000,98268.98000000,98330.00000000,97885.62000000,98151.52000000,1703.70026000
1739275200000,98151.51000000,98158.89000000,96595.33000000,97007.53000000,4245.10245000
1739289600000,97007.54000000,97045.53000000,94876.88000000,95040.82000000,4884.73711000
1739304000000,95040.81000000,96512.70000000,94928.47000000,95778.20000000,3202.62087000
1739318400000,95778.21000000,96263.99000000,95100.00000000,95299.27000000,2407.32134000
1739332800000,95299.28000000,96188.68000000,95267.71000000,96069.58000000,1939.80551000
1739347200000,96069.58000000,96469.78000000,95913.49000000,96094.65000000,2296.45775000
1739361600000,96094.65000000,96631.66000000,94088.23000000,95816.18000000,11805.54003000
1739376000000,95816.18000000,97700.00000000,95120.30000000,97205.06000000,6689.55876000
1739390400000,97205.06000000,98119.99000000,96854.97000000,97869.99000000,4012.48286000
1739404800000,97870.00000000,98083.91000000,97367.45000000,97498.42000000,2127.33742000
1739419200000,97498.43000000,97564.83000000,95800.00000000,96070.23000000,3383.93788000
1739433600000,96070.23000000,96336.00000000,95599.57000000,95925.11000000,3154.64728000
1739448000000,95925.12000000,96480.06000000,95336.00000000,95998.00000000,5428.60469000
1739462400000,95998.00000000,96361.58000000,95217.36000000,95627.76000000,3689.67744000
1739476800000,95627.75000000,96774.71000000,95600.00000000,96608.14000000,2137.57145000
1739491200000,96608.13000000,97190.00000000,96356.41000000,97129.98000000,1805.79470000
1739505600000,97129.98000000,97248.60000000,96561.36000000,96944.09000000,1782.53303000
1739520000000,96944.09000000,97196.00000000,96799.99000000,96887.56000000,1758.38512000
1739534400000,96887.55000000,97568.28000000,96252.82000000,96924.39000000,3999.36783000
1739548800000,96924.57000000,98826.00000000,96494.17000000,97940.45000000,6009.55921000
1739563200000,97940.44000000,98264.85000000,96697.56000000,97500.48000000,2817.38657000
1739577600000,97500.47000000,97972.26000000,97223.58000000,97653.19000000,1506.43225000
1739592000000,97653.19000000,97780.73000000,97345.50000000,97346.26000000,1029.42986000
1739606400000,97346.27000000,97731.09000000,97301.77000000,97615.59000000,874.17838000
1739620800000,97615.59000000,97962.51000000,97426.57000000,97633.22000000,2009.35817000
1739635200000,97633.21000000,97714.39000000,97304.38000000,97531.90000000,921.83788000
1739649600000,97531.91000000,97741.35000000,97414.05000000,97569.66000000,1008.14029000
1739664000000,97569.67000000,97704.47000000,97411.11000000,97547.17000000,935.38493000
1739678400000,97547.17000000,97682.04000000,97212.00000000,97248.98000000,746.42703000
1739692800000,97248.98000000,97388.89000000,97061.58000000,97336.00000000,1186.96965000
1739707200000,97335.99000000,97336.00000000,96645.35000000,96911.01000000,1883.07426000
1739721600000,96911.01000000,97169.15000000,96609.05000000,97058.47000000,1187.57052000
1739736000000,97058.47000000,97282.38000000,96046.18000000,96118.12000000,2251.99851000
1739750400000,96118.12000000,96638.05000000,96023.17000000,96215.33000000,1866.57226000
1739764800000,96215.32000000,96463.20000000,95800.00000000,96068.22000000,2725.98131000
1739779200000,96068.21000000,96395.68000000,95937.05000000,96063.18000000,2282.57983000
1739793600000,96063.17000000,97046.59000000,95564.00000000,95659.46000000,4434.60458000
1739808000000,95659.45000000,95945.49000000,95205.00000000,95531.36000000,3482.13274000
1739822400000,95531.36000000,96413.43000000,95488.90000000,95780.00000000,1700.17438000
1739836800000,95780.01000000,96322.97000000,95538.01000000,96200.00000000,1602.34370000
1739851200000,96200.00000000,96300.73000000,95254.12000000,95456.93000000,3176.48546000
1739865600000,95456.92000000,95872.17000000,95050.00000000,95640.34000000,2483.18123000
1739880000000,95640.35000000,96753.91000000,95200.00000000,95546.48000000,4474.04458000
1739894400000,95546.49000000,95633.15000000,93388.09000000,94104.14000000,6846.15491000
1739908800000,94104.15000000,95685.00000000,93730.72000000,95671.74000000,4785.98483000
1739923200000,95671.74000000,95961.54000000,95055.00000000,95710.26000000,2158.62817000
1739937600000,95710.25000000,95846.15000000,95029.99000000,95687.71000000,3441.18957000
1739952000000,95687.71000000,96468.99000000,95616.60000000,96422.60000000,2411.90713000
1739966400000,96422.60000000,96700.00000000,95536.36000000,95943.74000000,3550.14153000
1739980800000,95943.74000000,96480.00000000,95407.41000000,96206.54000000,2763.82004000
1739995200000,96206.54000000,96899.99000000,96058.38000000,96644.37000000,2112.82310000
1740009600000,96644.37000000,97362.83000000,96415.09000000,97055.25000000,2723.25483000
1740024000000,97055.24000000,97339.11000000,96781.57000000,96867.92000000,2341.17162000
1740038400000,96867.92000000,97384.03000000,96801.61000000,97207.92000000,1589.77673000
1740052800000,97207.93000000,98062.15000000,96799.42000000,96903.77000000,4401.17328000
1740067200000,96903.76000000,98518.00000000,96888.00000000,98422.80000000,3819.64673000
1740081600000,98422.80000000,98711.36000000,98000.00000000,98305.00000000,2182.36858000
1740096000000,98305.01000000,98505.00000000,98084.06000000,98141.99000000,2303.63980000
1740110400000,98141.99000000,98610.17000000,98117.73000000,98179.76000000,2056.48148000
1740124800000,98179.77000000,98896.81000000,98111.11000000,98629.30000000,3470.69828000
1740139200000,98629.31000000,99475.00000000,97177.31000000,98104.04000000,8919.82124000
1740153600000,98104.04000000,98757.00000000,95247.15000000,95285.11000000,9442.11583000
1740168000000,95285.11000000,96202.68000000,94871.95000000,96181.98000000,6056.52477000
1740182400000,96181.99000000,96455.97000000,95770.49000000,96299.07000000,2247.97640000
1740196800000,96299.08000000,96578.99000000,96273.85000000,96288.09000000,1394.90999000
1740211200000,96288.09000000,96611.53000000,96151.00000000,96580.00000000,2059.63477000
1740225600000,96580.00000000,96980.00000000,96485.37000000,96592.00000000,2290.85469000
1740240000000,96592.01000000,96823.53000000,96345.49000000,96639.99000000,2305.94545000
1740254400000,96640.00000000,96700.00000000,96472.22000000,96551.01000000,968.85578000
1740268800000,96551.01000000,96650.00000000,96355.17000000,96414.00000000,1326.63672000
1740283200000,96414.00000000,96558.01000000,96143.99000000,96508.85000000,1245.52389000
1740297600000,96508.85000000,96508.86000000,96083.33000000,96115.99000000,1223.25286000
1740312000000,96115.99000000,96158.50000000,95414.25000000,95436.18000000,2752.94714000
1740326400000,95436.19000000,95876.00000000,95227.94000000,95755.99000000,2646.03752000
1740340800000,95756.00000000,96332.44000000,95522.78000000,96258.00000000,1690.45100000
1740355200000,96258.00000000,96500.00000000,95311.00000000,95433.21000000,2641.40258000
1740369600000,95433.21000000,95945.00000000,95078.01000000,95872.02000000,3077.64753000
1740384000000,95872.02000000,96177.18000000,95355.00000000,95821.45000000,3284.07984000
1740398400000,95821.45000000,96095.32000000,93817.06000000,94323.95000000,7573.60951000
1740412800000,94323.95000000,95194.59000000,93666.22000000,93943.51000000,5598.80012000
1740427200000,93943.52000000,94571.43000000,91349.26000000,91552.88000000,9374.56341000
1740441600000,91552.88000000,92540.69000000,90912.01000000,92153.93000000,8746.45217000
1740456000000,92153.93000000,92327.88000000,88200.00000000,89320.01000000,14740.56517000
1740470400000,89320.01000000,90000.00000000,86888.10000000,89239.39000000,17685.20523000
1740484800000,89239.39000000,89544.40000000,86050.99000000,87231.26000000,18057.21390000
1740499200000,87231.63000000,88065.45000000,86157.69000000,87947.25000000,10667.84575000
1740513600000,87947.24000000,89460.17000000,87622.64000000,88680.40000000,8435.82889000
1740528000000,88680.39000000,89414.15000000,88148.48000000,88900.00000000,3505.34849000
1740542400000,88900.01000000,89245.29000000,88392.45000000,88720.02000000,3843.49941000
1740556800000,88720.01000000,89314.45000000,88138.00000000,88616.80000000,4175.40587000
1740571200000,88616.80000000,88674.00000000,85418.72000000,87567.53000000,13226.48272000
1740585600000,87567.53000000,87806.62000000,83418.00000000,83856.99000000,17635.66389000
1740600000000,83856.98000000,85400.00000000,82256.01000000,84250.09000000,14507.14371000
1740614400000,84250.09000000,85466.55000000,84026.96000000,85226.32000000,6905.39830000
1740628800000,85226.32000000,86737.00000000,84694.29000000,86272.01000000,5489.64417000
1740643200000,86272.01000000,87078.46000000,85846.87000000,86698.60000000,4102.58827000
1740657600000,86698.60000000,86795.90000000,84640.75000000,85500.84000000,12382.79075000
1740672000000,85500.84000000,85691.51000000,83614.75000000,84113.98000000,6757.93459000
1740686400000,84113.98000000,84927.84000000,82716.49000000,84708.58000000,6867.09831000
1740700800000,84708.57000000,84892.85000000,79532.00000000,80452.44000000,24103.21319000
1740715200000,80452.89000000,80969.69000000,78820.06000000,79204.59000000,17998.86851000
1740729600000,79204.60000000,80854.46000000,78258.52000000,80513.38000000,11953.82317000
1740744000000,80512.97000000,84425.89000000,80075.47000000,84005.05000000,15625.08311000
1740758400000,84005.05000000,85120.00000000,83196.71000000,84449.99000000,9640.81267000
1740772800000,84450.00000000,84795.03000000,83600.00000000,84349.94000000,4326.23904000
1740787200000,84349.95000000,85678.11000000,83824.78000000,85330.84000000,5097.79792000
1740801600000,85330.83000000,86558.00000000,84740.15000000,84740.15000000,7178.39161000
1740816000000,84740.16000000,85508.79000000,84382.62000000,84632.79000000,4837.66151000
1740830400000,84632.79000000,84943.08000000,84334.39000000,84800.00000000,3556.79693000
1740844800000,84800.01000000,85591.84000000,84700.00000000,85485.41000000,2835.44610000
1740859200000,85485.41000000,86262.74000000,85285.88000000,86064.53000000,2278.96057000
1740873600000,86064.54000000,86498.00000000,85611.79000000,85873.07000000,2403.83782000
1740888000000,85873.06000000,86589.97000000,85531.87000000,86232.42000000,2216.14356000
1740902400000,86232.42000000,86263.23000000,85633.13000000,86105.89000000,2080.95926000
1740916800000,86105.88000000,88673.09000000,85050.60000000,87427.99000000,9943.16012000
1740931200000,87428.00000000,95000.00000000,87278.51000000,93522.00000000,30318.42056000
1740945600000,93522.01000000,94883.51000000,93502.00000000,94270.00000000,7926.56913000
1740960000000,94269.99000000,94416.46000000,92433.50000000,92709.98000000,6622.76466000
1740974400000,92709.98000000,93361.46000000,91181.00000000,92363.58000000,5852.51871000
1740988800000,92363.58000000,92917.99000000,91142.00000000,92739.99000000,6314.25279000
1741003200000,92740.00000000,93721.37000000,89117.00000000,90035.37000000,14548.25192000
1741017600000,90035.38000000,91000.00000000,85555.45000000,85606.00000000,16115.70068000
1741032000000,85606.01000000,87038.46000000,85117.11000000,86220.61000000,9717.61342000
1741046400000,86221.16000000,86807.98000000,82464.84000000,83983.72000000,13267.80873000
1741060800000,83983.73000000,84581.60000000,83140.00000000,83186.40000000,4955.79624000
1741075200000,83186.40000000,84373.84000000,83040.29000000,83937.94000000,4466.29804000
1741089600000,83937.93000000,84977.65000000,81500.00000000,82985.06000000,14268.19869000
1741104000000,82985.05000000,88487.91000000,82013.11000000,88206.19000000,12128.06081000
1741118400000,88206.19000000,88967.52000000,86582.27000000,87281.98000000,6522.94455000
1741132800000,87281.98000000,87888.88000000,86334.53000000,86843.40000000,4769.77721000
1741147200000,86843.40000000,87727.27000000,86722.81000000,87619.49000000,3883.84662000
1741161600000,87619.49000000,90660.00000000,87600.00000000,89814.26000000,6751.29829000
1741176000000,89814.26000000,90933.82000000,87926.06000000,88344.25000000,12224.27232000
1741190400000,88344.25000000,90475.30000000,87600.00000000,89750.00000000,7755.99208000
1741204800000,89750.00000000,91000.00000000,89677.80000000,90606.01000000,2878.82511000
1741219200000,90606.00000000,92025.00000000,89986.73000000,91605.01000000,5338.79627000
1741233600000,91605.02000000,92810.64000000,91265.96000000,91346.48000000,4492.39994000
1741248000000,91346.49000000,91667.50000000,90613.17000000,91350.00000000,3894.92912000
1741262400000,91350.00000000,91457.03000000,89117.68000000,90820.69000000,8433.98830000
1741276800000,90820.69000000,91066.44000000,87836.00000000,88526.18000000,7147.70590000
1741291200000,88526.23000000,90781.20000000,88461.22000000,89931.89000000,5034.62949000
1741305600000,89931.88000000,91283.02000000,84667.03000000,86991.25000000,18693.33541000
1741320000000,86991.26000000,88612.96000000,86857.14000000,88365.18000000,3950.73454000
1741334400000,88365.19000000,89704.00000000,87985.30000000,88966.96000000,3368.87599000
1741348800000,88966.96000000,91100.00000000,88022.47000000,88457.99000000,12333.35824000
1741363200000,88457.99000000,89023.41000000,86554.77000000,87820.10000000,11414.32329000
1741377600000,87820.09000000,88511.00000000,85573.07000000,86801.75000000,8219.72966000
1741392000000,86801.74000000,86897.25000000,85218.47000000,85919.12000000,3430.23845000
1741406400000,85919.12000000,86662.00000000,85653.66000000,86197.14000000,1971.12967000
1741420800000,86197.14000000,86450.01000000,85762.72000000,85955.88000000,1775.33163000
