timestamp,open,high,low,close,volume
1774177200000,68601.10,68650.00,68520.40,68614.30,599.742
1774178100000,68614.40,68640.00,68339.00,68374.10,2344.601
1774179000000,68374.10,68475.60,68240.10,68365.00,2163.654
1774179900000,68365.00,68383.40,68030.00,68177.00,3282.653
1774180800000,68177.00,68300.00,68153.10,68271.90,1398.310
1774181700000,68271.90,68740.50,68270.10,68614.70,4177.061
1774182600000,68614.70,68635.50,68550.00,68567.60,797.089
1774183500000,68567.60,68662.40,68521.10,68614.50,906.513
1774184400000,68614.40,68932.80,68614.40,68770.20,2506.849
1774185300000,68770.10,68827.70,68711.20,68764.20,916.483
1774186200000,68764.30,68814.60,68500.90,68593.00,1409.326
1774187100000,68593.00,68721.70,68550.00,68660.30,858.821
1774188000000,68660.40,68786.20,68501.00,68744.10,1001.482
1774188900000,68744.10,68878.20,68677.80,68805.50,1102.802
1774189800000,68805.50,68888.00,68737.30,68800.70,803.565
1774190700000,68800.60,68800.60,68600.70,68675.50,701.166
1774191600000,68675.50,68907.90,68675.40,68863.50,1209.153
1774192500000,68863.60,69000.00,68766.00,68861.00,1394.510
1774193400000,68861.10,68873.20,68670.00,68771.10,853.483
1774194300000,68771.10,68826.80,68713.00,68814.90,474.089
1774195200000,68814.90,68852.30,68724.40,68754.60,523.483
1774196100000,68754.60,68779.90,68633.90,68673.70,594.267
1774197000000,68673.80,68743.60,68627.90,68695.50,354.512
1774197900000,68695.50,68818.50,68695.50,68761.90,495.851
1774198800000,68761.80,68800.00,68694.40,68787.30,364.817
1774199700000,68787.40,68820.00,68718.50,68779.10,408.096
1774200600000,68779.20,68797.10,68635.00,68640.10,462.328
1774201500000,68640.00,68708.40,68635.00,68635.00,456.866
1774202400000,68635.00,68690.40,68550.30,68690.40,575.015
1774203300000,68690.40,68698.00,68625.00,68661.00,229.548
1774204200000,68660.90,68712.00,68300.10,68431.40,2081.621
1774205100000,68431.40,68588.00,68402.60,68580.30,588.067
1774206000000,68580.20,68595.90,68241.50,68297.90,1203.020
1774206900000,68297.90,68361.90,68242.80,68246.50,748.751
1774207800000,68246.40,68389.10,68181.00,68355.80,996.755
1774208700000,68355.80,68373.80,68108.00,68170.60,1252.988
1774209600000,68170.60,68336.30,68170.60,68299.60,956.799
1774210500000,68299.70,68470.60,68242.00,68288.20,858.084
1774211400000,68288.30,68338.50,68150.60,68330.60,521.379
1774212300000,68330.50,68330.50,68044.40,68134.90,1231.330
1774213200000,68135.00,68196.90,67523.00,67751.60,6978.156
1774214100000,67751.50,67830.60,67300.00,67761.60,5396.312
1774215000000,67761.60,67950.00,67634.20,67839.20,1568.583
1774215900000,67839.20,67872.40,67717.40,67864.40,858.519
1774216800000,67864.50,68099.80,67528.30,67870.20,3356.135
1774217700000,67870.10,68336.40,67820.00,68218.00,2235.813
1774218600000,68218.00,68300.00,68065.00,68096.80,1536.551
1774219500000,68096.70,68376.90,68096.70,68301.50,985.245
1774220400000,68301.50,68434.30,68160.80,68293.50,1545.285
1774221300000,68293.40,68313.50,68064.50,68071.20,1082.320
1774222200000,68071.20,68137.20,67949.30,68093.20,996.494
1774223100000,68093.20,68113.90,67804.10,67830.60,1641.640
1774224000000,67830.70,68093.90,67736.00,67924.30,2050.463
1774224900000,67924.40,68130.60,67765.00,67965.50,1606.088
1774225800000,67965.50,67972.80,67400.10,67650.90,3576.258
1774226700000,67651.00,67861.70,67586.60,67642.50,1475.698
1774227600000,67642.50,67916.00,67500.00,67813.50,1648.123
1774228500000,67813.60,68093.90,67813.60,68054.50,1738.782
1774229400000,68054.40,68127.00,67939.90,68015.60,1065.700
1774230300000,68015.70,68095.40,67866.40,67875.60,1297.759
1774231200000,67875.60,68050.00,67805.20,67818.70,1240.985
1774232100000,67818.70,68294.30,67764.20,68235.90,1906.756
1774233000000,68235.80,68375.80,68160.90,68202.70,1706.863
1774233900000,68202.70,68299.70,68129.70,68282.40,1347.177
1774234800000,68282.30,68555.50,68193.20,68200.00,2322.890
1774235700000,68200.10,68248.40,68130.00,68170.00,993.091
1774236600000,68170.10,68195.00,68059.10,68173.40,748.606
1774237500000,68173.40,68199.00,68022.60,68045.10,773.493
1774238400000,68045.20,68183.50,68011.20,68140.20,938.889
1774239300000,68140.20,68199.90,68083.00,68199.80,398.205
1774240200000,68199.80,68343.70,68182.60,68226.20,855.800
1774241100000,68226.30,68517.00,68226.30,68504.50,2062.486
1774242000000,68504.40,68777.00,68504.40,68731.20,3159.971
1774242900000,68731.10,68846.60,68635.10,68659.90,1512.832
1774243800000,68659.90,68807.10,68550.80,68581.10,1791.441
1774244700000,68581.10,68872.40,68540.00,68864.20,2401.760
1774245600000,68864.10,68865.20,68530.10,68572.70,1598.032
1774246500000,68572.70,68654.70,68468.00,68537.20,1413.967
1774247400000,68537.20,68537.20,67661.00,67786.90,5798.692
1774248300000,67786.90,67920.00,67653.10,67845.30,3117.989
1774249200000,67845.20,67961.40,67456.70,67905.60,4054.670
1774250100000,67905.60,67965.10,67608.50,67769.80,2360.798
1774251000000,67769.70,68307.70,67739.30,68290.90,3553.048
1774251900000,68290.90,68426.40,68250.80,68306.00,2999.228
1774252800000,68305.90,68649.90,68305.90,68622.50,2583.300
1774253700000,68622.50,68670.00,68414.00,68434.50,1459.521
1774254600000,68434.40,68621.00,68370.80,68510.20,1212.294
1774255500000,68510.30,68534.00,68281.60,68400.10,1292.958
1774256400000,68400.20,68439.60,68172.30,68254.10,1555.918
1774257300000,68254.10,68332.30,68100.80,68217.50,914.924
1774258200000,68217.50,68217.60,67880.00,68109.90,2579.918
1774259100000,68109.90,68305.00,68103.70,68305.00,899.502
1774260000000,68304.90,68688.00,68267.30,68567.90,2574.108
1774260900000,68567.90,68593.20,68376.40,68429.60,1256.301
1774261800000,68429.60,68456.00,68261.00,68382.70,942.846
1774262700000,68382.70,68547.00,68331.80,68512.20,1014.959
1774263600000,68512.20,71468.00,68505.70,70931.80,42233.403
1774264500000,70932.60,71238.00,70268.00,70673.90,15114.948
1774265400000,70674.00,71180.00,70359.80,70637.20,11130.982
1774266300000,70637.20,70668.50,70006.70,70097.30,12054.547
1774267200000,70097.20,70267.50,69644.00,69951.60,9685.004
1774268100000,69951.60,70474.80,69930.10,70311.80,4844.722
1774269000000,70311.70,70770.00,70136.60,70680.60,4657.036
1774269900000,70680.50,70850.00,70550.00,70710.00,3396.317
1774270800000,70710.00,70888.00,70551.30,70712.90,2704.552
1774271700000,70712.90,70887.70,70712.70,70780.00,1725.647
1774272600000,70779.90,71388.00,70620.00,71182.20,8635.535
1774273500000,71182.20,71564.90,70983.40,71450.00,6938.032
1774274400000,71449.90,71789.80,71350.00,71484.70,7507.897
1774275300000,71484.80,71697.70,71256.40,71312.30,4169.373
1774276200000,71312.40,71500.00,71172.80,71344.00,2626.877
1774277100000,71343.90,71474.30,71080.90,71409.80,3876.584
1774278000000,71409.80,71635.50,71322.20,71335.10,2455.582
1774278900000,71335.00,71362.20,70839.30,70864.10,5363.406
1774279800000,70864.10,70917.20,70542.60,70636.60,4180.346
1774280700000,70636.60,70829.80,70074.70,70112.20,9463.798
1774281600000,70112.20,70523.50,70106.70,70495.70,5238.228
1774282500000,70495.70,70532.80,70180.00,70188.00,2910.469
1774283400000,70187.90,70490.10,70100.50,70440.00,2479.839
1774284300000,70439.90,70736.40,70403.00,70539.60,2862.393
1774285200000,70539.60,70719.80,70440.30,70600.00,1564.390
1774286100000,70600.10,70633.90,70325.60,70503.60,1377.751
1774287000000,70503.40,71053.00,70488.60,70853.10,3543.160
1774287900000,70853.10,71094.20,70840.10,71052.70,1510.798
1774288800000,71052.60,71139.60,70874.00,70939.10,2064.336
1774289700000,70939.00,71021.10,70836.40,70855.10,1431.271
1774290600000,70855.10,71138.00,70855.10,71018.50,1355.542
1774291500000,71018.60,71166.00,70944.00,71040.50,1520.403
1774292400000,71040.50,71232.00,70823.30,70903.20,2061.652
1774293300000,70903.20,71057.80,70786.10,71003.20,940.195
1774294200000,71003.20,71037.90,70825.00,70875.20,605.297
1774295100000,70875.30,70965.20,70612.50,70647.10,2102.276
1774296000000,70647.10,70771.70,70509.30,70769.10,1689.059
1774296900000,70769.10,70799.50,70713.10,70768.90,507.905
1774297800000,70769.00,70953.50,70754.40,70904.30,964.254
1774298700000,70904.40,70921.90,70829.60,70876.60,560.051
1774299600000,70876.60,70958.80,70786.10,70791.00,516.153
1774300500000,70790.90,70890.60,70790.90,70858.10,339.365
1774301400000,70858.00,70976.30,70838.30,70905.40,518.333
1774302300000,70905.30,70949.90,70789.90,70813.70,372.089
1774303200000,70813.90,70859.00,70528.00,70685.40,1254.481
1774304100000,70685.30,70692.30,70564.90,70600.00,475.662
1774305000000,70600.00,70689.40,70477.10,70689.30,908.468
1774305900000,70689.30,70772.20,70640.00,70745.10,644.683
1774306800000,70745.10,70778.50,70519.40,70521.10,753.635
1774307700000,70521.10,70678.90,70370.00,70678.70,1432.873
1774308600000,70678.70,70774.90,70575.90,70732.10,652.624
1774309500000,70732.10,70973.80,70688.00,70865.90,1374.366
1774310400000,70866.00,71080.00,70744.00,70747.10,2444.876
1774311300000,70747.00,70795.30,70617.90,70689.90,1018.832
1774312200000,70690.00,70704.30,70377.90,70559.20,1962.707
1774313100000,70559.10,70790.00,70550.00,70650.00,773.013
1774314000000,70650.10,70683.00,70480.00,70534.10,882.996
1774314900000,70534.00,70845.70,70470.30,70796.90,842.606
1774315800000,70797.00,70839.70,70232.00,70358.30,2370.328
1774316700000,70358.30,70545.50,70358.30,70479.90,862.633
1774317600000,70479.90,70668.70,70396.40,70425.20,999.364
1774318500000,70425.20,70600.00,70380.00,70530.50,560.027
1774319400000,70530.50,70606.00,70329.90,70495.00,1156.054
1774320300000,70495.00,70560.00,70391.80,70416.00,570.793
1774321200000,70416.00,70521.00,70362.60,70471.70,657.817
1774322100000,70471.80,70558.90,70445.30,70506.10,702.494
1774323000000,70506.20,70524.60,70400.00,70459.80,598.717
1774323900000,70459.70,70534.00,70416.50,70512.10,501.347
1774324800000,70512.10,70726.40,70483.60,70604.40,1277.037
1774325700000,70604.50,70626.70,70490.10,70494.60,502.887
1774326600000,70494.60,70494.60,70257.80,70304.80,1227.392
1774327500000,70304.80,70412.20,70214.30,70339.90,1038.811
1774328400000,70340.00,70345.10,70121.00,70138.00,2117.398
1774329300000,70138.00,70325.30,70075.50,70149.10,1444.094
1774330200000,70149.20,70349.80,70115.40,70291.90,1011.730
1774331100000,70291.90,70352.90,70221.50,70249.60,594.871
1774332000000,70249.60,70380.10,70220.00,70327.60,710.341
1774332900000,70327.60,70425.10,70287.60,70348.60,992.468
1774333800000,70348.70,70478.90,70348.60,70436.00,954.529
1774334700000,70436.10,70544.90,70400.00,70507.80,759.622
1774335600000,70507.90,70885.10,70439.80,70794.90,3156.196
1774336500000,70794.80,71000.00,70745.00,70889.80,2537.763
1774337400000,70889.80,70930.80,70781.50,70875.80,2610.236
1774338300000,70875.80,71377.50,70800.00,71255.20,4329.144
1774339200000,71255.20,71314.30,71049.90,71096.90,2355.378
1774340100000,71097.00,71099.20,70823.90,70890.10,1956.269
1774341000000,70890.10,71050.00,70832.20,71037.20,1317.352
1774341900000,71037.10,71066.60,70851.00,70933.80,986.476
1774342800000,70933.80,71009.80,70840.60,70840.70,966.300
1774343700000,70840.60,71014.20,70812.70,70980.10,1030.680
1774344600000,70980.00,71220.00,70946.50,71211.70,1291.506
1774345500000,71211.60,71339.80,71121.00,71288.50,1528.927
1774346400000,71288.50,71299.80,71184.70,71227.20,1154.635
1774347300000,71227.20,71227.20,71065.00,71077.90,1103.186
1774348200000,71078.00,71249.80,71050.10,71213.50,1220.199
1774349100000,71213.50,71259.20,71114.90,71237.40,594.200
1774350000000,71237.40,71237.40,70937.70,71082.60,1702.416
1774350900000,71082.60,71094.40,70916.90,71035.30,901.072
1774351800000,71035.30,71301.90,71002.10,71205.50,1533.748
1774352700000,71205.50,71284.50,70980.90,71116.40,1258.322
1774353600000,71116.40,71144.00,70942.00,71033.20,1212.918
1774354500000,71033.20,71075.90,70958.40,71050.30,794.489
1774355400000,71050.30,71050.30,70822.20,70862.00,1582.456
1774356300000,70862.00,70997.40,70834.20,70924.40,827.327
1774357200000,70924.40,71029.20,70610.10,70790.30,2602.460
1774358100000,70790.20,70831.00,70534.90,70569.90,2521.089
1774359000000,70569.90,70752.80,70192.40,70284.60,6938.771
1774359900000,70284.60,70410.60,69888.00,70067.00,7883.091
1774360800000,70067.00,70449.00,69718.00,69829.80,6662.489
1774361700000,69829.80,70064.90,69756.00,69970.10,3915.946
1774362600000,69970.10,70104.00,69738.00,69818.90,3160.513
1774363500000,69818.80,70033.40,69467.80,69847.60,9920.335
1774364400000,69847.60,70030.10,69818.00,69927.20,2640.379
1774365300000,69927.20,70240.00,69876.90,69997.60,5050.662
1774366200000,69997.50,70141.90,69739.50,70022.30,2813.521
1774367100000,70022.20,70168.60,69822.70,69837.70,2036.818
1774368000000,69837.60,69911.50,69760.10,69878.80,2056.430
1774368900000,69878.80,69979.00,69593.90,69769.80,2951.992
1774369800000,69769.90,69815.60,69281.20,69537.10,6342.475
1774370700000,69537.20,69594.00,69387.20,69448.30,1928.358
1774371600000,69448.40,69486.00,69088.00,69205.20,4730.426
1774372500000,69205.20,69263.90,69074.00,69149.50,1778.877
1774373400000,69149.40,69305.00,68888.80,68911.10,3541.485
1774374300000,68911.10,69242.10,68884.50,69205.00,3984.168
1774375200000,69205.00,69363.10,69127.40,69331.50,2851.225
1774376100000,69331.50,69481.80,69239.70,69383.50,2258.232
1774377000000,69383.50,69724.80,69341.00,69493.50,2525.685
1774377900000,69493.60,69539.90,69389.40,69399.50,1230.798
1774378800000,69399.50,69612.70,69395.90,69608.50,893.057
1774379700000,69608.40,69668.80,69489.60,69510.40,784.205
1774380600000,69510.40,69510.40,69336.20,69407.30,1269.746
1774381500000,69407.20,69407.20,69226.00,69342.60,1327.797
1774382400000,69342.60,69387.20,69257.90,69384.60,625.427
1774383300000,69384.60,70270.00,69384.60,69975.00,6504.572
1774384200000,69974.90,70197.40,69926.40,70027.10,3425.026
1774385100000,70027.10,70212.50,69858.40,70066.60,2027.869
1774386000000,70066.60,70182.90,69901.00,69959.90,1553.499
1774386900000,69960.00,70099.90,69844.30,70022.50,1149.905
1774387800000,70022.60,70386.60,69992.00,70240.10,1737.027
1774388700000,70240.10,70365.90,70164.50,70296.20,1403.689
1774389600000,70296.20,70548.10,70180.00,70497.80,2278.763
1774390500000,70497.70,70503.40,70143.80,70204.40,1636.360
1774391400000,70204.40,70285.70,70084.00,70250.10,968.463
1774392300000,70250.00,70359.10,70204.00,70277.90,824.938
1774393200000,70278.00,70555.40,70216.70,70499.90,1743.730
1774394100000,70499.90,70729.10,70464.90,70712.00,3059.177
1774395000000,70712.10,70800.00,70624.80,70625.50,2200.536
1774395900000,70625.50,70658.90,70502.00,70523.90,964.960
1774396800000,70524.00,70723.50,70493.00,70690.00,1051.167
1774397700000,70690.10,70692.90,70530.10,70630.00,656.011
1774398600000,70630.00,71028.00,70422.60,70893.70,3924.841
1774399500000,70893.70,70962.00,70750.20,70804.30,1193.466
1774400400000,70804.30,70950.00,70660.40,70770.00,1855.173
1774401300000,70770.10,70810.50,70650.70,70727.10,1122.466
1774402200000,70727.10,70777.00,70590.60,70707.20,1273.100
1774403100000,70707.30,70793.60,70643.10,70643.10,748.376
1774404000000,70643.10,70678.90,70503.40,70573.70,1010.790
1774404900000,70573.90,70637.00,70484.70,70564.40,946.397
1774405800000,70564.40,70741.50,70484.70,70660.20,753.522
1774406700000,70660.10,70714.80,70460.10,70500.00,954.320
1774407600000,70500.00,70541.60,70378.00,70471.90,1330.950
1774408500000,70471.90,70521.70,70375.00,70500.10,1208.294
1774409400000,70500.10,70777.90,70500.10,70715.50,1388.485
1774410300000,70715.50,70776.40,70678.70,70689.30,750.383
1774411200000,70689.20,70879.30,70659.90,70817.50,1103.854
1774412100000,70817.40,70920.00,70742.60,70833.10,846.285
1774413000000,70833.10,70851.00,70702.60,70739.50,751.590
1774413900000,70739.50,70949.30,70691.60,70938.10,885.444
1774414800000,70938.10,71319.90,70900.20,71209.60,4352.993
1774415700000,71209.60,71219.10,71052.00,71160.90,1459.009
1774416600000,71160.80,71220.00,71076.40,71183.80,822.174
1774417500000,71183.80,71211.60,71040.30,71080.10,914.625
1774418400000,71080.10,71126.00,70950.20,71042.90,1104.901
1774419300000,71042.90,71233.70,71042.80,71195.80,998.734
1774420200000,71195.80,71216.80,71112.00,71153.60,1098.183
1774421100000,71153.60,71191.80,70928.50,70962.80,1347.850
1774422000000,70962.80,71113.10,70916.10,71105.30,1033.883
1774422900000,71105.40,71121.30,71006.70,71028.90,553.250
1774423800000,71028.90,71233.60,71000.00,71023.00,1159.930
1774424700000,71023.00,71053.20,70850.00,70900.00,1743.486
1774425600000,70899.90,70980.00,70752.50,70774.60,1606.836
1774426500000,70774.60,71226.00,70774.60,71155.60,1973.253
1774427400000,71155.70,71478.00,71142.70,71438.20,4311.932
1774428300000,71438.30,71438.30,71179.30,71209.10,1203.089
1774429200000,71209.20,71347.20,71178.90,71290.00,992.342
1774430100000,71290.00,71361.20,71108.00,71226.70,1180.334
1774431000000,71226.60,71290.20,71188.90,71226.30,806.293
1774431900000,71226.40,71376.00,71058.40,71301.50,1524.736
1774432800000,71301.40,71420.00,71250.90,71386.90,1356.603
1774433700000,71386.90,71450.00,71332.70,71369.80,992.720
1774434600000,71369.70,71398.00,71278.70,71397.90,691.826
1774435500000,71398.00,71600.00,71396.50,71462.70,2618.699
1774436400000,71462.70,71568.00,71425.00,71559.20,983.674
1774437300000,71559.10,71935.90,71559.10,71832.80,3842.791
1774438200000,71832.90,71999.90,71737.30,71782.20,4809.552
1774439100000,71782.20,71785.80,71484.50,71650.30,2715.205
1774440000000,71650.30,71816.70,71650.30,71716.90,1609.142
1774440900000,71716.90,71721.80,71085.50,71310.30,7457.983
1774441800000,71310.30,71450.00,71149.90,71327.20,2962.709
1774442700000,71327.20,71933.30,71249.30,71685.40,4659.995
1774443600000,71685.40,71837.00,71603.80,71675.40,1907.083
1774444500000,71675.30,71683.50,71550.00,71594.20,1023.601
1774445400000,71594.20,71931.90,71587.20,71696.40,3321.836
1774446300000,71696.60,71793.70,71473.30,71546.60,2162.663
1774447200000,71546.60,71666.60,71233.60,71364.90,3578.249
1774448100000,71365.00,71510.80,71232.00,71341.20,1958.883
1774449000000,71341.10,71530.00,71271.80,71331.40,1336.604
1774449900000,71331.40,71417.30,71190.00,71203.60,1579.589
1774450800000,71203.60,71282.30,70704.60,70788.10,6110.738
1774451700000,70788.20,70997.00,70531.40,70986.70,6086.523
1774452600000,70986.80,71078.10,70779.50,70855.10,2699.953
1774453500000,70855.20,70924.50,70741.70,70792.40,1608.356
1774454400000,70792.40,70956.00,70671.30,70840.60,3167.580
1774455300000,70840.70,71742.20,70797.40,71475.30,7565.381
1774456200000,71475.30,71605.10,71341.70,71434.50,2526.277
1774457100000,71434.60,71437.80,71202.40,71290.00,1766.366
1774458000000,71290.00,71361.80,71052.00,71120.50,1591.218
1774458900000,71120.40,71176.40,70923.10,71043.70,1656.369
1774459800000,71043.70,71043.70,70806.70,70883.40,1407.198
1774460700000,70883.30,70948.60,70676.80,70752.60,1751.169
1774461600000,70752.60,70918.50,70720.00,70893.30,2058.891
1774462500000,70893.20,71121.30,70893.20,70935.30,1634.219
1774463400000,70935.30,70979.30,70762.20,70815.80,951.531
1774464300000,70815.70,70946.30,70623.40,70786.80,1297.635
1774465200000,70786.80,70984.50,70741.80,70820.30,1151.110
1774466100000,70820.30,70960.50,70791.40,70928.20,599.296
1774467000000,70928.00,71082.30,70834.50,70912.00,594.204
1774467900000,70912.00,70967.60,70741.80,70853.20,804.600
1774468800000,70853.30,70879.90,70648.00,70715.00,1573.661
1774469700000,70714.90,70781.90,70603.00,70679.90,828.324
1774470600000,70679.90,70917.00,70667.10,70917.00,668.794
1774471500000,70917.10,71028.00,70859.50,70970.00,911.451
1774472400000,70970.00,71149.60,70907.90,71128.40,886.018
1774473300000,71128.50,71145.20,70889.60,70947.00,885.996
1774474200000,70947.00,71070.30,70932.10,71024.70,347.512
1774475100000,71024.80,71075.60,70929.30,71000.00,375.511
1774476000000,71000.00,71103.50,70930.00,70958.50,590.597
1774476900000,70958.50,71050.00,70907.10,71004.50,379.677
1774477800000,71004.50,71606.00,70992.70,71338.40,3121.765
1774478700000,71338.50,71425.70,71279.60,71330.10,686.750
1774479600000,71330.00,71412.10,71279.80,71279.80,787.838
1774480500000,71279.80,71402.60,71200.00,71326.90,658.119
1774481400000,71327.00,71341.50,71155.70,71185.20,694.577
1774482300000,71185.20,71349.90,71143.50,71297.50,578.491
1774483200000,71297.50,71343.30,71139.60,71217.70,913.070
1774484100000,71217.80,71346.50,71194.30,71261.00,540.622
1774485000000,71261.00,71372.20,71239.90,71316.10,817.773
1774485900000,71316.10,71408.10,71088.10,71265.80,1476.429
1774486800000,71265.80,71339.90,71157.80,71231.50,598.874
1774487700000,71231.50,71341.00,71116.90,71283.70,637.689
1774488600000,71283.70,71324.60,71200.00,71218.60,513.449
1774489500000,71218.70,71262.00,71132.80,71212.90,703.262
1774490400000,71212.90,71257.10,71013.10,71059.90,1014.176
1774491300000,71059.90,71060.00,70855.70,70858.10,1475.302
1774492200000,70858.10,70877.10,70640.00,70834.90,2615.133
1774493100000,70834.60,70888.00,70803.40,70855.00,703.797
1774494000000,70855.00,70944.90,70716.50,70944.30,884.989
1774494900000,70944.30,70944.40,70650.00,70683.50,1206.210
1774495800000,70683.40,70869.60,70680.00,70827.30,763.729
1774496700000,70827.40,70885.40,70760.10,70881.90,504.870
1774497600000,70882.00,70882.00,70700.00,70713.80,671.894
1774498500000,70713.90,70838.00,70680.00,70838.00,619.560
1774499400000,70838.00,70863.70,70786.10,70809.40,614.786
1774500300000,70809.30,70847.90,70724.50,70737.00,676.488
1774501200000,70737.00,70767.60,70435.10,70527.30,2897.307
1774502100000,70527.40,70608.80,70480.00,70540.80,937.138
1774503000000,70540.80,70595.00,70253.00,70278.90,2362.247
1774503900000,70278.90,70344.60,69906.20,69988.70,6189.274
1774504800000,69988.60,70080.70,69815.40,70042.10,3586.979
1774505700000,70042.10,70115.80,69867.50,70026.10,2156.383
1774506600000,70026.10,70068.00,69950.00,69959.70,874.227
1774507500000,69959.80,70126.60,69956.90,70057.50,1053.926
1774508400000,70057.40,70140.00,69980.00,70008.60,1241.954
1774509300000,70008.60,70065.50,69864.60,69934.40,1130.947
1774510200000,69934.40,70079.10,69722.60,70036.00,2238.744
1774511100000,70036.00,70127.90,70014.00,70053.80,918.885
1774512000000,70053.80,70095.70,69856.00,69893.10,1264.555
1774512900000,69893.10,69976.70,69781.50,69785.60,1651.946
1774513800000,69785.60,69916.30,69769.70,69903.40,1253.104
1774514700000,69903.40,70012.00,69858.50,69985.90,1423.922
1774515600000,69986.00,70131.50,69893.40,69996.90,1833.071
1774516500000,69996.90,70007.30,69835.10,69986.90,973.019
1774517400000,69987.00,69987.00,69400.10,69470.00,7318.317
1774518300000,69470.10,69579.50,69366.00,69537.60,2112.099
1774519200000,69537.60,69600.00,69460.00,69542.50,1391.167
1774520100000,69542.50,69693.70,69540.10,69619.80,1202.021
1774521000000,69619.80,69627.60,69463.00,69506.10,949.992
1774521900000,69506.10,69534.90,69417.00,69480.00,1110.872
1774522800000,69480.00,69620.00,69388.00,69527.50,1599.074
1774523700000,69527.50,69548.50,69127.20,69281.90,4479.783
1774524600000,69282.00,69420.10,69271.20,69353.50,1587.977
1774525500000,69353.50,69399.20,69232.00,69239.30,1148.529
1774526400000,69239.30,69376.00,69187.40,69340.10,1812.794
1774527300000,69340.10,69398.00,69295.10,69387.00,1181.968
1774528200000,69387.10,69427.90,69208.30,69330.00,1267.137
1774529100000,69330.00,69428.00,69330.00,69395.10,901.682
1774530000000,69395.20,69500.00,69372.50,69447.00,1544.198
1774530900000,69447.10,69492.10,69336.40,69360.00,1306.512
1774531800000,69360.00,69519.00,69158.90,69518.90,3124.382
1774532700000,69519.00,69872.20,69459.00,69617.40,9561.409
1774533600000,69615.80,69800.00,69482.10,69573.30,2340.479
1774534500000,69573.30,69685.80,69374.00,69580.00,1868.386
1774535400000,69579.90,69750.00,69454.30,69481.20,1796.465
1774536300000,69481.30,69541.70,69217.00,69450.10,3132.398
1774537200000,69450.00,69472.60,68806.80,68922.10,6482.471
1774538100000,68922.10,69056.30,68553.40,68998.80,8108.407
1774539000000,68998.90,69040.00,68867.00,68964.90,2136.682
1774539900000,68964.90,69199.00,68953.50,69054.80,2549.130
1774540800000,69054.90,69054.90,68921.00,68999.20,1657.005
1774541700000,68999.20,69040.30,68826.20,68858.20,2031.391
1774542600000,68858.10,68989.60,68797.80,68892.40,1841.715
1774543500000,68892.40,68959.70,68825.00,68904.80,798.461
1774544400000,68904.80,69020.00,68878.60,68889.20,1014.881
1774545300000,68889.20,69070.10,68880.00,69061.70,705.034
1774546200000,69061.80,69138.80,68901.40,68925.90,1672.361
1774547100000,68926.00,68930.70,68325.20,68456.10,6732.503
1774548000000,68456.20,68581.30,68236.50,68429.40,4254.055
1774548900000,68429.30,68429.30,68115.80,68162.50,3696.126
1774549800000,68163.20,68328.50,68148.20,68296.90,1583.350
1774550700000,68296.80,68474.50,68264.40,68457.00,1883.629
1774551600000,68457.00,68486.00,68345.00,68415.30,894.996
1774552500000,68415.40,68547.00,68345.10,68400.40,803.028
1774553400000,68400.40,68645.20,68317.90,68592.40,1341.301
1774554300000,68592.40,68657.40,68456.00,68502.70,1511.030
1774555200000,68502.70,69466.60,68378.50,69169.20,9534.179
1774556100000,69169.10,69316.60,69030.00,69139.20,3944.199
1774557000000,69139.30,69277.30,69042.40,69133.60,1677.170
1774557900000,69133.50,69175.50,68900.00,68973.80,1384.600
1774558800000,68973.90,68982.00,68849.80,68882.40,1333.248
1774559700000,68882.50,69213.30,68850.00,69051.70,1793.226
1774560600000,69051.70,69100.00,68921.10,68992.00,984.538
1774561500000,68992.10,68995.50,68870.60,68885.80,681.679
1774562400000,68885.80,69000.00,68826.60,68928.90,901.018
1774563300000,68928.90,68949.40,68542.50,68718.30,2443.090
1774564200000,68718.30,68804.50,68674.50,68768.60,1045.430
1774565100000,68768.60,68862.50,68736.50,68862.50,713.035
1774566000000,68862.50,68968.90,68747.50,68789.80,1235.244
1774566900000,68789.80,68822.80,68600.00,68708.50,1261.370
1774567800000,68708.60,68752.30,68616.70,68726.70,669.983
1774568700000,68726.60,68818.80,68704.10,68788.00,496.678
1774569600000,68788.10,68942.20,68643.90,68894.20,2402.200
1774570500000,68894.20,68922.90,68688.20,68689.60,896.315
1774571400000,68689.60,68752.40,68458.50,68679.60,2059.359
1774572300000,68679.70,68757.20,68561.50,68746.40,690.104
1774573200000,68746.40,68843.70,68654.80,68829.90,1022.862
1774574100000,68830.00,68919.70,68793.30,68877.00,863.869
1774575000000,68877.10,68907.70,68808.20,68867.60,572.842
1774575900000,68867.60,69033.30,68841.20,69016.40,947.886
1774576800000,69016.50,69142.70,69008.30,69017.70,1208.881
1774577700000,69017.70,69017.80,68917.70,68990.20,484.199
1774578600000,68990.30,69043.30,68815.50,68885.00,614.996
1774579500000,68884.90,68947.30,68838.60,68870.80,411.008
1774580400000,68870.80,68888.40,68621.50,68711.10,2053.175
1774581300000,68711.20,68806.50,68679.40,68793.50,542.528
1774582200000,68793.60,68877.30,68759.90,68825.10,523.392
1774583100000,68825.10,68836.50,68725.80,68728.80,488.831
1774584000000,68728.80,68764.50,68257.20,68367.80,4819.341
1774584900000,68367.90,68530.20,68350.70,68496.20,1171.030
1774585800000,68496.20,68586.00,68463.30,68543.90,887.402
1774586700000,68543.90,68599.20,68527.00,68540.20,641.108
1774587600000,68540.10,68796.90,68508.80,68773.60,1464.026
1774588500000,68773.60,68830.00,68546.10,68562.60,1223.409
1774589400000,68562.50,68668.40,68453.60,68564.50,928.650
1774590300000,68564.50,68595.20,68522.90,68588.80,417.377
1774591200000,68588.80,68722.60,68530.60,68714.70,597.012
1774592100000,68714.70,68811.00,68670.70,68754.30,913.326
1774593000000,68754.20,68793.30,68692.30,68702.90,617.981
1774593900000,68702.90,68702.90,68600.00,68621.50,668.908
1774594800000,68621.50,68882.90,68570.00,68830.60,1537.506
1774595700000,68830.50,68925.00,68770.00,68883.80,1393.683
1774596600000,68883.70,68918.00,68482.80,68562.50,2822.206
1774597500000,68562.50,68599.00,68416.50,68501.70,2514.596
1774598400000,68501.80,68619.90,68410.10,68429.50,1794.802
1774599300000,68429.40,68476.20,68181.00,68200.90,2760.663
1774600200000,68201.00,68268.80,67560.00,67780.50,10245.109
1774601100000,67780.40,68030.00,67720.00,67876.60,3350.237
1774602000000,67876.70,67906.60,67500.20,67709.90,4127.178
1774602900000,67710.00,67912.10,67700.60,67901.50,1498.157
1774603800000,67901.60,67905.50,67671.00,67685.30,1734.964
1774604700000,67685.30,67850.90,67632.00,67651.90,1574.416
1774605600000,67652.00,67735.30,67565.70,67625.30,1332.373
1774606500000,67625.10,67737.90,67615.80,67725.50,744.270
1774607400000,67725.60,67734.30,66720.40,66846.60,15178.467
1774608300000,66846.70,66899.70,66257.40,66456.40,9347.843
1774609200000,66456.40,66588.00,66175.40,66574.30,5775.791
1774610100000,66574.40,66713.70,66556.40,66673.80,3153.525
1774611000000,66673.70,66733.60,66603.00,66725.70,1717.915
1774611900000,66725.80,66810.90,66625.40,66663.20,1920.078
1774612800000,66663.30,66742.20,66563.00,66603.20,1705.750
1774613700000,66603.20,66683.10,66481.80,66500.80,1477.390
1774614600000,66500.70,66605.00,66388.00,66579.10,1797.441
1774615500000,66579.10,66650.00,66441.80,66579.40,1103.193
1774616400000,66579.40,66699.90,66479.80,66500.20,1257.042
1774617300000,66500.10,66689.80,66452.00,66658.50,1504.784
1774618200000,66658.60,66693.50,66025.40,66467.40,7410.080
1774619100000,66467.40,66538.00,65950.00,66153.90,5210.595
1774620000000,66153.90,66375.20,66054.70,66321.00,3855.429
1774620900000,66320.90,66340.60,65681.50,65694.30,8034.372
1774621800000,65694.10,65991.60,65691.10,65862.60,4085.174
1774622700000,65862.60,66206.30,65742.20,66162.70,4822.176
1774623600000,66162.70,66265.20,66052.00,66209.80,4065.504
1774624500000,66209.80,66435.60,65930.30,66307.00,5450.810
1774625400000,66307.00,66615.00,66258.10,66372.50,4810.706
1774626300000,66372.60,66438.90,66051.20,66092.00,3213.681
1774627200000,66091.90,66092.00,65731.80,65943.30,5205.096
1774628100000,65943.20,66070.60,65780.00,65926.50,2323.483
1774629000000,65926.60,66000.00,65782.00,65992.10,1690.808
1774629900000,65992.10,66149.60,65808.60,65945.50,2220.554
1774630800000,65945.50,66267.40,65900.10,66178.50,2449.599
1774631700000,66178.40,66248.50,65828.10,65828.10,2545.703
1774632600000,65828.10,65901.30,65550.00,65589.90,3526.696
1774633500000,65589.90,65711.80,65556.20,65604.00,2204.047
1774634400000,65604.00,65762.60,65555.00,65590.10,1805.313
1774635300000,65590.10,65838.50,65501.00,65728.00,2118.695
1774636200000,65728.10,65848.70,65693.50,65771.90,1819.094
1774637100000,65771.90,65939.10,65763.40,65804.00,1054.811
1774638000000,65804.00,65823.80,65666.60,65750.40,1068.386
1774638900000,65750.30,65910.00,65704.50,65892.50,1135.708
1774639800000,65892.50,66019.90,65837.80,65895.10,1354.790
1774640700000,65895.20,66119.60,65842.50,66005.40,2237.223
1774641600000,66005.50,66125.80,65959.50,65961.00,1732.632
1774642500000,65961.10,66052.00,65766.10,65862.90,1307.811
1774643400000,65862.90,65916.20,65783.70,65855.00,684.237
1774644300000,65855.00,66060.40,65844.70,65983.00,973.316
1774645200000,65983.10,66148.00,65972.60,66110.70,769.396
1774646100000,66110.60,66135.00,66066.00,66110.60,436.399
1774647000000,66110.70,66136.10,66002.00,66083.20,518.192
1774647900000,66083.10,66100.00,65989.50,66040.30,508.371
1774648800000,66040.40,66053.20,65909.80,65971.70,645.040
1774649700000,65971.70,65987.40,65903.60,65971.00,656.756
1774650600000,65971.00,66017.40,65874.40,66002.00,646.212
1774651500000,66001.90,66040.10,65973.40,65981.10,524.063
1774652400000,65981.10,66064.80,65931.50,66052.70,500.983
1774653300000,66052.60,66186.60,66024.60,66150.00,822.920
1774654200000,66149.90,66253.60,66118.20,66246.50,965.557
1774655100000,66246.50,66384.00,66246.00,66364.20,1439.234
1774656000000,66364.10,66432.70,66239.90,66264.60,1225.461
1774656900000,66264.60,66355.00,66264.60,66331.40,495.482
1774657800000,66331.40,66472.40,66331.30,66450.00,1043.111
1774658700000,66450.00,66453.50,66366.40,66389.90,546.632
1774659600000,66389.90,66389.90,66039.10,66115.70,1385.295
1774660500000,66115.70,66247.20,66110.80,66177.20,730.961
1774661400000,66177.10,66248.80,66006.10,66104.10,1068.758
1774662300000,66104.00,66153.00,66067.00,66137.10,603.383
1774663200000,66137.20,66214.00,66115.60,66155.90,658.585
1774664100000,66156.00,66191.50,65970.70,66012.00,1298.183
1774665000000,66012.10,66038.00,65888.00,66000.00,1160.748
1774665900000,65999.90,66034.30,65927.10,66020.10,769.508
1774666800000,66020.00,66141.10,66020.00,66092.60,893.145
1774667700000,66092.60,66151.80,66092.60,66131.30,573.274
1774668600000,66131.30,66217.50,66103.60,66195.00,551.152
1774669500000,66195.10,66206.00,66142.10,66191.80,444.150
1774670400000,66191.80,66196.60,66068.30,66084.10,654.939
1774671300000,66084.10,66259.90,66084.10,66231.80,690.824
1774672200000,66231.90,66258.70,66212.00,66243.80,313.229
1774673100000,66243.80,66274.70,66193.30,66243.50,370.550
1774674000000,66243.60,66258.80,66169.00,66214.60,359.211
1774674900000,66214.50,66349.00,66186.30,66299.50,736.949
1774675800000,66299.50,66332.40,66245.80,66294.10,465.575
1774676700000,66294.10,66333.00,66276.60,66310.00,660.312
1774677600000,66310.00,66379.50,66270.90,66328.40,673.015
1774678500000,66328.40,66460.00,66321.70,66427.00,915.773
1774679400000,66427.10,66444.00,66382.40,66392.50,554.613
1774680300000,66392.50,66415.50,66315.00,66358.20,538.747
1774681200000,66358.10,66431.70,66341.30,66401.50,396.376
1774682100000,66401.50,66450.00,66393.70,66431.40,425.326
1774683000000,66431.30,66431.40,66391.70,66405.50,473.597
1774683900000,66405.60,66533.90,66403.10,66520.80,1132.148
1774684800000,66520.90,66529.40,66430.20,66465.60,1022.437
1774685700000,66465.60,66525.00,66462.60,66517.10,467.296
1774686600000,66517.00,66521.40,66380.80,66380.80,634.595
1774687500000,66380.90,66432.00,66352.10,66374.90,622.443
1774688400000,66374.90,66374.90,66272.70,66318.90,892.366
1774689300000,66318.90,66359.80,66250.10,66315.80,844.689
1774690200000,66315.40,66326.30,66211.20,66229.20,601.260
1774691100000,66229.30,66284.20,66203.50,66270.90,457.303
1774692000000,66271.00,66379.90,66252.80,66283.20,462.546
1774692900000,66283.30,66307.90,66114.00,66133.90,1169.600
1774693800000,66133.80,66194.90,66087.30,66157.80,811.533
1774694700000,66157.80,66200.00,66140.10,66184.90,456.269
1774695600000,66184.90,66275.60,66162.00,66218.40,723.181
1774696500000,66218.30,66283.60,66200.00,66282.70,363.141
1774697400000,66282.60,66301.30,66262.60,66282.90,614.793
1774698300000,66282.90,66325.70,66270.00,66288.50,551.276
1774699200000,66288.40,66378.00,66191.70,66367.10,773.016
1774700100000,66367.20,66498.10,66367.10,66402.00,1477.064
1774701000000,66402.00,66406.80,66253.60,66327.90,635.899
1774701900000,66327.90,66436.20,66312.60,66416.70,627.923
1774702800000,66416.70,66478.50,66388.00,66440.10,814.325
1774703700000,66440.10,66465.80,66363.60,66432.40,656.449
1774704600000,66432.40,67148.70,66419.50,66904.80,9089.949
1774705500000,66904.80,66978.00,66743.00,66813.30,2625.632
1774706400000,66813.40,66900.10,66710.00,66750.00,1357.867
1774707300000,66750.00,66823.80,66682.00,66789.00,1001.082
1774708200000,66788.90,66918.00,66677.50,66859.60,1301.109
1774709100000,66859.70,66942.30,66631.50,66716.20,1700.492
1774710000000,66716.10,66869.30,66678.10,66847.10,822.353
1774710900000,66847.10,67284.00,66825.10,66994.10,6909.883
1774711800000,66994.10,67120.10,66943.70,67019.00,1275.753
1774712700000,67019.00,67038.30,66884.00,66982.30,840.309
1774713600000,66982.40,67060.40,66887.20,66995.10,1538.995
1774714500000,66995.10,67065.00,66995.00,67038.90,643.240
1774715400000,67038.90,67038.90,66854.80,66871.70,912.006
1774716300000,66871.60,66911.00,66821.30,66894.30,892.622
1774717200000,66894.30,66965.70,66847.80,66891.50,704.521
1774718100000,66891.60,66891.60,66732.10,66739.90,1050.015
1774719000000,66739.90,66889.60,66644.00,66777.10,1330.978
1774719900000,66777.10,66841.30,66728.10,66808.60,388.280
1774720800000,66808.60,66900.00,66806.00,66899.90,655.366
1774721700000,66900.00,66907.60,66831.60,66845.70,365.803
1774722600000,66845.70,66920.00,66801.00,66916.50,655.398
1774723500000,66916.40,66916.40,66846.00,66871.10,812.842
1774724400000,66871.20,66916.50,66764.70,66805.60,557.940
1774725300000,66805.50,66831.60,66780.00,66827.80,222.427
1774726200000,66827.80,66864.00,66800.00,66800.10,209.508
1774727100000,66800.00,66873.00,66795.00,66873.00,323.011
1774728000000,66873.00,66978.00,66872.90,66959.00,681.267
1774728900000,66959.00,66973.80,66871.20,66881.70,448.321
1774729800000,66881.60,66968.00,66868.30,66875.80,491.846
1774730700000,66875.90,66941.00,66875.90,66885.50,241.115
1774731600000,66885.60,66890.00,66751.00,66800.10,471.812
1774732500000,66800.00,66818.20,66768.10,66814.20,294.320
1774733400000,66814.20,66859.90,66771.40,66825.00,226.437
1774734300000,66825.00,66825.10,66526.80,66644.80,1399.532
1774735200000,66644.90,66691.60,66563.50,66565.50,1072.039
1774736100000,66565.50,66757.80,66562.00,66743.50,637.220
1774737000000,66743.50,66758.90,66660.00,66665.20,280.182
1774737900000,66665.10,66740.00,66660.30,66729.00,405.177
1774738800000,66729.00,66729.00,66233.60,66359.50,2492.579
1774739700000,66359.60,66404.80,66248.30,66352.60,1863.507
1774740600000,66352.50,66450.00,66343.20,66354.60,1090.267
1774741500000,66354.70,66384.30,66271.90,66334.80,602.074
1774742400000,66334.80,66437.80,66317.70,66376.30,827.076
1774743300000,66376.30,66455.50,66235.60,66357.30,710.610
1774744200000,66357.20,66433.90,66323.50,66360.00,536.244
1774745100000,66360.00,66468.60,66353.20,66444.40,474.074
1774746000000,66444.30,66560.00,66440.60,66515.00,1187.381
1774746900000,66514.90,66585.90,66481.40,66516.70,450.326
1774747800000,66516.60,66525.40,66344.20,66439.10,546.124
1774748700000,66439.00,66566.60,66381.00,66536.10,951.705
1774749600000,66536.00,66616.30,66500.40,66603.40,817.210
1774750500000,66603.40,66677.00,66550.00,66615.70,849.965
1774751400000,66615.70,66729.50,66529.70,66673.80,668.280
1774752300000,66673.90,66820.00,66649.00,66773.70,1157.676
1774753200000,66773.70,66786.50,66724.00,66769.00,937.965
1774754100000,66769.10,67100.00,66754.00,66935.30,3458.378
1774755000000,66935.40,66974.90,66872.20,66887.90,526.732
1774755900000,66887.90,66920.00,66821.30,66875.70,937.358
1774756800000,66875.70,66907.50,66813.60,66879.20,415.549
1774757700000,66879.30,66879.30,66737.10,66786.30,1203.995
1774758600000,66786.30,66819.90,66747.20,66764.30,347.783
1774759500000,66764.40,66770.00,66683.30,66701.90,396.669
1774760400000,66701.90,66720.30,66632.40,66663.50,559.369
1774761300000,66663.50,66723.70,66571.40,66603.50,1156.340
1774762200000,66603.60,66650.00,66565.00,66640.40,370.810
1774763100000,66640.50,66799.50,66600.00,66741.30,1007.478
1774764000000,66741.30,66845.00,66737.60,66790.00,533.645
1774764900000,66790.00,66839.00,66601.10,66661.80,755.717
1774765800000,66661.80,66691.70,66631.20,66645.10,390.795
1774766700000,66645.10,66746.10,66622.40,66704.40,375.457
1774767600000,66704.40,66704.50,66521.40,66568.60,856.907
1774768500000,66568.60,66648.60,66554.70,66648.60,374.969
1774769400000,66648.60,66685.10,66583.20,66605.00,590.626
1774770300000,66604.90,66720.00,66572.30,66632.50,1221.511
1774771200000,66632.40,66727.10,66590.00,66618.40,606.017
1774772100000,66618.50,66649.90,66560.00,66641.10,307.607
1774773000000,66641.10,66743.70,66641.00,66704.40,495.091
1774773900000,66704.40,66719.30,66662.10,66689.50,477.490
1774774800000,66689.40,66740.00,66556.00,66658.40,747.397
1774775700000,66658.40,66693.40,66598.60,66645.00,300.336
1774776600000,66644.90,66670.10,66500.90,66546.50,828.915
1774777500000,66546.50,66613.20,66546.50,66600.10,199.395
1774778400000,66600.00,66600.00,66458.10,66515.10,922.949
1774779300000,66515.20,66529.70,66401.00,66440.00,976.300
1774780200000,66440.00,66520.00,66375.50,66512.50,689.979
1774781100000,66512.60,66545.90,66466.20,66473.40,451.202
1774782000000,66473.40,66831.90,66473.30,66745.70,1826.939
1774782900000,66745.70,66821.60,66703.40,66803.80,766.855
1774783800000,66803.80,66899.00,66734.10,66864.30,977.731
1774784700000,66864.30,66986.80,66768.90,66780.80,1219.224
1774785600000,66780.80,66820.00,66735.00,66738.00,726.073
1774786500000,66737.90,66794.70,66689.50,66751.30,863.554
1774787400000,66751.40,66780.70,66668.00,66708.40,596.619
1774788300000,66708.40,66844.30,66700.00,66818.60,622.593
1774789200000,66818.70,66849.00,66483.90,66567.70,2222.960
1774790100000,66567.80,66679.90,66524.80,66601.10,696.154
1774791000000,66601.10,66658.10,66571.80,66632.90,519.454
1774791900000,66632.90,66653.60,66501.70,66546.00,535.142
1774792800000,66546.10,66764.90,66420.00,66633.50,2344.955
1774793700000,66633.50,66659.90,66479.90,66502.10,709.773
1774794600000,66502.10,66587.50,66464.20,66542.20,739.868
1774795500000,66542.10,66569.20,66465.30,66556.20,463.197
1774796400000,66556.30,66695.00,66482.00,66567.50,1617.708
1774797300000,66567.60,66640.20,66300.90,66392.50,1717.049
1774798200000,66392.50,66448.40,66288.10,66425.10,1497.995
1774799100000,66425.00,66519.10,66388.00,66500.00,715.271
1774800000000,66499.90,66537.20,66407.10,66417.40,805.923
1774800900000,66417.30,66639.00,66400.00,66591.50,1092.797
1774801800000,66591.50,66591.50,66500.00,66504.40,576.356
1774802700000,66504.50,66542.60,66455.90,66467.80,377.757
1774803600000,66467.80,66518.20,66359.40,66385.60,503.882
1774804500000,66385.60,66385.70,66111.00,66228.90,3193.145
1774805400000,66228.90,66400.10,66201.00,66360.20,1078.032
1774806300000,66360.30,66410.60,66324.20,66356.60,609.280
1774807200000,66356.60,66386.10,66291.20,66372.60,363.480
1774808100000,66372.70,66441.20,66329.70,66367.80,424.037
1774809000000,66367.90,66524.00,66367.80,66395.90,655.287
1774809900000,66396.00,66433.40,66351.00,66397.20,282.789
1774810800000,66397.10,66421.20,66353.40,66404.00,296.734
1774811700000,66404.00,66448.00,66366.80,66395.20,665.933
1774812600000,66395.30,66453.40,66318.00,66363.50,443.375
1774813500000,66363.50,66400.00,66282.10,66320.20,769.147
1774814400000,66320.30,66480.00,66312.70,66426.60,715.090
1774815300000,66426.60,66767.90,66426.60,66675.60,2631.407
1774816200000,66675.70,66691.70,66563.60,66563.70,783.583
1774817100000,66563.70,66598.60,66536.40,66578.60,332.223
1774818000000,66578.60,66646.70,66477.50,66521.70,515.524
1774818900000,66521.70,66661.80,66499.80,66622.00,361.495
1774819800000,66622.00,66666.00,66570.00,66611.10,555.838
1774820700000,66611.20,66734.50,66611.10,66678.80,957.398
1774821600000,66678.80,66686.10,66191.50,66274.50,3253.765
1774822500000,66274.40,66462.60,66234.60,66352.30,1002.777
1774823400000,66352.20,66397.80,65602.00,65645.90,6704.105
1774824300000,65645.90,65936.40,64918.20,65820.30,14871.115
1774825200000,65820.20,66350.40,65819.00,66061.30,5275.496
1774826100000,66061.30,66263.00,65915.00,65971.50,2493.331
1774827000000,65971.40,66062.80,65823.60,65995.20,1953.239
1774827900000,65995.20,66137.50,65840.10,65977.90,1757.540
1774828800000,65978.00,66053.90,65762.80,65816.70,1669.124
1774829700000,65816.80,67043.20,65754.20,66537.50,9570.992
1774830600000,66537.40,66708.70,66152.50,66300.00,3379.145
1774831500000,66300.00,66389.90,66072.40,66251.20,1935.952
1774832400000,66251.20,66544.50,66251.10,66371.30,1884.924
1774833300000,66371.40,66634.80,66289.90,66565.60,1761.762
1774834200000,66565.60,66700.00,66495.40,66634.30,1733.817
1774835100000,66634.20,66806.10,66570.40,66624.10,2036.149
1774836000000,66624.20,66841.80,66538.50,66813.60,1352.408
1774836900000,66813.60,66875.00,66650.20,66720.00,1185.900
1774837800000,66720.00,67021.00,66560.00,67021.00,2273.570
1774838700000,67021.00,67487.70,66974.00,67087.00,9403.784
1774839600000,67087.10,67117.20,66934.70,66980.10,1662.792
1774840500000,66980.10,67264.50,66966.00,67208.90,1536.946
1774841400000,67208.90,67254.60,67103.70,67168.60,1176.071
1774842300000,67168.50,67288.80,67086.20,67139.80,888.891
1774843200000,67140.00,67466.00,67129.30,67389.60,2300.297
1774844100000,67389.60,67625.10,67339.30,67414.80,2385.526
1774845000000,67414.70,67529.50,67350.00,67386.90,1551.402
1774845900000,67386.90,67620.00,67384.30,67579.10,1519.025
1774846800000,67579.20,67777.00,67542.70,67608.90,2870.118
1774847700000,67609.00,67699.00,67549.90,67623.50,1055.150
1774848600000,67623.60,67671.20,67412.00,67463.50,1726.461
1774849500000,67463.50,67529.20,67404.00,67459.00,947.062
1774850400000,67459.00,67550.00,67378.30,67409.90,775.064
1774851300000,67409.90,67430.00,67238.60,67288.50,2464.313
1774852200000,67288.50,67369.30,67250.00,67333.70,1233.823
1774853100000,67333.70,67394.70,67264.60,67273.40,884.668
1774854000000,67273.50,67430.00,67180.50,67349.80,1356.814
1774854900000,67349.90,67402.80,67262.80,67301.20,615.959
1774855800000,67301.30,67399.90,67255.00,67283.70,573.759
1774856700000,67283.70,67612.60,67267.20,67595.90,2729.163
1774857600000,67595.90,67888.50,67574.60,67865.10,5226.284
1774858500000,67865.00,67880.00,67688.90,67727.00,2136.126
1774859400000,67727.10,67920.00,67690.10,67725.40,1523.463
1774860300000,67725.10,67784.70,67623.10,67634.00,1012.546
1774861200000,67633.90,67667.90,67538.50,67550.00,1378.851
1774862100000,67549.90,67629.00,67467.60,67485.10,1366.586
1774863000000,67485.00,67537.40,67427.80,67527.00,933.965
1774863900000,67527.00,67564.10,67426.00,67466.20,605.321
1774864800000,67466.20,67470.90,67365.00,67411.90,873.510
1774865700000,67411.90,67465.00,67383.90,67391.00,730.950
1774866600000,67391.00,67410.00,67333.30,67409.00,803.279
1774867500000,67409.00,67498.00,67390.60,67463.00,797.364
1774868400000,67463.10,67565.70,67459.70,67559.00,924.573
1774869300000,67559.00,67998.00,67508.10,67655.90,4111.414
1774870200000,67655.90,67719.70,67475.00,67565.80,1928.530
1774871100000,67565.90,67709.20,67550.10,67651.50,888.037
1774872000000,67651.50,67846.40,67627.70,67808.60,1775.149
1774872900000,67808.70,67950.00,67762.00,67827.10,1645.231
1774873800000,67827.20,67929.80,67775.30,67847.60,1143.730
1774874700000,67847.60,67914.90,67799.90,67859.30,709.180
1774875600000,67859.40,67932.90,67800.10,67870.60,1099.379
1774876500000,67870.60,68148.40,67835.70,67838.10,3588.868
1774877400000,67838.10,68008.50,67660.40,67673.50,4004.694
1774878300000,67673.60,67800.00,67378.70,67490.90,4381.631
1774879200000,67490.80,67724.60,67420.10,67641.90,2108.603
1774880100000,67641.90,67666.00,67200.00,67279.10,3787.028
1774881000000,67279.00,67375.00,67063.90,67099.90,3844.980
1774881900000,67100.00,67843.80,67055.00,67762.70,5058.709
1774882800000,67762.80,67875.00,67523.10,67527.90,3547.566
1774883700000,67528.00,67591.50,67373.70,67494.00,2000.269
1774884600000,67493.90,67871.80,67430.50,67724.10,2854.143
1774885500000,67724.00,67766.50,67558.90,67590.20,1219.965
1774886400000,67590.20,67614.90,67310.00,67414.20,2109.887
1774887300000,67414.10,67448.50,67253.30,67320.60,1155.559
1774888200000,67320.60,67481.00,67280.80,67345.90,964.526
1774889100000,67345.80,67413.50,67188.00,67333.00,1359.697
1774890000000,67332.90,67443.80,67140.50,67159.20,1096.073
1774890900000,67159.30,67167.30,66617.30,66787.20,5971.286
1774891800000,66787.30,66937.20,66729.90,66927.60,2520.902
1774892700000,66927.60,66975.90,66757.30,66805.20,1619.917
1774893600000,66805.10,66899.90,66671.20,66794.10,1479.535
1774894500000,66794.10,66831.80,66548.00,66670.90,2714.194
1774895400000,66670.90,66794.90,66544.40,66711.30,2192.284
1774896300000,66711.30,66765.20,66456.40,66620.60,2110.861
1774897200000,66620.60,66640.00,66262.50,66398.10,3549.823
1774898100000,66398.10,66427.50,66200.10,66278.00,1933.198
1774899000000,66278.10,66374.80,66213.50,66305.70,1135.835
1774899900000,66305.70,66556.70,66256.50,66516.00,2256.492
1774900800000,66515.90,66662.60,66488.70,66561.10,1372.742
1774901700000,66561.10,66641.20,66512.00,66620.00,557.623
1774902600000,66620.00,66647.00,66510.90,66628.50,502.513
1774903500000,66628.40,66640.70,66576.70,66614.90,417.944
1774904400000,66614.90,66777.00,66550.00,66749.20,937.407
1774905300000,66749.30,66963.60,66737.50,66822.00,2826.613
1774906200000,66822.10,66973.50,66782.40,66900.00,780.555
1774907100000,66900.00,66928.50,66757.90,66770.60,595.065
1774908000000,66770.60,66971.20,66668.20,66740.50,1227.356
1774908900000,66740.40,66869.20,66696.40,66785.70,408.558
1774909800000,66785.70,66831.50,66710.00,66800.00,304.785
1774910700000,66800.10,66813.60,66650.90,66746.50,1076.987
1774911600000,66746.40,66752.70,66377.10,66517.50,2968.782
1774912500000,66517.60,66690.70,66485.30,66672.10,960.085
1774913400000,66672.10,66741.00,66626.60,66729.60,899.382
1774914300000,66729.60,66769.10,66675.40,66764.40,601.844
1774915200000,66764.40,66792.40,66525.60,66614.50,1371.826
1774916100000,66615.00,66790.10,66498.90,66779.90,1232.575
1774917000000,66780.00,66922.80,66731.50,66912.60,1306.619
1774917900000,66912.60,67276.00,66906.80,67172.50,4259.105
1774918800000,67172.50,67257.80,67004.20,67194.60,1592.432
1774919700000,67194.60,67850.00,67194.60,67743.00,5864.543
1774920600000,67743.00,68377.00,67697.20,67893.30,11007.423
1774921500000,67893.30,68020.30,67776.80,67896.20,2924.353
1774922400000,67896.10,67943.00,67726.90,67883.50,1475.902
1774923300000,67883.80,68072.70,67880.40,68007.10,1432.967
1774924200000,68007.00,68029.00,67802.20,67948.00,848.377
1774925100000,67947.90,68058.00,67865.40,67911.80,941.596
1774926000000,67911.80,67974.80,67763.10,67878.60,1060.807
1774926900000,67878.60,67937.40,67767.50,67807.20,956.768
1774927800000,67807.20,67892.10,67610.80,67695.40,1401.837
1774928700000,67695.50,67730.00,67610.50,67670.80,1106.657
1774929600000,67670.80,67758.70,67548.00,67630.10,1550.373
1774930500000,67630.10,67865.70,67441.80,67562.70,2007.929
1774931400000,67562.70,67628.10,67485.70,67565.00,892.097
1774932300000,67565.10,67652.20,67480.00,67510.10,940.318
1774933200000,67510.10,67588.00,67360.50,67389.90,1134.573
1774934100000,67389.90,67630.00,67356.40,67592.30,1749.242
1774935000000,67592.40,67691.00,67530.90,67643.40,1439.467
1774935900000,67643.40,67756.80,67623.30,67648.90,931.574
1774936800000,67649.00,67679.50,67431.40,67446.50,1076.293
1774937700000,67446.60,67482.30,67300.10,67383.20,1681.853
1774938600000,67383.30,67457.30,67307.60,67379.00,955.786
1774939500000,67379.10,67505.80,67379.00,67465.40,638.981
1774940400000,67465.40,67497.00,67200.00,67267.20,1305.220
1774941300000,67267.20,67296.40,67071.90,67260.90,2771.291
1774942200000,67260.80,67350.00,67179.70,67299.90,1532.214
1774943100000,67299.90,67410.00,67281.20,67343.80,1167.989
1774944000000,67343.90,67476.90,67208.40,67324.00,1235.243
1774944900000,67323.90,67420.00,67250.60,67280.40,644.225
1774945800000,67280.30,67281.90,66777.00,66818.90,5070.154
1774946700000,66818.90,66911.90,66655.00,66745.10,4114.526
1774947600000,66745.10,66891.80,66550.00,66669.50,3310.600
1774948500000,66669.60,66686.30,66321.00,66403.90,4597.444
1774949400000,66403.90,66499.70,66368.00,66477.40,1765.531
1774950300000,66477.40,66487.00,65938.00,66099.30,5311.204
1774951200000,66099.30,66371.90,66067.00,66342.50,2819.282
1774952100000,66342.40,66432.00,66313.20,66350.00,1718.242
1774953000000,66350.10,66398.50,66188.70,66247.30,2941.336
1774953900000,66247.20,66442.00,66214.60,66329.40,1383.469
1774954800000,66329.40,66572.30,66205.00,66543.40,3449.398
1774955700000,66543.30,66850.00,66500.00,66610.00,4939.677
1774956600000,66610.00,66805.70,66603.90,66696.10,1479.220
1774957500000,66696.00,66696.10,66534.00,66652.40,1127.078
1774958400000,66652.40,66766.50,66535.00,66541.30,1398.694
1774959300000,66541.30,66799.40,66480.00,66764.50,1734.122
1774960200000,66764.40,66909.30,66692.50,66872.90,1948.461
1774961100000,66872.80,66888.00,66615.20,66623.80,1318.897
1774962000000,66623.80,66818.90,66623.80,66792.00,899.359
1774962900000,66792.00,66932.60,66719.90,66773.80,1220.633
1774963800000,66773.70,67166.50,66691.90,66937.60,4369.598
1774964700000,66937.60,67375.00,66937.60,67255.60,6782.202
1774965600000,67255.60,67500.00,67078.80,67300.40,5426.931
1774966500000,67300.00,67765.80,67285.20,67692.70,6349.285
1774967400000,67692.70,67712.20,67047.50,67184.30,4139.228
1774968300000,67184.20,67184.30,66374.40,66555.90,8366.437
1774969200000,66556.00,67262.20,66555.90,67210.50,7284.504
1774970100000,67210.60,67255.00,66864.90,66920.80,4102.010
1774971000000,66920.80,67127.40,66841.80,66906.50,3065.154
1774971900000,66906.50,67019.10,66666.50,66700.00,1986.691
1774972800000,66700.00,66970.40,66695.90,66893.20,1505.883
1774973700000,66893.10,67165.50,66881.50,67056.50,1846.492
1774974600000,67056.40,67985.50,66916.60,67742.00,8836.363
1774975500000,67742.10,67888.00,67457.00,67632.60,5675.073
1774976400000,67632.60,68532.70,67532.80,68432.90,12881.234
1774977300000,68432.80,68600.00,67951.20,68002.30,8660.900
1774978200000,68002.40,68091.90,67573.90,67683.70,5090.010
1774979100000,67683.60,67749.00,67357.10,67493.90,4442.733
1774980000000,67493.80,67764.90,67488.00,67739.70,2326.292
1774980900000,67739.70,67929.70,67594.40,67744.90,2257.645
1774981800000,67744.90,67855.40,67601.90,67789.90,996.274
1774982700000,67789.90,67912.80,67700.40,67814.60,1091.196
1774983600000,67814.50,67985.80,67802.00,67952.50,1526.598
1774984500000,67952.60,67996.00,67810.50,67840.30,959.167
1774985400000,67840.40,67901.00,67671.30,67800.00,842.310
1774986300000,67799.90,67934.90,67694.00,67803.00,1233.892
1774987200000,67803.00,68177.20,67794.80,68109.60,2130.642
1774988100000,68109.60,68135.60,67902.40,67967.30,1103.610
1774989000000,67967.20,68099.10,67911.10,68017.10,653.584
1774989900000,68017.10,68234.00,67985.00,68227.20,1457.168
1774990800000,68227.30,68227.30,67911.20,67977.30,1091.468
1774991700000,67977.30,68030.00,67840.40,67995.90,986.013
1774992600000,67995.90,68138.00,67991.70,68130.00,644.196
1774993500000,68130.10,68382.90,68119.00,68234.60,1493.105
1774994400000,68234.70,68306.90,68013.40,68172.80,1371.885
1774995300000,68172.80,68254.40,68057.40,68080.00,729.618
1774996200000,68080.10,68214.90,67919.50,68140.00,925.937
1774997100000,68140.10,68183.40,68057.10,68141.60,511.970
1774998000000,68141.70,68250.00,68050.00,68183.70,847.903
1774998900000,68183.60,68332.60,68141.00,68224.30,1016.608
1774999800000,68224.20,68332.00,68200.00,68271.30,735.744
1775000700000,68271.40,68297.10,68173.10,68241.50,603.750
1775001600000,68241.40,68241.50,67975.30,68004.70,1492.124
1775002500000,68004.60,68177.90,67863.30,67964.30,1713.244
1775003400000,67964.30,68031.70,67808.10,68031.20,1127.230
1775004300000,68031.20,68305.10,67989.80,68288.00,1566.746
1775005200000,68288.00,68330.00,68106.30,68223.70,1374.879
1775006100000,68223.80,68223.80,67976.50,68006.40,1394.835
1775007000000,68006.30,68054.70,67755.10,67915.80,1691.878
1775007900000,67915.90,67920.00,67707.50,67746.40,1405.442
1775008800000,67746.40,67873.10,67662.20,67803.30,1141.800
1775009700000,67803.30,67881.20,67556.10,67603.60,1499.697
1775010600000,67603.70,67691.30,67534.90,67617.70,996.207
1775011500000,67617.70,67705.80,67558.70,67623.80,754.486
1775012400000,67623.90,68086.20,67623.90,67950.00,1844.274
1775013300000,67950.00,67995.90,67890.00,67932.00,691.363
1775014200000,67932.20,68050.00,67872.50,68025.70,759.261
1775015100000,68025.70,68214.50,68025.70,68134.00,1598.531
1775016000000,68134.00,68234.00,67965.00,68037.10,2111.538
1775016900000,68037.20,68188.90,67999.50,68118.80,1820.154
1775017800000,68118.90,68248.00,68067.20,68186.70,746.009
1775018700000,68186.70,68450.00,68166.00,68272.30,2128.406
1775019600000,68272.30,68401.00,68114.50,68366.30,1396.065
1775020500000,68366.40,68732.50,68318.90,68552.90,4321.830
1775021400000,68552.90,68630.50,68440.40,68470.10,1588.144
1775022300000,68470.10,68528.50,68404.00,68418.20,1082.241
1775023200000,68418.30,68671.70,68418.20,68616.60,1489.869
1775024100000,68616.60,68860.00,68578.20,68826.00,3270.385
1775025000000,68825.90,69220.00,68765.70,69183.60,6224.659
1775025900000,69183.60,69218.10,68998.30,69069.10,3362.365
1775026800000,69069.10,69288.00,69069.10,69145.90,2488.067
1775027700000,69145.80,69156.80,68825.10,68869.30,3595.290
1775028600000,68869.30,68962.90,68817.10,68862.40,1491.995
1775029500000,68862.40,68895.40,68631.10,68651.90,2373.511
1775030400000,68651.90,68743.00,68479.20,68500.00,2602.560
1775031300000,68500.00,68721.20,68425.50,68708.10,2546.547
1775032200000,68708.20,68821.50,68686.80,68743.40,1520.597
1775033100000,68743.30,68758.60,68526.70,68630.80,1302.099
1775034000000,68630.90,68702.30,68409.20,68466.70,1927.985
1775034900000,68466.70,68535.50,68360.00,68527.40,1464.676
1775035800000,68527.30,68591.00,68370.60,68448.80,949.170
1775036700000,68448.80,68664.30,68448.80,68608.40,823.341
1775037600000,68608.40,68632.10,68472.00,68476.70,564.665
1775038500000,68476.60,68604.10,68450.00,68489.90,666.265
1775039400000,68489.90,68547.80,68370.10,68465.60,899.653
1775040300000,68465.60,68595.70,68401.00,68545.10,1106.330
1775041200000,68545.20,68640.70,68471.50,68581.90,742.204
1775042100000,68581.90,68613.40,68471.50,68519.40,684.242
1775043000000,68519.40,68600.00,68501.60,68571.20,673.789
1775043900000,68571.20,68702.30,68552.40,68669.90,1231.929
1775044800000,68670.00,68685.10,68421.20,68541.90,1524.692
1775045700000,68541.90,68637.10,68468.50,68480.40,672.237
1775046600000,68480.30,68748.70,68220.90,68637.40,3367.762
1775047500000,68637.50,68773.90,68312.00,68363.80,3520.129
1775048400000,68364.10,68415.90,68128.00,68403.70,3199.126
1775049300000,68403.60,68570.00,68397.00,68527.80,1363.487
1775050200000,68527.80,68650.00,67883.70,68076.60,4912.302
1775051100000,68076.70,68278.00,67903.70,68091.40,3310.919
1775052000000,68091.40,68260.00,68020.00,68229.10,1616.766
1775052900000,68229.20,68487.00,68194.20,68485.50,2783.129
1775053800000,68485.60,68608.60,68203.40,68373.10,2756.878
1775054700000,68373.20,68657.10,68321.70,68559.10,1746.933
1775055600000,68559.20,68638.50,68410.60,68454.00,1295.990
1775056500000,68453.90,68873.10,68380.30,68712.60,2880.251
1775057400000,68712.70,68836.70,68622.30,68716.90,1547.752
1775058300000,68716.90,68938.80,68716.80,68877.00,1972.499
1775059200000,68876.90,68900.00,68600.40,68638.00,2096.670
1775060100000,68638.00,68909.50,68570.00,68836.00,1616.224
1775061000000,68836.10,68961.60,68670.40,68906.10,2125.307
1775061900000,68906.20,68913.20,68775.20,68781.10,783.266
1775062800000,68781.10,69142.60,68688.00,68712.10,3176.590
1775063700000,68712.00,68764.60,68456.00,68491.40,2087.910
1775064600000,68491.40,68510.00,68258.40,68400.00,2044.972
1775065500000,68400.00,68411.00,68212.10,68239.70,1432.661
1775066400000,68239.70,68264.70,67900.40,68055.00,3843.986
1775067300000,68055.00,68136.00,67959.00,68060.30,1467.385
1775068200000,68060.40,68313.80,68012.30,68195.40,1800.568
1775069100000,68195.40,68199.90,67970.50,68054.20,1149.444
1775070000000,68054.20,68207.60,68034.80,68034.90,714.650
1775070900000,68034.80,68255.90,68000.00,68244.80,948.178
1775071800000,68244.80,68269.90,68036.00,68123.70,882.400
1775072700000,68123.60,68251.40,68079.90,68143.80,1071.090
1775073600000,68143.70,68167.40,67971.20,68053.40,831.027
1775074500000,68053.50,68113.50,67992.00,68021.50,657.903
1775075400000,68021.50,68151.50,67927.00,68148.50,759.854
1775076300000,68148.50,68217.80,68118.50,68159.80,576.572
1775077200000,68159.70,68349.90,68136.50,68257.80,947.211
1775078100000,68257.80,68510.60,68244.90,68402.10,1201.088
1775079000000,68402.20,68482.40,68280.60,68312.70,776.461
1775079900000,68312.70,68442.20,68230.10,68324.70,593.635
1775080800000,68324.80,68324.80,68104.60,68184.20,863.445
