timestamp,open,high,low,close,volume
1765220400000,89921.68000000,90200.00000000,89860.07000000,90056.56000000,108.28029000
1765221300000,90056.57000000,90195.98000000,89959.25000000,90121.37000000,86.44402000
1765222200000,90121.37000000,90321.69000000,90054.05000000,90168.56000000,88.72089000
1765223100000,90168.56000000,90366.39000000,90045.33000000,90124.48000000,59.08596000
1765224000000,90124.49000000,90490.82000000,90124.49000000,90356.00000000,116.63367000
1765224900000,90356.00000000,90629.34000000,90302.40000000,90453.56000000,136.41086000
1765225800000,90453.56000000,90620.00000000,90307.70000000,90605.89000000,111.03769000
1765226700000,90605.90000000,90917.23000000,90584.73000000,90799.92000000,200.98456000
1765227600000,90799.92000000,90976.59000000,90675.00000000,90765.22000000,145.33296000
1765228500000,90765.23000000,91067.00000000,90753.77000000,91032.59000000,116.90439000
1765229400000,91032.60000000,91257.60000000,91032.59000000,91158.16000000,186.66813000
1765230300000,91158.16000000,91374.00000000,91098.56000000,91316.01000000,130.92749000
1765231200000,91316.00000000,91373.69000000,90926.83000000,90987.99000000,109.50331000
1765232100000,90987.99000000,91056.00000000,90851.14000000,90971.50000000,103.26139000
1765233000000,90971.51000000,91051.51000000,90763.84000000,90768.00000000,105.47138000
1765233900000,90768.01000000,90935.76000000,90726.40000000,90833.86000000,73.66968000
1765234800000,90833.85000000,91026.52000000,90794.24000000,90812.75000000,147.64783000
1765235700000,90812.76000000,90873.98000000,90490.76000000,90719.27000000,192.25447000
1765236600000,90719.27000000,90781.93000000,90590.11000000,90627.36000000,55.85810000
1765237500000,90627.37000000,90644.99000000,90551.85000000,90634.34000000,48.92896000
1765238400000,90634.35000000,90767.36000000,90591.85000000,90747.69000000,58.96650000
1765239300000,90747.68000000,90846.26000000,90690.78000000,90690.79000000,92.77014000
1765240200000,90690.79000000,90690.79000000,90400.46000000,90440.49000000,75.25637000
1765241100000,90440.48000000,90517.99000000,90355.00000000,90396.73000000,61.38322000
1765242000000,90396.72000000,90511.42000000,90233.04000000,90481.01000000,89.41502000
1765242900000,90481.01000000,90569.98000000,90175.55000000,90214.96000000,209.18052000
1765243800000,90214.96000000,90262.48000000,90013.91000000,90047.93000000,104.05432000
1765244700000,90047.93000000,90099.00000000,89966.00000000,90055.80000000,135.01405000
1765245600000,90055.80000000,90257.06000000,89979.21000000,90118.02000000,89.29913000
1765246500000,90118.01000000,90368.00000000,90104.18000000,90299.20000000,79.76417000
1765247400000,90299.21000000,90339.90000000,90189.29000000,90251.31000000,60.82589000
1765248300000,90251.31000000,90324.47000000,90060.21000000,90068.20000000,82.28081000
1765249200000,90068.21000000,90159.70000000,89980.00000000,89985.42000000,133.95394000
1765250100000,89985.43000000,90113.09000000,89795.84000000,90030.00000000,750.70142000
1765251000000,90030.00000000,90417.54000000,90025.07000000,90355.20000000,237.77474000
1765251900000,90355.20000000,90442.77000000,90294.40000000,90405.01000000,94.77164000
1765252800000,90405.02000000,90500.00000000,90385.23000000,90452.03000000,74.35278000
1765253700000,90452.04000000,90500.00000000,90319.77000000,90400.47000000,52.67702000
1765254600000,90400.47000000,90400.47000000,89737.47000000,89921.88000000,286.30032000
1765255500000,89921.89000000,89967.89000000,89836.00000000,89917.53000000,75.18939000
1765256400000,89917.52000000,89976.97000000,89701.00000000,89779.42000000,93.44482000
1765257300000,89779.42000000,89884.70000000,89500.00000000,89862.47000000,250.64208000
1765258200000,89862.48000000,90209.96000000,89851.14000000,90103.82000000,215.96831000
1765259100000,90103.82000000,90172.99000000,89868.52000000,89899.35000000,90.59867000
1765260000000,89899.35000000,90115.34000000,89884.92000000,89959.46000000,70.47565000
1765260900000,89959.46000000,90050.00000000,89814.26000000,89877.96000000,70.05432000
1765261800000,89877.96000000,89945.98000000,89775.67000000,89943.98000000,70.33301000
1765262700000,89943.99000000,90232.76000000,89898.75000000,90166.84000000,110.44134000
1765263600000,90166.85000000,90299.99000000,90091.56000000,90116.00000000,93.60257000
1765264500000,90115.99000000,90429.86000000,90115.99000000,90363.13000000,84.11284000
1765265400000,90363.12000000,90515.07000000,90342.54000000,90476.50000000,121.89717000
1765266300000,90476.50000000,90528.67000000,90443.34000000,90496.80000000,107.52845000
1765267200000,90496.80000000,90550.00000000,90461.53000000,90500.00000000,84.67503000
1765268100000,90500.01000000,90599.99000000,90500.00000000,90522.00000000,130.25020000
1765269000000,90522.00000000,90524.23000000,90366.35000000,90524.23000000,94.34267000
1765269900000,90524.23000000,90600.00000000,90465.44000000,90498.72000000,91.01018000
1765270800000,90498.72000000,90498.72000000,90320.00000000,90436.65000000,76.22344000
1765271700000,90436.66000000,90466.00000000,90285.99000000,90300.04000000,95.36040000
1765272600000,90300.04000000,90360.00000000,90154.39000000,90174.31000000,66.27229000
1765273500000,90174.32000000,90217.56000000,90129.21000000,90131.59000000,47.49410000
1765274400000,90131.60000000,90217.54000000,90064.29000000,90186.79000000,70.39553000
1765275300000,90186.80000000,90216.00000000,90136.01000000,90192.36000000,53.46453000
1765276200000,90192.37000000,90345.39000000,89912.48000000,90098.00000000,205.11255000
1765277100000,90098.00000000,90298.45000000,90020.42000000,90298.45000000,160.77695000
1765278000000,90298.44000000,90359.94000000,90208.86000000,90247.29000000,129.76315000
1765278900000,90247.30000000,90299.56000000,90140.02000000,90290.19000000,114.61610000
1765279800000,90290.19000000,90298.79000000,90220.88000000,90273.83000000,77.72462000
1765280700000,90273.82000000,90396.01000000,90260.75000000,90384.55000000,65.00268000
1765281600000,90384.54000000,90456.01000000,90331.00000000,90354.27000000,58.41147000
1765282500000,90354.26000000,90690.35000000,90354.26000000,90556.00000000,187.15239000
1765283400000,90556.00000000,90651.09000000,90495.29000000,90631.83000000,76.15954000
1765284300000,90631.83000000,90664.57000000,90580.00000000,90580.00000000,79.90167000
1765285200000,90580.01000000,90623.79000000,90473.13000000,90498.25000000,80.55526000
1765286100000,90498.26000000,90743.10000000,90492.32000000,90694.83000000,138.74468000
1765287000000,90694.83000000,90850.00000000,90202.70000000,90202.70000000,194.99272000
1765287900000,90202.70000000,90434.47000000,90174.66000000,90431.03000000,229.37959000
1765288800000,90431.02000000,90644.02000000,90348.83000000,90415.30000000,81.61813000
1765289700000,90415.30000000,90436.00000000,90125.77000000,90267.17000000,94.86275000
1765290600000,90267.16000000,90571.77000000,90004.73000000,90090.00000000,287.85308000
1765291500000,90090.00000000,90360.00000000,90038.00000000,90357.59000000,245.73829000
1765292400000,90357.60000000,91257.60000000,90288.10000000,90599.99000000,734.58643000
1765293300000,90599.99000000,91294.71000000,90504.95000000,91148.57000000,305.35317000
1765294200000,91148.57000000,92100.00000000,90992.76000000,92050.91000000,961.14671000
1765295100000,92050.90000000,92876.92000000,91853.11000000,92707.51000000,1161.21808000
1765296000000,92707.50000000,93511.61000000,92693.50000000,93442.26000000,941.49867000
1765296900000,93442.26000000,93718.86000000,93276.68000000,93376.78000000,922.01409000
1765297800000,93376.78000000,94263.26000000,93376.78000000,94228.67000000,1168.30638000
1765298700000,94228.67000000,94488.64000000,94029.59000000,94187.81000000,1008.33696000
1765299600000,94187.81000000,94588.99000000,94187.81000000,94223.28000000,600.88099000
1765300500000,94223.27000000,94258.38000000,93606.43000000,93757.64000000,642.84312000
1765301400000,93757.64000000,93935.25000000,93538.93000000,93797.65000000,299.56081000
1765302300000,93797.65000000,94029.37000000,93762.08000000,93917.99000000,280.51510000
1765303200000,93918.00000000,94045.13000000,93661.45000000,93958.51000000,211.75607000
1765304100000,93958.51000000,94178.31000000,93900.00000000,94121.02000000,166.55841000
1765305000000,94121.01000000,94158.94000000,93886.25000000,93895.63000000,119.26642000
1765305900000,93895.64000000,93999.00000000,93711.92000000,93920.48000000,206.91563000
1765306800000,93920.48000000,93978.28000000,93723.88000000,93931.41000000,177.66242000
1765307700000,93931.41000000,94075.19000000,93832.93000000,93990.22000000,163.56240000
1765308600000,93990.22000000,94225.00000000,93651.68000000,93733.99000000,261.67876000
1765309500000,93734.00000000,93951.86000000,93711.40000000,93800.83000000,133.09601000
1765310400000,93800.83000000,93857.47000000,93576.00000000,93705.61000000,196.01912000
1765311300000,93705.61000000,93710.76000000,92767.71000000,93080.12000000,477.07903000
1765312200000,93080.12000000,93270.65000000,92826.08000000,93024.60000000,216.10859000
1765313100000,93024.59000000,93245.38000000,92960.00000000,93116.76000000,207.92075000
1765314000000,93116.76000000,93243.12000000,92992.82000000,92999.83000000,159.14485000
1765314900000,92999.83000000,93176.84000000,92975.15000000,93106.26000000,130.61042000
1765315800000,93106.27000000,93157.80000000,92668.08000000,92679.71000000,158.00496000
1765316700000,92679.72000000,92775.81000000,92254.92000000,92640.00000000,431.36276000
1765317600000,92640.01000000,92912.13000000,92605.19000000,92651.69000000,204.69365000
1765318500000,92651.69000000,92707.51000000,92506.67000000,92506.67000000,112.44691000
1765319400000,92506.68000000,93000.21000000,92506.67000000,92950.30000000,291.16137000
1765320300000,92950.29000000,93045.89000000,92765.94000000,92884.00000000,122.72438000
1765321200000,92884.00000000,92884.00000000,92550.00000000,92587.81000000,281.45160000
1765322100000,92587.81000000,92879.99000000,92568.74000000,92874.78000000,98.24136000
1765323000000,92874.79000000,92977.98000000,92809.04000000,92949.10000000,72.37545000
1765323900000,92949.10000000,92949.10000000,92660.72000000,92678.80000000,73.44370000
1765324800000,92678.81000000,92786.35000000,92641.59000000,92700.33000000,91.83668000
1765325700000,92700.33000000,92700.33000000,92285.85000000,92530.55000000,165.03070000
1765326600000,92530.55000000,92578.00000000,92420.21000000,92486.93000000,86.91122000
1765327500000,92486.93000000,92539.99000000,92061.00000000,92130.81000000,254.71642000
1765328400000,92130.82000000,92298.26000000,92102.23000000,92240.93000000,140.96419000
1765329300000,92240.93000000,92400.00000000,92173.98000000,92276.93000000,98.38399000
1765330200000,92276.93000000,92283.21000000,91976.00000000,92253.49000000,200.08284000
1765331100000,92253.48000000,92361.60000000,92162.00000000,92316.36000000,90.46584000
1765332000000,92316.35000000,92316.36000000,92027.89000000,92228.57000000,99.89720000
1765332900000,92228.57000000,92570.54000000,92217.09000000,92502.87000000,231.79391000
1765333800000,92502.88000000,92512.99000000,92321.07000000,92382.60000000,146.95427000
1765334700000,92382.60000000,92511.39000000,92241.09000000,92495.68000000,132.56796000
1765335600000,92495.89000000,92553.23000000,92390.29000000,92468.26000000,85.06959000
1765336500000,92468.26000000,92468.26000000,92348.66000000,92409.87000000,65.83358000
1765337400000,92409.86000000,92500.00000000,92380.00000000,92425.59000000,56.39105000
1765338300000,92425.60000000,92516.86000000,92392.56000000,92410.62000000,50.09986000
1765339200000,92410.62000000,92529.62000000,92386.83000000,92494.89000000,57.40751000
1765340100000,92494.90000000,92659.99000000,92416.10000000,92434.90000000,107.53443000
1765341000000,92434.90000000,92637.07000000,92400.59000000,92564.85000000,83.18901000
1765341900000,92564.85000000,92613.52000000,92490.67000000,92552.62000000,62.83239000
1765342800000,92552.63000000,92643.02000000,92517.53000000,92636.76000000,109.24343000
1765343700000,92636.77000000,92725.00000000,92568.19000000,92582.50000000,112.68871000
1765344600000,92582.50000000,92648.77000000,92526.99000000,92613.71000000,60.14710000
1765345500000,92613.71000000,92639.12000000,92541.36000000,92556.28000000,91.55018000
1765346400000,92556.28000000,92595.11000000,92396.24000000,92572.43000000,109.06736000
1765347300000,92572.44000000,92591.85000000,92522.20000000,92549.58000000,37.96202000
1765348200000,92549.59000000,92687.83000000,92544.12000000,92687.82000000,86.38671000
1765349100000,92687.83000000,92757.58000000,92606.00000000,92700.00000000,81.55540000
1765350000000,92700.01000000,92707.51000000,92541.25000000,92600.70000000,80.31004000
1765350900000,92600.71000000,92600.71000000,92500.00000000,92588.65000000,59.86057000
1765351800000,92588.64000000,92728.50000000,92525.82000000,92670.08000000,89.31652000
1765352700000,92670.07000000,92782.92000000,92605.19000000,92782.91000000,134.79850000
1765353600000,92782.91000000,92790.00000000,92643.89000000,92687.00000000,70.11633000
1765354500000,92687.01000000,92750.00000000,92661.39000000,92677.56000000,73.05696000
1765355400000,92677.56000000,92746.64000000,92549.81000000,92607.14000000,92.09854000
1765356300000,92607.15000000,92669.89000000,92584.21000000,92605.00000000,86.58419000
1765357200000,92604.99000000,92669.27000000,92567.48000000,92600.00000000,90.03006000
1765358100000,92600.01000000,92619.62000000,92439.40000000,92481.84000000,82.06254000
1765359000000,92481.83000000,92605.19000000,92481.83000000,92605.19000000,40.21189000
1765359900000,92605.19000000,92972.07000000,92605.18000000,92920.01000000,259.73297000
1765360800000,92920.00000000,93291.50000000,92859.05000000,92991.18000000,338.46428000
1765361700000,92991.18000000,92999.37000000,92431.12000000,92450.16000000,195.26306000
1765362600000,92450.16000000,92462.18000000,92135.09000000,92225.02000000,209.08492000
1765363500000,92225.02000000,92396.25000000,92149.05000000,92272.66000000,116.66515000
1765364400000,92272.66000000,92438.98000000,92227.38000000,92332.80000000,203.42389000
1765365300000,92332.81000000,92373.48000000,92281.44000000,92346.23000000,87.27668000
1765366200000,92346.23000000,92390.37000000,91841.43000000,91980.69000000,453.51835000
1765367100000,91980.69000000,92147.40000000,91763.69000000,92120.45000000,225.47014000
1765368000000,92120.45000000,92216.55000000,92034.00000000,92049.99000000,89.63263000
1765368900000,92050.00000000,92100.00000000,91966.70000000,92022.55000000,139.72566000
1765369800000,92022.55000000,92117.75000000,91815.35000000,91926.34000000,138.20991000
1765370700000,91926.34000000,92059.31000000,91823.41000000,91987.22000000,100.33348000
1765371600000,91987.22000000,92093.64000000,91939.42000000,92042.79000000,107.91620000
1765372500000,92042.80000000,92226.00000000,92000.00000000,92107.04000000,105.59588000
1765373400000,92107.04000000,92185.52000000,91965.61000000,92034.97000000,159.94736000
1765374300000,92034.97000000,92093.66000000,92000.00000000,92093.66000000,58.62868000
1765375200000,92093.65000000,92112.57000000,91934.03000000,91988.51000000,125.44085000
1765376100000,91988.52000000,92076.97000000,91862.02000000,91939.73000000,147.05965000
1765377000000,91939.74000000,92097.97000000,91822.57000000,91899.11000000,248.37050000
1765377900000,91899.11000000,91979.95000000,91600.81000000,91831.24000000,362.73679000
1765378800000,91831.24000000,92149.06000000,91719.38000000,92092.82000000,208.04099000
1765379700000,92092.83000000,92135.00000000,91852.24000000,91944.75000000,174.60039000
1765380600000,91944.75000000,91998.53000000,91563.15000000,91872.03000000,220.77923000
1765381500000,91872.02000000,92088.72000000,91805.72000000,92063.69000000,136.13143000
1765382400000,92063.69000000,92262.07000000,91899.10000000,92239.09000000,208.44703000
1765383300000,92239.10000000,92595.11000000,92167.44000000,92484.82000000,266.56123000
1765384200000,92484.48000000,92502.89000000,92219.43000000,92363.03000000,173.35977000
1765385100000,92363.04000000,92409.19000000,92099.99000000,92174.11000000,137.58898000
1765386000000,92174.11000000,92256.44000000,92102.44000000,92237.58000000,109.78180000
1765386900000,92237.57000000,92515.82000000,92172.28000000,92316.04000000,247.71826000
1765387800000,92316.04000000,92443.21000000,92216.00000000,92435.47000000,149.34976000
1765388700000,92435.47000000,92500.00000000,92309.31000000,92396.23000000,91.21253000
1765389600000,92396.23000000,92495.68000000,92280.55000000,92401.28000000,84.79032000
1765390500000,92401.28000000,92440.00000000,92000.00000000,92254.00000000,168.59329000
1765391400000,92254.00000000,93056.00000000,92208.32000000,92582.13000000,382.39982000
1765392300000,92582.12000000,92814.03000000,92067.65000000,92503.48000000,234.91775000
1765393200000,92503.49000000,93243.59000000,91684.39000000,93001.71000000,1477.57015000
1765394100000,93001.71000000,93168.00000000,92285.71000000,92467.72000000,407.82271000
1765395000000,92468.00000000,93196.45000000,92401.28000000,92581.40000000,841.49802000
1765395900000,92581.40000000,93105.04000000,92527.43000000,92957.67000000,438.87338000
1765396800000,92957.67000000,94289.99000000,92662.13000000,94252.99000000,1275.56054000
1765397700000,94252.99000000,94476.00000000,93148.00000000,93579.44000000,764.11708000
1765398600000,93579.44000000,93828.36000000,93325.86000000,93696.50000000,303.43972000
1765399500000,93696.51000000,93820.51000000,92259.25000000,92453.89000000,810.85407000
1765400400000,92453.89000000,92626.02000000,91878.00000000,92278.48000000,539.90449000
1765401300000,92278.48000000,92574.28000000,92211.35000000,92381.70000000,173.41169000
1765402200000,92381.70000000,92646.88000000,92164.13000000,92477.19000000,150.09635000
1765403100000,92477.19000000,92777.34000000,92288.20000000,92356.38000000,137.59139000
1765404000000,92356.39000000,92695.31000000,92080.99000000,92190.80000000,143.61979000
1765404900000,92190.80000000,92454.00000000,91954.54000000,92322.64000000,164.91949000
1765405800000,92322.65000000,92670.28000000,92119.98000000,92537.47000000,196.07499000
1765406700000,92537.47000000,92639.92000000,92395.74000000,92509.94000000,80.44860000
1765407600000,92509.94000000,92593.96000000,92254.25000000,92315.35000000,88.94211000
1765408500000,92315.35000000,92343.37000000,92134.67000000,92134.67000000,64.34245000
1765409400000,92134.68000000,92172.00000000,92000.00000000,92000.01000000,78.20974000
1765410300000,92000.00000000,92053.54000000,91942.56000000,92015.37000000,99.60477000
1765411200000,92015.38000000,92080.32000000,91942.56000000,92020.65000000,73.46598000
1765412100000,92020.65000000,92027.34000000,91750.00000000,91767.46000000,114.31761000
1765413000000,91767.46000000,91791.15000000,91205.00000000,91271.88000000,415.40467000
1765413900000,91271.88000000,91438.78000000,91051.00000000,91386.17000000,313.69090000
1765414800000,91386.17000000,91407.04000000,90987.92000000,90987.92000000,227.45064000
1765415700000,90987.93000000,91111.71000000,90700.00000000,91086.68000000,265.98429000
1765416600000,91086.68000000,91301.50000000,90901.00000000,91001.10000000,161.12828000
1765417500000,91001.10000000,91015.75000000,90658.24000000,90674.74000000,163.91921000
1765418400000,90674.75000000,90674.75000000,90172.13000000,90239.11000000,467.15895000
1765419300000,90239.11000000,90379.46000000,89984.10000000,90087.36000000,346.77692000
1765420200000,90087.36000000,90222.35000000,89900.00000000,90064.74000000,251.25724000
1765421100000,90064.74000000,90160.00000000,89876.81000000,90074.00000000,185.02377000
1765422000000,90073.99000000,90074.01000000,89389.63000000,89633.05000000,497.07027000
1765422900000,89633.05000000,90024.26000000,89526.57000000,89737.48000000,296.13040000
1765423800000,89737.48000000,89879.80000000,89592.75000000,89820.44000000,150.03961000
1765424700000,89820.44000000,89909.14000000,89750.59000000,89880.01000000,152.32816000
1765425600000,89880.00000000,90086.24000000,89694.81000000,90053.24000000,271.95667000
1765426500000,90053.24000000,90131.36000000,89888.00000000,90040.33000000,187.56005000
1765427400000,90040.34000000,90163.94000000,89992.70000000,90105.97000000,233.66187000
1765428300000,90105.96000000,90480.14000000,90028.37000000,90436.55000000,250.22703000
1765429200000,90436.55000000,90436.56000000,90048.20000000,90113.00000000,156.26534000
1765430100000,90113.00000000,90361.27000000,90105.12000000,90275.13000000,97.72187000
1765431000000,90275.13000000,90300.69000000,90180.00000000,90222.69000000,82.91507000
1765431900000,90222.70000000,90340.00000000,90208.19000000,90316.72000000,67.73461000
1765432800000,90316.72000000,90316.72000000,90230.52000000,90263.78000000,59.09109000
1765433700000,90263.79000000,90263.79000000,89975.89000000,90111.20000000,181.13910000
1765434600000,90111.20000000,90450.97000000,90111.20000000,90317.96000000,199.81724000
1765435500000,90317.95000000,90353.44000000,90212.94000000,90301.35000000,84.96759000
1765436400000,90301.35000000,90333.49000000,90185.96000000,90212.52000000,74.56141000
1765437300000,90212.53000000,90300.00000000,90088.00000000,90127.80000000,93.46711000
1765438200000,90127.81000000,90244.93000000,90127.80000000,90180.00000000,115.49042000
1765439100000,90180.01000000,90272.76000000,90127.85000000,90272.75000000,88.75452000
1765440000000,90272.76000000,90272.76000000,89996.66000000,90066.75000000,152.46196000
1765440900000,90066.74000000,90210.52000000,90020.00000000,90121.01000000,102.96184000
1765441800000,90121.00000000,90121.01000000,89971.11000000,90041.76000000,106.27301000
1765442700000,90041.76000000,90237.97000000,90000.01000000,90183.71000000,150.25812000
1765443600000,90183.71000000,90275.12000000,90123.01000000,90270.61000000,150.82169000
1765444500000,90270.62000000,90468.98000000,90260.17000000,90421.02000000,115.37407000
1765445400000,90421.02000000,90504.19000000,90281.56000000,90310.35000000,92.58436000
1765446300000,90310.35000000,90366.00000000,90152.55000000,90234.19000000,80.92563000
1765447200000,90234.19000000,90352.59000000,90190.90000000,90346.24000000,63.14726000
1765448100000,90346.24000000,90346.24000000,90172.61000000,90267.02000000,72.83623000
1765449000000,90267.01000000,90271.98000000,90189.91000000,90193.36000000,47.46850000
1765449900000,90193.36000000,90349.64000000,90172.61000000,90320.15000000,89.94561000
1765450800000,90320.15000000,90417.30000000,90282.28000000,90351.91000000,56.38400000
1765451700000,90351.91000000,90378.17000000,90257.98000000,90259.56000000,58.22576000
1765452600000,90259.56000000,90327.21000000,90225.13000000,90256.41000000,58.71683000
1765453500000,90256.42000000,90265.01000000,90210.44000000,90242.35000000,105.57401000
1765454400000,90242.36000000,90278.00000000,90129.35000000,90179.42000000,162.47276000
1765455300000,90179.42000000,90348.02000000,90171.46000000,90310.77000000,95.59137000
1765456200000,90310.76000000,90377.63000000,90260.00000000,90276.97000000,85.03725000
1765457100000,90276.98000000,90282.97000000,90006.01000000,90032.31000000,84.90810000
1765458000000,90032.31000000,90127.87000000,90012.99000000,90044.15000000,81.08356000
1765458900000,90044.16000000,90125.43000000,89982.45000000,90051.66000000,132.34519000
1765459800000,90051.66000000,90137.08000000,89870.00000000,90042.29000000,248.82771000
1765460700000,90042.28000000,90169.26000000,89963.99000000,90103.53000000,105.53436000
1765461600000,90103.53000000,90170.62000000,90030.00000000,90150.43000000,89.13054000
1765462500000,90150.43000000,90259.24000000,90139.19000000,90139.20000000,96.67696000
1765463400000,90139.20000000,90482.01000000,89774.01000000,90281.91000000,440.56998000
1765464300000,90281.92000000,90338.74000000,89260.63000000,89545.24000000,736.76290000
1765465200000,89545.23000000,90205.88000000,89406.79000000,90112.02000000,319.80973000
1765466100000,90112.01000000,90653.33000000,89958.38000000,90251.23000000,385.56754000
1765467000000,90251.24000000,90276.00000000,89695.00000000,89806.84000000,227.38311000
1765467900000,89806.50000000,90038.00000000,89642.52000000,89872.51000000,249.35796000
1765468800000,89872.51000000,89980.01000000,89358.48000000,89395.91000000,278.14619000
1765469700000,89395.90000000,89682.92000000,89333.00000000,89563.19000000,196.30207000
1765470600000,89563.18000000,90056.23000000,89464.37000000,89950.85000000,188.39466000
1765471500000,89950.86000000,90178.04000000,89615.38000000,89737.11000000,179.38227000
1765472400000,89737.11000000,89917.66000000,89627.74000000,89853.41000000,98.50621000
1765473300000,89853.41000000,90260.00000000,89813.03000000,90062.52000000,152.53638000
1765474200000,90062.52000000,90250.00000000,89956.61000000,90058.94000000,136.62961000
1765475100000,90058.95000000,90156.69000000,89922.66000000,89983.23000000,283.27261000
1765476000000,89983.23000000,90415.06000000,89891.87000000,90325.54000000,185.42396000
1765476900000,90325.53000000,90491.00000000,90232.52000000,90351.83000000,195.25730000
1765477800000,90351.84000000,91169.66000000,90316.49000000,91169.65000000,471.56434000
1765478700000,91169.65000000,91197.70000000,90518.45000000,90710.50000000,434.74513000
1765479600000,90710.50000000,90917.11000000,90592.14000000,90792.00000000,134.77634000
1765480500000,90792.00000000,91171.59000000,90719.99000000,91124.59000000,183.90991000
1765481400000,91124.59000000,91538.26000000,91095.18000000,91370.00000000,258.26022000
1765482300000,91370.00000000,91451.96000000,90758.43000000,90839.81000000,266.88369000
1765483200000,90839.81000000,91483.87000000,90797.76000000,91356.17000000,154.05550000
1765484100000,91356.17000000,91437.02000000,90962.85000000,91055.16000000,159.53635000
1765485000000,91055.17000000,91640.00000000,91019.55000000,91573.46000000,241.50064000
1765485900000,91573.46000000,91831.20000000,91421.86000000,91792.99000000,232.80082000
1765486800000,91792.98000000,92676.16000000,91706.06000000,92461.40000000,752.27081000
1765487700000,92461.40000000,93280.01000000,92461.40000000,93280.01000000,689.79894000
1765488600000,93280.00000000,93555.00000000,92874.70000000,93174.36000000,716.45304000
1765489500000,93174.37000000,93246.09000000,92798.25000000,92858.39000000,280.82503000
1765490400000,92858.40000000,93195.84000000,92858.40000000,92934.37000000,177.53879000
1765491300000,92934.37000000,92965.99000000,92229.76000000,92333.12000000,349.91410000
1765492200000,92333.11000000,92700.00000000,92199.55000000,92392.51000000,230.81091000
1765493100000,92392.51000000,92455.78000000,92068.90000000,92352.00000000,217.88535000
1765494000000,92352.00000000,92663.57000000,92337.91000000,92499.09000000,367.29157000
1765494900000,92499.36000000,92654.98000000,92412.40000000,92495.71000000,144.39328000
1765495800000,92495.71000000,92800.00000000,92475.21000000,92722.49000000,131.96871000
1765496700000,92722.49000000,92796.92000000,92392.66000000,92513.38000000,110.05706000
1765497600000,92513.38000000,92574.00000000,92394.96000000,92427.98000000,81.55315000
1765498500000,92427.98000000,92651.93000000,92319.95000000,92386.00000000,178.18836000
1765499400000,92385.99000000,92432.47000000,92300.55000000,92306.01000000,78.20865000
1765500300000,92306.02000000,92380.00000000,91448.31000000,91573.88000000,449.81401000
1765501200000,91573.88000000,91886.69000000,91532.16000000,91810.63000000,216.29962000
1765502100000,91810.62000000,92168.99000000,91796.73000000,92097.09000000,115.73534000
1765503000000,92097.08000000,92314.69000000,92036.96000000,92147.40000000,82.69051000
1765503900000,92147.40000000,92257.73000000,92074.68000000,92170.00000000,75.86010000
1765504800000,92170.00000000,92481.89000000,91927.27000000,92392.01000000,184.15787000
1765505700000,92392.01000000,92435.87000000,92243.75000000,92396.23000000,206.72626000
1765506600000,92396.23000000,92500.00000000,92344.93000000,92437.78000000,52.76635000
1765507500000,92437.78000000,92748.98000000,92367.49000000,92588.79000000,143.28989000
1765508400000,92588.79000000,92754.00000000,92433.79000000,92453.00000000,81.73943000
1765509300000,92453.00000000,92456.38000000,92178.37000000,92237.54000000,89.74077000
1765510200000,92237.54000000,92395.31000000,92215.61000000,92347.14000000,57.85055000
1765511100000,92347.15000000,92379.92000000,92256.27000000,92283.40000000,70.09243000
1765512000000,92283.40000000,92349.99000000,92222.61000000,92222.82000000,66.29858000
1765512900000,92222.82000000,92249.41000000,92114.99000000,92208.00000000,196.56037000
1765513800000,92208.00000000,92250.85000000,92174.78000000,92250.84000000,56.30364000
1765514700000,92250.85000000,92462.02000000,92222.80000000,92396.69000000,192.18080000
1765515600000,92396.69000000,92500.00000000,92179.72000000,92206.27000000,96.96975000
1765516500000,92206.26000000,92291.84000000,92078.91000000,92133.18000000,102.11788000
1765517400000,92133.19000000,92339.05000000,92133.18000000,92331.17000000,53.38265000
1765518300000,92331.18000000,92478.34000000,92331.17000000,92444.42000000,59.62238000
1765519200000,92444.41000000,92698.17000000,92400.00000000,92695.61000000,117.22442000
1765520100000,92695.60000000,92720.00000000,92562.09000000,92600.54000000,113.19168000
1765521000000,92600.55000000,92600.55000000,92503.24000000,92575.22000000,50.85713000
1765521900000,92575.22000000,92577.04000000,92463.17000000,92513.34000000,65.33031000
1765522800000,92513.34000000,92565.83000000,92489.97000000,92507.35000000,64.46424000
1765523700000,92507.35000000,92511.82000000,92365.85000000,92377.80000000,73.55731000
1765524600000,92377.81000000,92520.56000000,92257.80000000,92439.99000000,115.98449000
1765525500000,92439.98000000,92454.75000000,92373.65000000,92425.34000000,70.15640000
1765526400000,92425.33000000,92487.25000000,92343.91000000,92408.00000000,104.21955000
1765527300000,92408.01000000,92442.34000000,92173.27000000,92258.49000000,148.95149000
1765528200000,92258.49000000,92258.49000000,92174.00000000,92217.12000000,67.83577000
1765529100000,92217.13000000,92370.01000000,92044.80000000,92342.39000000,305.20191000
1765530000000,92342.38000000,92375.89000000,92240.79000000,92345.32000000,118.22949000
1765530900000,92345.32000000,92384.60000000,92111.03000000,92113.56000000,68.64216000
1765531800000,92113.57000000,92242.00000000,92094.00000000,92178.82000000,95.01247000
1765532700000,92178.82000000,92553.33000000,92158.30000000,92520.56000000,79.11707000
1765533600000,92520.56000000,92650.01000000,92480.57000000,92564.75000000,186.35631000
1765534500000,92564.76000000,92564.76000000,92408.33000000,92460.04000000,116.14742000
1765535400000,92460.05000000,92479.92000000,92418.18000000,92425.84000000,57.97051000
1765536300000,92425.84000000,92573.49000000,92411.10000000,92492.32000000,68.59185000
1765537200000,92492.32000000,92492.33000000,92366.00000000,92400.01000000,56.51119000
1765538100000,92400.01000000,92400.01000000,92275.86000000,92362.30000000,69.47326000
1765539000000,92362.30000000,92418.19000000,92302.58000000,92371.64000000,42.95355000
1765539900000,92371.02000000,92418.19000000,92330.32000000,92418.19000000,38.79139000
1765540800000,92418.19000000,92418.19000000,92242.60000000,92250.00000000,154.42653000
1765541700000,92250.01000000,92290.83000000,92173.43000000,92182.65000000,121.40058000
1765542600000,92182.64000000,92242.62000000,92070.55000000,92100.00000000,132.76983000
1765543500000,92100.00000000,92420.00000000,92099.99000000,92419.99000000,129.05250000
1765544400000,92420.00000000,92420.00000000,92304.74000000,92369.12000000,65.83479000
1765545300000,92369.12000000,92531.38000000,92274.00000000,92280.33000000,237.03612000
1765546200000,92280.32000000,92390.81000000,92240.14000000,92275.73000000,104.65358000
1765547100000,92275.74000000,92409.38000000,92274.29000000,92302.79000000,70.58165000
1765548000000,92302.79000000,92311.82000000,92201.43000000,92220.03000000,165.77795000
1765548900000,92220.03000000,92348.52000000,92111.43000000,92126.94000000,186.86936000
1765549800000,92126.94000000,92600.00000000,91903.34000000,92450.23000000,379.20283000
1765550700000,92450.24000000,92660.74000000,92213.41000000,92444.00000000,306.59606000
1765551600000,92444.00000000,92445.94000000,91910.45000000,91982.53000000,323.10509000
1765552500000,91982.53000000,91986.20000000,90839.01000000,90842.70000000,1087.45613000
1765553400000,90842.70000000,90960.00000000,90230.76000000,90538.46000000,1218.76227000
1765554300000,90538.46000000,90765.60000000,89780.00000000,89935.14000000,876.60754000
1765555200000,89935.13000000,90083.70000000,89650.01000000,89972.70000000,659.09267000
1765556100000,89972.70000000,90441.17000000,89800.75000000,90409.17000000,438.01174000
1765557000000,90409.16000000,90409.16000000,89480.00000000,89652.01000000,579.58037000
1765557900000,89652.01000000,90170.29000000,89613.11000000,90046.54000000,416.67841000
1765558800000,90046.53000000,90422.51000000,89976.00000000,90345.93000000,372.53582000
1765559700000,90345.93000000,90623.72000000,89835.00000000,89840.25000000,436.93007000
1765560600000,89840.25000000,90258.25000000,89826.75000000,90194.51000000,228.38820000
1765561500000,90194.51000000,90307.69000000,89978.02000000,90083.09000000,131.13177000
1765562400000,90083.09000000,90488.00000000,90044.93000000,90309.99000000,256.06221000
1765563300000,90310.00000000,90560.00000000,90223.24000000,90540.86000000,192.77739000
1765564200000,90540.87000000,90666.00000000,90410.95000000,90438.09000000,249.46031000
1765565100000,90438.09000000,90643.53000000,90276.79000000,90372.00000000,196.06603000
1765566000000,90372.00000000,90399.99000000,90017.05000000,90040.16000000,196.31680000
1765566900000,90040.15000000,90364.92000000,90040.15000000,90195.55000000,140.90724000
1765567800000,90195.55000000,90293.04000000,90106.09000000,90128.18000000,96.05374000
1765568700000,90128.19000000,90245.30000000,90088.92000000,90198.22000000,69.33548000
1765569600000,90198.23000000,90268.13000000,90039.01000000,90039.02000000,121.15218000
1765570500000,90039.01000000,90268.13000000,90020.48000000,90020.49000000,114.04504000
1765571400000,90020.48000000,90179.76000000,89898.61000000,90149.76000000,96.14355000
1765572300000,90149.76000000,90334.77000000,90107.71000000,90214.08000000,172.63037000
1765573200000,90214.08000000,90345.94000000,90145.26000000,90282.98000000,80.10915000
1765574100000,90282.99000000,90287.92000000,90100.00000000,90178.09000000,146.88280000
1765575000000,90178.10000000,90310.85000000,90178.10000000,90280.24000000,49.79836000
1765575900000,90280.24000000,90299.92000000,90192.84000000,90193.94000000,44.04789000
1765576800000,90193.94000000,90395.53000000,90184.92000000,90341.96000000,53.65185000
1765577700000,90341.96000000,90384.00000000,90311.28000000,90330.50000000,37.56628000
1765578600000,90330.49000000,90368.51000000,90302.00000000,90324.34000000,40.73090000
1765579500000,90324.33000000,90346.57000000,90255.47000000,90335.92000000,52.31281000
1765580400000,90335.93000000,90404.13000000,90292.54000000,90385.41000000,73.65124000
1765581300000,90385.40000000,90389.06000000,90312.27000000,90312.27000000,32.10154000
1765582200000,90312.28000000,90371.94000000,90300.30000000,90360.39000000,41.25505000
1765583100000,90360.39000000,90360.39000000,90233.16000000,90268.42000000,20.73091000
1765584000000,90268.43000000,90444.28000000,90207.20000000,90350.00000000,56.70157000
1765584900000,90350.01000000,90409.11000000,90304.86000000,90307.16000000,37.59210000
1765585800000,90307.16000000,90341.24000000,90299.99000000,90341.24000000,46.76945000
1765586700000,90341.23000000,90354.59000000,90310.02000000,90323.01000000,43.75508000
1765587600000,90323.01000000,90359.32000000,90323.00000000,90323.01000000,23.87929000
1765588500000,90323.01000000,90346.13000000,90306.74000000,90328.07000000,31.30901000
1765589400000,90328.08000000,90341.30000000,90125.37000000,90148.08000000,74.99919000
1765590300000,90148.09000000,90235.45000000,90120.00000000,90229.91000000,41.35306000
1765591200000,90229.92000000,90318.00000000,90221.98000000,90290.45000000,55.37834000
1765592100000,90290.45000000,90313.96000000,90272.67000000,90313.96000000,27.05438000
1765593000000,90313.97000000,90313.97000000,90233.43000000,90277.31000000,20.75111000
1765593900000,90277.32000000,90285.28000000,90221.99000000,90232.77000000,54.94615000
1765594800000,90232.77000000,90285.28000000,90205.52000000,90285.28000000,34.11572000
1765595700000,90285.28000000,90356.44000000,90285.27000000,90338.28000000,20.54973000
1765596600000,90338.28000000,90469.71000000,90331.44000000,90410.97000000,56.45728000
1765597500000,90410.97000000,90423.20000000,90332.57000000,90345.54000000,23.15183000
1765598400000,90345.55000000,90359.40000000,90305.07000000,90307.60000000,41.12586000
1765599300000,90307.61000000,90358.25000000,90268.91000000,90326.24000000,25.86231000
1765600200000,90326.25000000,90395.48000000,90284.91000000,90384.34000000,29.09077000
1765601100000,90384.33000000,90410.50000000,90368.04000000,90371.81000000,24.02044000
1765602000000,90371.81000000,90387.51000000,90355.10000000,90376.38000000,36.93149000
1765602900000,90376.39000000,90376.39000000,90336.12000000,90351.06000000,20.95659000
1765603800000,90351.07000000,90356.48000000,90274.69000000,90274.69000000,20.86183000
1765604700000,90274.69000000,90342.92000000,90269.00000000,90342.91000000,24.91071000
1765605600000,90342.92000000,90363.94000000,90301.12000000,90311.12000000,31.47668000
1765606500000,90311.13000000,90311.13000000,90272.41000000,90278.36000000,17.04650000
1765607400000,90278.37000000,90346.05000000,90270.65000000,90332.93000000,21.93747000
1765608300000,90332.93000000,90380.00000000,90319.39000000,90351.45000000,36.51209000
1765609200000,90351.45000000,90363.97000000,90338.00000000,90338.00000000,29.67207000
1765610100000,90338.01000000,90386.71000000,90327.56000000,90381.94000000,36.03474000
1765611000000,90381.95000000,90400.00000000,90333.48000000,90354.07000000,32.85934000
1765611900000,90354.08000000,90361.75000000,90318.56000000,90329.97000000,22.23636000
1765612800000,90329.98000000,90366.91000000,90318.67000000,90366.91000000,31.58626000
1765613700000,90366.90000000,90575.28000000,90361.26000000,90510.29000000,183.14899000
1765614600000,90510.30000000,90512.97000000,90380.00000000,90415.26000000,62.62319000
1765615500000,90415.25000000,90558.70000000,90403.65000000,90458.19000000,48.87657000
1765616400000,90458.20000000,90511.92000000,90457.55000000,90481.78000000,37.20773000
1765617300000,90481.78000000,90481.79000000,90430.89000000,90430.89000000,30.27470000
1765618200000,90430.90000000,90495.96000000,90392.84000000,90467.70000000,51.61082000
1765619100000,90467.69000000,90513.53000000,90387.99000000,90422.57000000,45.00204000
1765620000000,90422.57000000,90499.99000000,90418.49000000,90477.12000000,45.17180000
1765620900000,90477.12000000,90531.16000000,90477.12000000,90513.80000000,32.98583000
1765621800000,90513.80000000,90634.55000000,90503.71000000,90603.06000000,159.67004000
1765622700000,90603.06000000,90605.64000000,90536.06000000,90595.13000000,157.97651000
1765623600000,90595.14000000,90612.32000000,90520.01000000,90543.72000000,86.99718000
1765624500000,90543.72000000,90543.73000000,90444.85000000,90444.85000000,107.34774000
1765625400000,90444.86000000,90447.80000000,90322.84000000,90358.77000000,272.13270000
1765626300000,90358.78000000,90420.00000000,90290.00000000,90330.36000000,173.26109000
1765627200000,90330.36000000,90470.30000000,90330.35000000,90427.88000000,128.92988000
1765628100000,90427.89000000,90427.89000000,90325.42000000,90325.42000000,103.60296000
1765629000000,90325.42000000,90436.00000000,90295.00000000,90295.00000000,72.61184000
1765629900000,90295.01000000,90349.41000000,90276.13000000,90341.05000000,186.44236000
1765630800000,90341.05000000,90412.88000000,90310.72000000,90334.46000000,152.04571000
1765631700000,90334.45000000,90450.00000000,90222.00000000,90229.99000000,59.37915000
1765632600000,90230.00000000,90303.50000000,90194.34000000,90236.60000000,66.29068000
1765633500000,90236.61000000,90305.58000000,90221.64000000,90245.87000000,66.97142000
1765634400000,90245.88000000,90331.74000000,90229.89000000,90288.43000000,140.91319000
1765635300000,90288.43000000,90288.43000000,89961.12000000,89961.12000000,269.31319000
1765636200000,89961.13000000,90311.86000000,89932.99000000,90168.77000000,148.12425000
1765637100000,90168.78000000,90214.73000000,90079.70000000,90079.70000000,42.10643000
1765638000000,90079.71000000,90289.60000000,90059.67000000,90141.84000000,116.22633000
1765638900000,90141.85000000,90170.01000000,90095.15000000,90138.04000000,179.82571000
1765639800000,90138.05000000,90167.10000000,90098.00000000,90102.58000000,91.33523000
1765640700000,90102.58000000,90106.30000000,90031.38000000,90092.16000000,82.87060000
1765641600000,90092.17000000,90268.13000000,90084.96000000,90187.68000000,62.11423000
1765642500000,90187.68000000,90187.68000000,90063.83000000,90073.23000000,58.34459000
1765643400000,90073.23000000,90107.51000000,90025.65000000,90050.01000000,48.77875000
1765644300000,90050.00000000,90145.27000000,90031.74000000,90087.28000000,57.02041000
1765645200000,90087.28000000,90087.28000000,89981.00000000,90071.33000000,69.04806000
1765646100000,90071.34000000,90102.08000000,89994.43000000,90009.12000000,47.75129000
1765647000000,90009.13000000,90095.68000000,89994.43000000,90095.67000000,41.41096000
1765647900000,90095.68000000,90095.68000000,90032.00000000,90052.61000000,34.86404000
1765648800000,90052.61000000,90184.34000000,90047.40000000,90178.85000000,44.48003000
1765649700000,90178.84000000,90178.85000000,90122.00000000,90161.89000000,39.30557000
1765650600000,90161.90000000,90171.64000000,90132.06000000,90140.01000000,27.08102000
1765651500000,90140.00000000,90146.32000000,90104.49000000,90119.89000000,34.77063000
1765652400000,90119.90000000,90172.00000000,90109.62000000,90172.00000000,17.81904000
1765653300000,90172.00000000,90180.00000000,90130.40000000,90130.41000000,38.44441000
1765654200000,90130.40000000,90224.80000000,90130.40000000,90218.41000000,25.80382000
1765655100000,90218.41000000,90218.41000000,90167.38000000,90178.16000000,28.20053000
1765656000000,90178.17000000,90209.56000000,90156.72000000,90156.72000000,20.33369000
1765656900000,90156.73000000,90156.73000000,90128.51000000,90137.53000000,16.85857000
1765657800000,90137.54000000,90159.84000000,90112.28000000,90141.80000000,39.93235000
1765658700000,90141.80000000,90188.72000000,90037.57000000,90088.31000000,30.10417000
1765659600000,90088.31000000,90100.00000000,89983.24000000,89994.84000000,58.58371000
1765660500000,89994.84000000,90029.66000000,89915.75000000,89962.32000000,46.11534000
1765661400000,89962.33000000,90071.03000000,89766.39000000,90051.02000000,140.42959000
1765662300000,90051.03000000,90184.59000000,90019.27000000,90175.97000000,39.17237000
1765663200000,90175.97000000,90250.00000000,89997.14000000,90051.92000000,39.34203000
1765664100000,90051.92000000,90132.84000000,90051.91000000,90090.36000000,31.43784000
1765665000000,90090.36000000,90244.49000000,90090.35000000,90165.75000000,40.69247000
1765665900000,90165.74000000,90209.97000000,90090.32000000,90140.10000000,42.98927000
1765666800000,90140.10000000,90184.06000000,90051.02000000,90183.00000000,39.32786000
1765667700000,90183.00000000,90214.40000000,90138.04000000,90198.88000000,26.21615000
1765668600000,90198.88000000,90260.00000000,90191.60000000,90233.68000000,36.54565000
1765669500000,90233.69000000,90280.76000000,90233.68000000,90240.01000000,39.22878000
1765670400000,90240.00000000,90268.18000000,90117.05000000,90268.18000000,73.09647000
1765671300000,90268.18000000,90320.95000000,90194.64000000,90304.71000000,75.49876000
1765672200000,90304.71000000,90471.00000000,90294.27000000,90453.77000000,94.60815000
1765673100000,90453.77000000,90472.40000000,90339.99000000,90340.00000000,47.99553000
1765674000000,90340.00000000,90406.63000000,90268.12000000,90374.24000000,38.34217000
1765674900000,90374.24000000,90442.00000000,90370.51000000,90426.75000000,23.40605000
1765675800000,90426.75000000,90435.76000000,90208.00000000,90226.01000000,58.87742000
1765676700000,90226.00000000,90293.29000000,90213.54000000,90293.29000000,16.48471000
1765677600000,90293.29000000,90352.00000000,90293.28000000,90345.94000000,26.82453000
1765678500000,90345.94000000,90370.52000000,90292.33000000,90354.86000000,36.01183000
1765679400000,90354.86000000,90384.00000000,90240.01000000,90309.35000000,41.70482000
1765680300000,90309.35000000,90322.76000000,90256.50000000,90290.17000000,51.60000000
1765681200000,90290.18000000,90303.08000000,90284.24000000,90289.96000000,20.76890000
1765682100000,90289.96000000,90296.31000000,90274.05000000,90278.50000000,18.47641000
1765683000000,90278.51000000,90285.40000000,90245.60000000,90277.97000000,53.73156000
1765683900000,90277.96000000,90277.97000000,90250.00000000,90258.98000000,33.51400000
1765684800000,90258.99000000,90296.30000000,90247.68000000,90287.97000000,18.05542000
1765685700000,90287.97000000,90319.00000000,90287.97000000,90302.27000000,27.06954000
1765686600000,90302.28000000,90329.24000000,90143.87000000,90164.78000000,38.49700000
1765687500000,90164.78000000,90222.00000000,90127.99000000,90201.50000000,31.14716000
1765688400000,90201.50000000,90201.50000000,90111.00000000,90156.55000000,37.35311000
1765689300000,90156.54000000,90156.55000000,90050.74000000,90090.17000000,32.37405000
1765690200000,90090.17000000,90158.06000000,90068.68000000,90158.06000000,54.44263000
1765691100000,90158.06000000,90228.66000000,90145.26000000,90199.06000000,47.61211000
1765692000000,90199.06000000,90230.79000000,90182.23000000,90197.98000000,44.24632000
1765692900000,90197.99000000,90245.34000000,90096.27000000,90101.36000000,93.48847000
1765693800000,90101.36000000,90193.89000000,90092.86000000,90167.93000000,98.88750000
1765694700000,90167.93000000,90175.60000000,90130.08000000,90145.26000000,33.28061000
1765695600000,90145.27000000,90146.16000000,90127.63000000,90141.16000000,40.29632000
1765696500000,90141.16000000,90141.17000000,90100.31000000,90111.76000000,19.39554000
1765697400000,90111.77000000,90135.58000000,90072.97000000,90134.13000000,32.53452000
1765698300000,90134.13000000,90279.42000000,90134.13000000,90245.60000000,41.15554000
1765699200000,90245.60000000,90277.52000000,90202.00000000,90202.00000000,42.54385000
1765700100000,90202.01000000,90280.01000000,90180.00000000,90180.00000000,31.85319000
1765701000000,90180.01000000,90200.00000000,90166.95000000,90166.96000000,22.68630000
1765701900000,90166.96000000,90166.96000000,90108.27000000,90108.28000000,18.99626000
1765702800000,90108.28000000,90151.02000000,90076.80000000,90086.33000000,29.33762000
1765703700000,90086.33000000,90134.76000000,90057.59000000,90084.36000000,40.06850000
1765704600000,90084.36000000,90113.40000000,90001.10000000,90002.18000000,69.77956000
1765705500000,90002.19000000,90033.64000000,90002.18000000,90020.06000000,48.79118000
1765706400000,90020.07000000,90044.26000000,89785.00000000,89802.55000000,162.08653000
1765707300000,89802.55000000,90136.22000000,89795.50000000,89989.03000000,75.81624000
1765708200000,89989.03000000,90002.49000000,89862.05000000,89922.85000000,39.11527000
1765709100000,89922.86000000,89922.86000000,89831.05000000,89853.69000000,45.17564000
1765710000000,89853.69000000,89853.70000000,89500.00000000,89744.47000000,268.19269000
1765710900000,89744.46000000,89779.36000000,89512.42000000,89514.85000000,111.16912000
1765711800000,89514.86000000,89616.00000000,88687.27000000,88877.66000000,729.54852000
1765712700000,88877.65000000,89437.75000000,88723.23000000,89360.00000000,300.96750000
1765713600000,89360.01000000,89475.97000000,89101.00000000,89322.76000000,173.44523000
1765714500000,89322.77000000,89552.80000000,89322.76000000,89381.47000000,100.02390000
1765715400000,89381.46000000,89620.00000000,89381.46000000,89591.04000000,65.39532000
1765716300000,89591.05000000,89666.00000000,89400.00000000,89431.65000000,71.53403000
1765717200000,89431.66000000,89431.66000000,89088.00000000,89243.88000000,135.98723000
1765718100000,89243.88000000,89322.33000000,89123.31000000,89280.46000000,121.34816000
1765719000000,89280.45000000,89371.19000000,89220.60000000,89276.44000000,55.90049000
1765719900000,89276.45000000,89500.00000000,89211.07000000,89489.50000000,96.77645000
1765720800000,89489.51000000,89556.83000000,89350.85000000,89350.85000000,85.49270000
1765721700000,89350.86000000,89418.00000000,89214.28000000,89279.99000000,70.29759000
1765722600000,89280.00000000,89288.58000000,88923.08000000,88982.05000000,184.06010000
1765723500000,88982.06000000,89138.21000000,88884.26000000,89118.04000000,228.94026000
1765724400000,89118.04000000,89176.69000000,88929.12000000,89015.96000000,92.69386000
1765725300000,89015.97000000,89155.99000000,88882.66000000,89018.08000000,160.55458000
1765726200000,89018.08000000,89119.00000000,88946.62000000,89064.60000000,50.74491000
1765727100000,89064.59000000,89064.60000000,88984.16000000,89022.91000000,36.51156000
1765728000000,89022.92000000,89056.08000000,88950.00000000,89025.06000000,63.35610000
1765728900000,89025.06000000,89398.71000000,88991.06000000,89261.11000000,136.75018000
1765729800000,89261.12000000,89335.69000000,88766.00000000,88815.67000000,129.36805000
1765730700000,88815.67000000,88903.37000000,88531.34000000,88836.98000000,394.11731000
1765731600000,88836.99000000,89032.39000000,88606.73000000,88685.36000000,160.48782000
1765732500000,88685.36000000,88913.92000000,88616.00000000,88782.71000000,82.01440000
1765733400000,88782.71000000,88843.99000000,88655.64000000,88772.64000000,50.43552000
1765734300000,88772.65000000,88933.39000000,88687.61000000,88810.67000000,114.98706000
1765735200000,88810.67000000,88959.56000000,88736.17000000,88928.93000000,43.75792000
1765736100000,88929.56000000,89073.18000000,88722.19000000,88790.56000000,109.40742000
1765737000000,88790.57000000,88929.05000000,88790.56000000,88891.19000000,44.16348000
1765737900000,88891.19000000,89019.13000000,88830.22000000,88997.28000000,51.39807000
1765738800000,88997.27000000,88997.28000000,88670.00000000,88748.98000000,86.54947000
1765739700000,88748.98000000,88748.98000000,88497.02000000,88711.11000000,127.63368000
1765740600000,88711.11000000,88752.00000000,88528.92000000,88602.50000000,54.97700000
1765741500000,88602.50000000,88658.52000000,88498.17000000,88644.88000000,35.80474000
1765742400000,88644.88000000,88827.71000000,88356.90000000,88803.06000000,321.10925000
1765743300000,88803.07000000,88822.88000000,88631.11000000,88658.53000000,99.32735000
1765744200000,88658.53000000,88723.32000000,88568.65000000,88658.56000000,47.65233000
1765745100000,88658.57000000,88723.84000000,88504.48000000,88558.97000000,117.09904000
1765746000000,88558.97000000,88593.45000000,88447.12000000,88524.95000000,70.15595000
1765746900000,88524.95000000,88714.66000000,88524.95000000,88572.25000000,76.77769000
1765747800000,88572.25000000,88604.64000000,88493.56000000,88535.89000000,42.55564000
1765748700000,88535.88000000,88560.00000000,88345.94000000,88443.85000000,120.28160000
1765749600000,88443.85000000,88605.06000000,88443.84000000,88506.92000000,79.59898000
1765750500000,88506.93000000,88509.86000000,88346.88000000,88382.68000000,71.48643000
1765751400000,88382.68000000,88382.69000000,88017.00000000,88174.73000000,387.07080000
1765752300000,88174.74000000,88450.00000000,88131.55000000,88415.29000000,76.56351000
1765753200000,88415.29000000,88609.22000000,87943.03000000,88059.15000000,324.15691000
1765754100000,88059.16000000,88234.86000000,87927.89000000,88026.44000000,134.39254000
1765755000000,88026.44000000,88110.00000000,87577.36000000,88038.44000000,377.60654000
1765755900000,88038.45000000,88358.91000000,87941.44000000,88172.17000000,219.28577000
1765756800000,88172.16000000,88485.04000000,88114.52000000,88163.92000000,190.43950000
1765757700000,88163.91000000,88608.06000000,88074.37000000,88541.96000000,201.66837000
1765758600000,88541.96000000,88692.30000000,88126.99000000,88257.21000000,162.31839000
1765759500000,88257.21000000,88498.99000000,88224.00000000,88465.90000000,71.71532000
1765760400000,88465.90000000,88614.59000000,88428.07000000,88605.32000000,162.52302000
1765761300000,88605.32000000,88757.38000000,88537.44000000,88706.32000000,146.39719000
1765762200000,88706.33000000,89300.00000000,88663.44000000,89078.19000000,254.45071000
1765763100000,89078.19000000,89338.01000000,88971.45000000,89242.32000000,203.79057000
1765764000000,89242.33000000,89656.28000000,89235.72000000,89529.81000000,275.41079000
1765764900000,89529.81000000,90052.64000000,89519.27000000,89688.70000000,373.34757000
1765765800000,89688.70000000,89715.96000000,89383.60000000,89451.07000000,219.08101000
1765766700000,89451.07000000,89465.40000000,89241.97000000,89321.85000000,117.81943000
1765767600000,89321.85000000,89436.00000000,89252.00000000,89381.58000000,94.15922000
1765768500000,89381.58000000,89543.88000000,89359.59000000,89359.59000000,69.14129000
1765769400000,89359.59000000,89400.00000000,89225.91000000,89266.95000000,85.12406000
1765770300000,89266.96000000,89362.00000000,89260.00000000,89282.60000000,72.27421000
1765771200000,89282.60000000,89540.00000000,89282.59000000,89488.05000000,80.29631000
1765772100000,89488.05000000,89588.00000000,89272.88000000,89342.99000000,98.68768000
1765773000000,89342.99000000,89673.17000000,89312.95000000,89673.17000000,118.55931000
1765773900000,89673.17000000,89786.89000000,89630.48000000,89667.64000000,110.97505000
1765774800000,89667.64000000,89672.83000000,89546.07000000,89649.01000000,61.06981000
1765775700000,89649.01000000,89749.47000000,89640.03000000,89704.75000000,46.93949000
1765776600000,89704.75000000,89704.75000000,89533.46000000,89533.46000000,66.47897000
1765777500000,89533.47000000,89620.00000000,89492.00000000,89615.24000000,47.33671000
1765778400000,89615.25000000,89620.00000000,89476.98000000,89498.18000000,48.80399000
1765779300000,89498.17000000,89592.00000000,89498.17000000,89569.36000000,46.41991000
1765780200000,89569.36000000,89658.01000000,89537.05000000,89604.49000000,62.11152000
1765781100000,89604.50000000,89918.48000000,89604.49000000,89735.88000000,105.08112000
1765782000000,89735.89000000,89824.47000000,89516.00000000,89564.17000000,132.75688000
1765782900000,89564.17000000,89643.05000000,89564.16000000,89595.43000000,74.67142000
1765783800000,89595.43000000,89744.11000000,89580.00000000,89616.28000000,97.64307000
1765784700000,89616.28000000,89816.14000000,89606.17000000,89753.42000000,119.10665000
1765785600000,89753.43000000,89820.00000000,89655.52000000,89707.98000000,70.48652000
1765786500000,89707.98000000,89900.00000000,89697.51000000,89863.76000000,62.80843000
1765787400000,89863.77000000,89900.00000000,89786.25000000,89849.25000000,48.90499000
1765788300000,89849.26000000,89860.00000000,89770.00000000,89770.01000000,67.82325000
1765789200000,89770.00000000,89932.42000000,89770.00000000,89848.57000000,62.44131000
1765790100000,89848.57000000,89936.69000000,89836.58000000,89887.99000000,46.93652000
1765791000000,89888.00000000,89913.51000000,89834.41000000,89847.99000000,47.29722000
1765791900000,89848.00000000,89986.68000000,89820.00000000,89865.12000000,153.78185000
1765792800000,89865.13000000,89932.54000000,89792.00000000,89828.80000000,91.14609000
1765793700000,89828.79000000,89936.83000000,89717.34000000,89869.06000000,194.28429000
1765794600000,89869.06000000,89981.64000000,89750.00000000,89826.99000000,131.56131000
1765795500000,89827.00000000,89896.07000000,89825.84000000,89858.95000000,53.71345000
1765796400000,89858.96000000,89900.00000000,89800.00000000,89800.00000000,109.73490000
1765797300000,89800.01000000,89818.00000000,89777.00000000,89803.63000000,114.02504000
1765798200000,89803.63000000,89834.58000000,89572.05000000,89585.55000000,152.33925000
1765799100000,89585.56000000,89699.99000000,89585.55000000,89641.28000000,117.10544000
1765800000000,89641.28000000,89646.39000000,89431.52000000,89454.39000000,154.80414000
1765800900000,89454.40000000,89636.04000000,89454.39000000,89573.13000000,81.48723000
1765801800000,89573.14000000,89762.56000000,89570.79000000,89748.61000000,75.23073000
1765802700000,89748.61000000,89751.00000000,89622.59000000,89695.75000000,80.72564000
1765803600000,89695.76000000,89736.90000000,89466.00000000,89564.88000000,116.48636000
1765804500000,89564.88000000,89591.15000000,89363.56000000,89449.39000000,101.59963000
1765805400000,89449.38000000,89508.93000000,89274.44000000,89470.15000000,140.10126000
1765806300000,89470.14000000,89573.64000000,89427.84000000,89432.00000000,57.19500000
1765807200000,89432.01000000,89647.55000000,89414.64000000,89603.42000000,88.34689000
1765808100000,89603.42000000,89712.00000000,89334.25000000,89390.19000000,111.18775000
1765809000000,89390.18000000,89876.42000000,89044.00000000,89261.77000000,523.66439000
1765809900000,89261.76000000,89340.06000000,87840.00000000,88050.01000000,1064.53742000
1765810800000,88050.00000000,88184.28000000,87395.52000000,87476.92000000,984.68153000
1765811700000,87476.91000000,87497.85000000,86674.77000000,86871.25000000,1169.92556000
1765812600000,86871.24000000,87203.55000000,86621.91000000,87203.55000000,638.83016000
1765813500000,87203.55000000,87376.00000000,86736.64000000,87033.22000000,499.22553000
1765814400000,87033.21000000,87220.00000000,86787.25000000,86888.00000000,338.26730000
1765815300000,86888.00000000,87133.16000000,86845.47000000,86910.81000000,216.30034000
1765816200000,86910.81000000,86956.00000000,86062.67000000,86330.04000000,760.11602000
1765817100000,86330.03000000,86516.42000000,86142.00000000,86400.01000000,298.53984000
1765818000000,86400.00000000,86496.89000000,86200.00000000,86226.06000000,183.14320000
1765818900000,86226.06000000,86365.65000000,86091.23000000,86194.42000000,267.55046000
1765819800000,86194.42000000,86254.73000000,85701.00000000,85842.29000000,782.93163000
1765820700000,85842.29000000,85980.00000000,85599.99000000,85762.87000000,323.75641000
1765821600000,85762.86000000,85976.54000000,85602.83000000,85889.15000000,213.56894000
1765822500000,85889.15000000,85936.77000000,85546.00000000,85586.01000000,282.01341000
1765823400000,85586.01000000,85895.00000000,85146.64000000,85757.59000000,573.29082000
1765824300000,85757.59000000,86272.23000000,85707.99000000,86185.39000000,413.18688000
1765825200000,86185.40000000,86560.40000000,85955.64000000,85976.54000000,439.94911000
1765826100000,85976.53000000,86366.97000000,85880.00000000,86117.24000000,223.93959000
1765827000000,86117.24000000,86333.12000000,86108.62000000,86201.99000000,134.62246000
1765827900000,86201.99000000,86260.34000000,85966.93000000,86149.96000000,338.05273000
1765828800000,86149.96000000,86199.63000000,85733.02000000,85761.62000000,195.52625000
1765829700000,85761.62000000,85889.52000000,85610.88000000,85746.52000000,198.61910000
1765830600000,85746.51000000,86093.03000000,85713.43000000,85932.57000000,175.74203000
1765831500000,85932.57000000,85981.00000000,85770.00000000,85787.04000000,123.05507000
1765832400000,85787.04000000,85813.53000000,85530.01000000,85630.00000000,210.21095000
1765833300000,85629.99000000,86156.22000000,85582.72000000,86075.61000000,184.12201000
1765834200000,86075.62000000,86173.61000000,85992.46000000,86015.61000000,130.12218000
1765835100000,86015.60000000,86307.36000000,86009.35000000,86243.78000000,167.12134000
1765836000000,86243.77000000,86243.78000000,86001.11000000,86045.29000000,145.21398000
