timestamp,open,high,low,close,volume
1771927200000,63213.40,63254.50,63068.60,63183.60,888.471
1771928100000,63183.70,63275.70,63118.00,63239.10,682.113
1771929000000,63239.00,63271.40,63106.30,63172.80,648.295
1771929900000,63172.70,63341.60,63131.50,63250.00,896.667
1771930800000,63250.00,63295.90,63150.00,63166.60,630.544
1771931700000,63166.60,63212.30,63111.40,63148.30,745.200
1771932600000,63148.30,63230.70,63027.00,63165.90,1398.295
1771933500000,63165.80,63211.90,63118.60,63192.20,629.961
1771934400000,63192.10,63267.20,63080.00,63228.00,911.493
1771935300000,63227.90,63319.20,63191.70,63289.10,1058.480
1771936200000,63289.10,63313.30,63040.30,63086.40,1538.002
1771937100000,63086.40,63104.90,62923.00,62936.00,2075.893
1771938000000,62935.90,63072.80,62860.00,63042.20,1889.873
1771938900000,63042.10,63071.50,62772.80,62893.50,2598.982
1771939800000,62893.60,63083.70,62401.70,62903.30,10456.318
1771940700000,62903.40,63013.40,62863.10,62877.00,1830.680
1771941600000,62877.00,62998.90,62734.00,62919.80,1822.575
1771942500000,62919.90,63007.70,62771.50,62973.70,1611.144
1771943400000,62973.80,63450.70,62727.00,63304.60,7356.349
1771944300000,63304.50,63807.50,63236.10,63422.00,8382.010
1771945200000,63422.00,63635.20,63270.60,63549.00,3521.955
1771946100000,63548.90,63949.70,63516.30,63890.00,4984.738
1771947000000,63890.00,63949.60,63626.00,63713.30,3531.944
1771947900000,63713.30,63993.10,63682.50,63933.40,2175.300
1771948800000,63933.40,64388.00,63916.00,64122.40,7412.432
1771949700000,64122.30,64182.90,63843.20,63918.70,2338.606
1771950600000,63918.70,64097.50,63664.80,64009.50,4547.360
1771951500000,64009.60,64271.00,63780.00,64227.30,3235.205
1771952400000,64227.40,64491.00,64120.00,64380.30,5134.185
1771953300000,64380.20,64380.20,64080.20,64125.50,2672.175
1771954200000,64125.60,64238.00,64062.00,64068.80,1341.658
1771955100000,64068.70,64241.00,64013.50,64188.80,1216.402
1771956000000,64188.80,64378.30,63850.00,63944.70,2926.601
1771956900000,63944.80,64322.90,63900.30,64264.00,2136.237
1771957800000,64264.00,64478.40,64258.10,64339.70,2070.033
1771958700000,64339.60,64478.50,64328.90,64395.10,1578.683
1771959600000,64395.10,64719.10,64228.80,64284.30,4261.804
1771960500000,64284.30,64399.90,64214.30,64283.50,1687.119
1771961400000,64283.50,64493.80,64268.30,64439.10,1021.192
1771962300000,64439.00,64458.00,64350.00,64405.40,685.436
1771963200000,64405.40,64456.60,64281.50,64365.20,886.685
1771964100000,64365.10,64480.00,64362.00,64437.90,755.528
1771965000000,64437.90,64566.50,64355.00,64466.00,990.378
1771965900000,64465.90,64486.00,64357.10,64430.80,903.375
1771966800000,64430.80,64430.80,64079.70,64209.70,2103.796
1771967700000,64209.70,64213.80,63769.20,63887.50,2932.498
1771968600000,63887.40,64043.30,63840.30,63987.10,1291.924
1771969500000,63987.20,64060.30,63951.80,64009.20,950.853
1771970400000,64009.20,64200.00,63943.50,64189.30,1266.642
1771971300000,64189.30,64189.40,64055.70,64115.10,453.591
1771972200000,64115.10,64161.70,64035.20,64060.10,450.730
1771973100000,64060.00,64121.40,63956.50,64091.80,640.457
1771974000000,64091.80,64122.40,63821.50,64043.10,1752.436
1771974900000,64043.10,64193.80,64041.30,64153.20,980.857
1771975800000,64153.10,64217.20,64094.40,64109.00,507.525
1771976700000,64109.10,64113.00,63987.80,64031.30,465.226
1771977600000,64031.40,64052.00,63876.00,63887.00,819.184
1771978500000,63887.00,64038.50,63878.10,63934.70,629.855
1771979400000,63934.80,64244.00,63934.70,64218.40,936.599
1771980300000,64218.40,64288.00,64110.20,64188.90,971.785
1771981200000,64189.00,65922.20,64106.00,65571.80,14418.608
1771982100000,65571.80,66283.10,65383.30,65921.00,12156.061
1771983000000,65921.00,66260.20,65744.60,65781.90,4834.801
1771983900000,65781.90,66031.50,65749.90,65860.40,2577.772
1771984800000,65860.40,66279.10,65854.30,66206.70,5025.074
1771985700000,66206.60,66231.20,66008.10,66082.30,1862.249
1771986600000,66082.30,66151.30,65845.70,65899.90,1820.234
1771987500000,65900.00,66000.00,65817.20,65852.00,1341.654
1771988400000,65852.00,65928.70,65773.80,65806.80,1494.513
1771989300000,65806.70,65821.40,65458.80,65559.30,3268.762
1771990200000,65559.20,65611.00,65342.80,65433.30,2303.034
1771991100000,65433.30,65530.80,65310.50,65361.70,2394.900
1771992000000,65361.70,65501.90,65053.90,65403.80,3650.369
1771992900000,65403.80,65588.30,65311.10,65557.70,2222.996
1771993800000,65557.70,65627.50,65492.30,65597.50,849.160
1771994700000,65597.50,65605.40,65363.10,65427.90,878.927
1771995600000,65428.00,65488.20,65267.60,65305.00,1118.665
1771996500000,65305.00,65347.50,65133.00,65169.50,1316.928
1771997400000,65169.50,65208.60,64720.40,64809.90,4745.456
1771998300000,64810.00,64969.60,64734.10,64847.90,2311.587
1771999200000,64847.90,64992.10,64841.30,64962.50,1155.564
1772000100000,64962.50,65098.50,64867.10,64990.10,1021.741
1772001000000,64990.10,65085.20,64947.30,65055.70,831.808
1772001900000,65055.60,65063.30,64828.80,64862.60,1101.122
1772002800000,64862.60,65054.50,64735.50,64996.20,1197.915
1772003700000,64996.30,65160.40,64966.60,65080.70,1704.437
1772004600000,65080.80,65159.90,64818.10,64920.10,1820.350
1772005500000,64920.10,65021.60,64897.20,65001.10,685.488
1772006400000,65001.20,65060.00,64929.70,64999.00,695.249
1772007300000,64999.00,65220.00,64981.20,65160.00,1290.519
1772008200000,65160.00,65441.90,65155.40,65384.20,2560.921
1772009100000,65384.10,65550.00,65338.50,65490.90,1969.899
1772010000000,65491.00,65674.10,65417.30,65520.00,2002.023
1772010900000,65520.00,65611.70,65475.90,65535.40,1073.367
1772011800000,65535.40,65535.40,65389.40,65432.60,1307.714
1772012700000,65432.60,65543.80,65421.70,65524.20,658.862
1772013600000,65524.20,65584.30,65440.10,65537.10,869.956
1772014500000,65537.10,65640.00,65323.80,65335.80,1268.440
1772015400000,65335.80,65399.70,65303.70,65388.00,552.220
1772016300000,65387.90,65479.40,65328.00,65364.40,702.982
1772017200000,65364.50,65364.50,65161.00,65210.60,1645.597
1772018100000,65210.60,65378.80,65164.60,65325.80,970.494
1772019000000,65325.80,65457.30,65295.50,65403.00,1050.739
1772019900000,65403.10,65422.00,65341.40,65396.70,442.599
1772020800000,65396.60,65500.00,65280.10,65464.00,1082.126
1772021700000,65464.00,65910.90,65450.00,65740.90,5036.544
1772022600000,65740.90,65850.00,65712.00,65796.30,1392.040
1772023500000,65796.30,66222.00,65780.10,66038.70,4833.450
1772024400000,66038.70,66299.90,66002.20,66015.10,3797.594
1772025300000,66015.10,66218.80,65987.30,66147.00,2001.042
1772026200000,66147.10,66399.90,66105.50,66279.20,3816.833
1772027100000,66279.30,66687.10,66169.40,66209.50,6449.984
1772028000000,66209.50,66464.80,66179.20,66446.70,2476.042
1772028900000,66446.70,66588.80,66388.00,66543.50,2234.725
1772029800000,66543.40,66765.50,66180.10,66228.80,6485.131
1772030700000,66228.90,66985.50,66220.90,66936.90,6708.734
1772031600000,66936.70,67221.00,66734.30,66809.40,8769.416
1772032500000,66809.40,67038.50,66680.00,67034.10,2918.647
1772033400000,67034.20,67500.00,66923.00,67468.90,5969.470
1772034300000,67468.80,67548.00,67160.40,67362.30,5373.544
1772035200000,67362.40,67766.00,67354.20,67555.00,4886.463
1772036100000,67554.90,68068.10,67528.10,67826.50,7552.388
1772037000000,67826.60,67964.80,67774.30,67902.50,2848.149
1772037900000,67902.60,68300.50,67902.60,68249.90,4854.855
1772038800000,68249.90,68610.00,67977.70,68469.40,8536.294
1772039700000,68469.50,68647.00,68233.50,68525.90,4418.276
1772040600000,68525.90,68752.10,68354.00,68730.50,4383.385
1772041500000,68731.10,68842.00,68540.80,68625.60,4405.299
1772042400000,68625.60,68888.00,68340.00,68825.00,6024.065
1772043300000,68825.00,69500.00,68670.50,69311.40,8869.193
1772044200000,69311.60,69531.30,69166.10,69441.50,5648.275
1772045100000,69441.40,69475.20,69228.50,69293.30,2708.915
1772046000000,69293.30,69375.10,68720.80,68879.90,6135.320
1772046900000,68879.90,69117.20,68816.00,68940.80,2916.073
1772047800000,68940.90,68978.40,68743.10,68860.10,1716.908
1772048700000,68860.10,69062.30,68814.90,69005.20,1261.980
1772049600000,69005.20,69058.70,68567.90,68599.90,3526.016
1772050500000,68599.90,68843.70,68599.90,68770.80,1838.452
1772051400000,68770.70,69180.40,68735.00,69087.50,2970.103
1772052300000,69087.50,69350.00,69065.80,69104.90,2885.339
1772053200000,69104.90,69197.30,68900.00,68955.20,1409.143
1772054100000,68955.30,69038.80,68746.80,68767.80,1624.341
1772055000000,68767.80,69999.00,68720.00,69183.90,10172.828
1772055900000,69183.90,69183.90,68771.50,68874.20,3676.615
1772056800000,68874.20,69149.70,68830.40,69039.00,1786.164
1772057700000,69038.90,69052.40,68781.90,68842.90,1121.457
1772058600000,68842.90,68872.30,68227.90,68388.00,4068.525
1772059500000,68388.10,68500.00,68014.80,68402.00,3546.129
1772060400000,68402.00,68665.20,68179.00,68484.60,2673.412
1772061300000,68484.50,68496.40,68226.80,68238.70,1562.242
1772062200000,68238.70,68265.80,67557.00,67670.30,4917.682
1772063100000,67670.30,67968.00,67611.00,67952.50,2420.031
1772064000000,67952.50,68139.60,67690.10,68123.50,2477.528
1772064900000,68123.50,68413.40,68078.90,68242.00,2584.955
1772065800000,68242.00,68504.30,67932.50,68164.80,3367.186
1772066700000,68164.80,68344.00,68079.10,68294.40,884.679
1772067600000,68294.30,68666.00,68172.60,68527.50,2718.237
1772068500000,68527.40,68561.00,68325.20,68350.50,758.413
1772069400000,68350.50,68545.20,68179.60,68313.60,1445.024
1772070300000,68313.50,68367.60,68187.50,68213.90,893.455
1772071200000,68213.90,68233.70,67756.80,67831.40,2508.853
1772072100000,67831.50,68133.80,67831.50,67910.60,1283.379
1772073000000,67910.70,68177.70,67905.00,68152.10,1072.241
1772073900000,68152.10,68346.40,68067.40,68219.20,1045.518
1772074800000,68219.10,68350.00,68003.70,68113.50,1309.193
1772075700000,68113.60,68150.80,68045.00,68065.90,599.690
1772076600000,68065.90,68255.00,68007.50,68202.30,746.643
1772077500000,68202.30,68290.00,68150.00,68187.50,484.252
1772078400000,68187.40,68577.00,68150.00,68490.10,1905.173
1772079300000,68490.00,68658.40,68372.40,68521.30,1402.020
1772080200000,68521.40,68850.00,68510.90,68689.90,2200.266
1772081100000,68690.00,68704.20,68528.70,68533.10,831.920
1772082000000,68533.10,68534.30,68188.20,68266.10,1782.720
1772082900000,68266.00,68371.90,68080.00,68313.00,1977.290
1772083800000,68313.10,68406.80,68222.00,68374.70,741.605
1772084700000,68374.80,68479.80,68306.00,68408.20,811.867
1772085600000,68408.30,68487.80,68243.90,68424.80,732.138
1772086500000,68424.80,68424.80,68201.10,68213.70,813.686
1772087400000,68213.60,68222.00,68082.20,68090.00,1184.525
1772088300000,68090.00,68196.00,68025.50,68146.10,717.925
1772089200000,68146.10,68235.30,68128.00,68198.50,750.046
1772090100000,68198.60,68269.90,68065.00,68146.00,517.747
1772091000000,68146.00,68165.70,67958.30,67964.50,1580.472
1772091900000,67964.50,67985.30,67780.00,67800.00,2055.773
1772092800000,67800.00,68022.20,67750.00,68008.30,1513.140
1772093700000,68008.30,68218.30,67922.90,67996.10,2140.995
1772094600000,67996.20,68108.50,67888.00,67959.30,1011.040
1772095500000,67959.40,68085.90,67862.70,67923.30,995.313
1772096400000,67923.40,68381.90,67900.00,68291.10,2146.096
1772097300000,68291.00,68296.40,68123.70,68151.20,1070.093
1772098200000,68151.10,68448.00,68108.80,68366.60,2018.224
1772099100000,68366.60,68617.30,68366.60,68553.00,2330.141
1772100000000,68553.00,68689.70,68450.00,68487.30,1741.881
1772100900000,68487.30,68498.40,68294.50,68300.00,1598.658
1772101800000,68300.00,68434.40,68241.30,68412.60,1014.796
1772102700000,68412.60,68426.80,68221.90,68271.90,1321.721
1772103600000,68272.00,68371.30,68229.80,68317.20,1026.985
1772104500000,68317.20,68321.30,68099.10,68124.60,955.060
1772105400000,68124.70,68195.00,68035.80,68053.00,868.066
1772106300000,68053.00,68067.10,67952.00,68025.20,1281.806
1772107200000,68025.20,68215.40,67999.00,68167.90,1260.540
1772108100000,68167.90,68270.90,68104.40,68121.10,1127.502
1772109000000,68121.10,68268.90,68045.50,68045.50,975.437
1772109900000,68045.50,68199.40,67968.20,68140.90,1198.844
1772110800000,68140.90,68187.00,67952.50,68000.40,1217.242
1772111700000,68000.40,68139.90,67907.10,68126.90,1139.600
1772112600000,68127.00,68159.60,67940.00,68053.20,1152.095
1772113500000,68053.10,68178.40,67810.20,67877.80,1576.197
1772114400000,67877.80,68013.60,67626.20,67956.00,3368.054
1772115300000,67955.90,68119.10,67781.00,68077.00,1487.398
1772116200000,68077.00,68263.50,67705.00,67761.60,4945.765
1772117100000,67761.60,67787.70,67235.80,67659.80,8759.596
1772118000000,67659.80,67707.80,67204.40,67346.70,3678.530
1772118900000,67346.80,67369.80,66821.00,66950.70,9177.534
1772119800000,66950.60,67438.00,66730.70,67318.80,6055.398
1772120700000,67318.80,67627.10,67183.90,67353.40,3296.652
1772121600000,67353.30,67413.50,67020.20,67120.20,3063.482
1772122500000,67120.10,67558.70,67079.50,67415.80,2421.931
1772123400000,67415.80,67425.80,66870.40,67007.10,3985.941
1772124300000,67007.20,67035.10,66462.00,66617.30,8034.808
1772125200000,66617.30,66981.20,66567.90,66859.40,3601.132
1772126100000,66859.40,67026.80,66711.70,66900.80,2096.036
1772127000000,66900.90,66995.10,66668.20,66713.10,1627.351
1772127900000,66713.10,66825.20,66580.00,66795.50,1925.823
1772128800000,66795.40,66856.90,66536.10,66742.90,2174.345
1772129700000,66742.90,66995.60,66712.80,66829.00,1872.656
1772130600000,66828.90,67347.40,66808.40,67224.50,5337.338
1772131500000,67224.50,67320.00,67140.90,67268.90,1399.461
1772132400000,67268.80,67888.00,67246.30,67466.10,4957.788
1772133300000,67466.10,67758.60,67454.60,67544.00,1919.292
1772134200000,67543.90,67674.00,67365.00,67449.00,1825.333
1772135100000,67449.10,67671.00,67449.10,67550.70,1079.008
1772136000000,67550.70,67790.10,67550.70,67649.10,1241.177
1772136900000,67649.10,67787.30,67504.00,67527.60,1052.162
1772137800000,67527.70,67529.60,67293.90,67443.30,1549.895
1772138700000,67443.40,67443.40,67250.30,67386.50,1170.485
1772139600000,67386.60,67419.30,67114.00,67325.60,1482.272
1772140500000,67325.70,67488.20,67292.90,67449.20,640.765
1772141400000,67449.10,67456.40,67340.00,67406.80,433.080
1772142300000,67406.80,67549.90,67367.30,67432.10,661.226
1772143200000,67432.10,67549.80,67366.80,67507.90,745.111
1772144100000,67507.80,67518.80,67269.10,67377.90,508.244
1772145000000,67377.80,67588.70,67370.90,67557.20,468.661
1772145900000,67557.20,67592.90,67457.90,67531.40,406.618
1772146800000,67531.30,67536.70,67352.30,67485.60,794.580
1772147700000,67485.60,67580.00,67414.00,67525.10,500.939
1772148600000,67525.10,67618.10,67441.80,67467.30,708.251
1772149500000,67467.40,67480.60,67371.00,67448.20,517.046
1772150400000,67448.10,67502.90,67243.60,67325.40,1083.446
1772151300000,67325.50,67357.20,67133.20,67272.00,1111.797
1772152200000,67271.90,67283.20,67011.00,67096.20,1400.763
1772153100000,67096.20,67245.90,66959.00,67190.30,1820.230
1772154000000,67190.30,67211.70,66841.60,66960.00,2165.609
1772154900000,66960.00,67114.10,66929.00,67034.20,918.711
1772155800000,67034.10,67273.10,66984.30,67120.00,3038.429
1772156700000,67120.00,67344.60,67071.60,67315.90,1387.464
1772157600000,67315.90,67444.00,67254.70,67282.50,1178.102
1772158500000,67282.60,67488.00,67226.30,67372.50,1411.206
1772159400000,67372.60,67500.00,67315.40,67391.90,857.111
1772160300000,67392.00,67442.90,67220.00,67226.50,968.186
1772161200000,67226.40,67251.80,67061.90,67139.70,961.481
1772162100000,67139.60,67199.60,67050.00,67072.10,613.388
1772163000000,67072.20,67361.90,67071.50,67356.10,957.116
1772163900000,67356.10,67670.00,67288.80,67557.40,2434.827
1772164800000,67557.40,67928.00,67533.80,67896.30,4103.899
1772165700000,67896.30,68188.80,67847.90,67911.60,3164.108
1772166600000,67911.60,67931.00,67655.10,67723.70,2318.439
1772167500000,67723.70,67915.70,67648.20,67709.20,2024.002
1772168400000,67709.10,67887.90,67680.30,67819.10,1551.031
1772169300000,67819.10,67849.90,67645.10,67761.00,700.299
1772170200000,67761.00,67842.40,67728.30,67802.00,450.423
1772171100000,67802.00,67820.00,67634.00,67685.80,809.536
1772172000000,67685.80,67743.30,67606.40,67620.20,628.001
1772172900000,67620.20,67664.60,67470.00,67563.30,1160.626
1772173800000,67563.30,67735.00,67557.40,67702.10,905.539
1772174700000,67702.00,67787.30,67606.60,67617.10,727.304
1772175600000,67617.10,67682.00,67525.00,67612.80,529.270
1772176500000,67612.80,67624.60,67432.10,67468.10,977.063
1772177400000,67468.20,67590.20,67417.40,67505.60,1354.865
1772178300000,67505.60,67733.70,67478.40,67644.10,1386.756
1772179200000,67644.10,68017.30,67618.50,67848.90,2361.162
1772180100000,67848.90,67949.50,67819.90,67924.90,699.963
1772181000000,67925.00,67996.20,67680.00,67880.10,1137.488
1772181900000,67880.10,68050.00,67855.90,67897.40,1339.684
1772182800000,67897.50,68020.00,67802.80,67939.90,2160.950
1772183700000,67940.00,68127.80,67841.10,67987.70,1460.828
1772184600000,67987.60,68004.60,67564.80,67569.40,1491.311
1772185500000,67569.40,67570.30,67245.00,67318.40,3058.230
1772186400000,67318.30,67381.00,66800.00,66850.00,5581.589
1772187300000,66850.00,67032.80,66616.20,66752.00,5470.329
1772188200000,66751.90,66926.30,66670.80,66778.00,3066.895
1772189100000,66778.00,66818.50,66540.40,66575.10,3228.565
1772190000000,66575.20,66762.60,66575.10,66671.90,2283.450
1772190900000,66672.40,66672.40,66334.20,66492.40,5125.122
1772191800000,66492.40,66534.90,65923.00,65965.60,7536.180
1772192700000,65965.60,66173.60,65953.10,66094.10,4212.367
1772193600000,66094.00,66198.00,65853.70,65960.90,3013.322
1772194500000,65961.00,66106.80,65860.50,65882.40,2369.210
1772195400000,65882.50,66010.40,65820.00,65868.90,1609.222
1772196300000,65868.90,65913.70,65714.20,65902.40,3745.967
1772197200000,65902.50,66136.70,65880.30,66013.80,3324.696
1772198100000,66013.90,66121.00,65887.50,65987.50,2282.065
1772199000000,65987.50,66032.00,65626.10,66001.00,5419.081
1772199900000,66001.70,66320.00,65993.60,66240.00,4473.867
1772200800000,66240.00,66300.00,66107.20,66286.60,2209.388
1772201700000,66286.70,66286.70,65959.80,66086.00,2827.055
1772202600000,66086.00,66289.90,65760.00,65849.50,5996.086
1772203500000,65849.50,65964.40,65656.00,65855.50,5660.379
1772204400000,65855.40,66209.50,65804.80,66000.90,4150.432
1772205300000,66000.90,66220.20,65870.00,66088.20,2907.355
1772206200000,66088.20,66102.60,65834.70,66045.20,1530.280
1772207100000,66045.30,66289.80,66027.60,66072.60,2408.881
1772208000000,66072.50,66095.20,65695.30,65869.10,4604.278
1772208900000,65869.10,66042.50,65809.90,65968.10,1442.088
1772209800000,65968.20,66027.40,65670.10,65700.20,1602.231
1772210700000,65700.30,65783.00,65433.20,65449.30,5887.417
1772211600000,65449.30,65646.10,65370.80,65435.80,2687.283
1772212500000,65435.90,65520.60,65163.20,65182.50,3677.374
1772213400000,65182.60,65515.60,65080.00,65380.80,3857.445
1772214300000,65380.80,65724.30,65350.00,65673.00,2622.429
1772215200000,65672.90,65772.40,65483.00,65517.90,2057.760
1772216100000,65517.80,65594.50,65360.00,65550.70,1416.357
1772217000000,65550.80,65655.00,65488.00,65541.00,921.255
1772217900000,65541.00,65554.40,65180.00,65284.80,2001.937
1772218800000,65284.80,65410.70,65135.30,65259.40,1477.970
1772219700000,65259.50,65400.10,65176.70,65310.10,1548.476
1772220600000,65310.10,65396.10,65214.60,65265.80,918.074
1772221500000,65265.90,65433.70,65222.30,65365.40,1009.420
1772222400000,65365.40,65578.00,65365.40,65537.70,1401.990
1772223300000,65537.60,65638.00,65520.00,65550.80,890.650
1772224200000,65550.80,65630.00,65412.40,65603.10,734.367
1772225100000,65603.10,65637.90,65521.40,65564.20,1110.953
1772226000000,65564.30,65685.30,65445.20,65548.40,1063.673
1772226900000,65548.30,65721.60,65548.30,65662.60,801.780
1772227800000,65662.60,65685.00,65541.60,65594.80,716.447
1772228700000,65594.80,65594.90,65366.50,65502.30,740.186
1772229600000,65502.20,65557.70,65410.80,65513.30,564.902
1772230500000,65513.30,65589.60,65414.10,65442.40,359.666
1772231400000,65442.40,65573.90,64875.60,65565.10,5184.195
1772232300000,65565.00,65647.20,65479.20,65609.00,1050.799
1772233200000,65609.00,65838.30,65517.60,65702.90,1708.765
1772234100000,65703.00,65871.90,65695.90,65855.00,1090.293
1772235000000,65855.00,65921.70,65788.80,65793.30,892.957
1772235900000,65793.20,65885.20,65793.20,65836.00,673.521
1772236800000,65836.00,65990.00,65793.90,65969.40,1380.430
1772237700000,65969.40,65985.80,65681.90,65745.70,1210.761
1772238600000,65745.70,65934.80,65708.40,65920.00,623.360
1772239500000,65920.10,65956.10,65863.70,65906.30,516.770
1772240400000,65906.30,65943.60,65795.80,65830.50,434.575
1772241300000,65830.40,65943.10,65778.70,65805.50,881.632
1772242200000,65805.60,65828.20,65701.20,65760.00,714.065
1772243100000,65760.00,65824.40,65720.10,65747.20,446.738
1772244000000,65747.30,65900.00,65734.20,65832.80,576.779
1772244900000,65832.80,65947.90,65832.80,65885.80,402.851
1772245800000,65885.70,65958.20,65881.50,65929.90,513.669
1772246700000,65930.00,65994.70,65919.10,65926.90,493.469
1772247600000,65927.00,65935.10,65818.50,65824.90,564.193
1772248500000,65825.00,65949.70,65825.00,65856.90,405.135
1772249400000,65856.90,65884.40,65700.90,65732.10,1160.681
1772250300000,65732.10,65818.90,65732.10,65763.80,339.936
1772251200000,65763.80,65786.80,65665.50,65715.20,660.215
1772252100000,65715.20,65785.70,65567.10,65636.70,888.418
1772253000000,65636.70,65647.30,65441.00,65616.80,2093.067
1772253900000,65616.70,65673.30,65573.30,65632.00,651.279
1772254800000,65632.10,65694.80,65591.50,65688.80,541.233
1772255700000,65688.80,65700.00,65609.60,65612.20,334.499
1772256600000,65612.20,65612.30,65469.90,65524.00,1015.702
1772257500000,65523.80,65562.30,65462.10,65558.60,859.883
1772258400000,65558.60,65560.00,65406.50,65462.60,467.567
1772259300000,65462.60,65469.60,64347.40,64527.80,16707.160
1772260200000,64527.80,64546.40,63528.70,64003.70,16061.802
1772261100000,64003.70,64030.00,62979.50,63173.80,9867.101
1772262000000,63173.80,63791.00,62981.20,63727.90,9292.650
1772262900000,63727.90,63853.90,63311.50,63472.00,6133.658
1772263800000,63472.10,64298.70,63422.00,64027.20,8598.262
1772264700000,64027.30,64036.40,63768.20,63788.40,3025.781
1772265600000,63787.40,63851.30,63513.00,63587.40,3613.356
1772266500000,63587.30,63779.50,63356.10,63591.10,4509.284
1772267400000,63591.00,63737.50,63482.90,63581.40,1565.795
1772268300000,63581.40,63655.90,63372.00,63439.70,1712.063
1772269200000,63439.60,63687.50,63313.90,63678.60,2166.753
1772270100000,63679.00,63923.60,63554.30,63805.60,2424.682
1772271000000,63805.50,63805.60,63510.90,63590.30,1672.255
1772271900000,63590.30,63698.00,63505.00,63621.40,1065.507
1772272800000,63621.30,63621.40,63377.50,63527.30,2021.113
1772273700000,63527.40,63925.00,63489.40,63807.20,2676.859
1772274600000,63807.20,64030.00,63799.90,63911.00,1813.525
1772275500000,63911.00,64000.00,63841.90,63964.50,1019.896
1772276400000,63964.50,64187.50,63915.40,64041.30,2082.134
1772277300000,64041.30,64260.00,63988.30,64211.70,2168.652
1772278200000,64211.60,64267.90,63935.00,63969.20,2428.734
1772279100000,63969.30,64039.40,63736.00,63810.40,2973.105
1772280000000,63810.40,63944.30,63796.20,63900.10,1332.648
1772280900000,63900.10,64053.30,63900.10,63967.70,990.300
1772281800000,63967.80,64034.90,63937.00,63973.30,656.165
1772282700000,63973.30,64012.20,63782.20,63980.00,1082.730
1772283600000,63979.90,64087.60,63865.60,64040.00,946.151
1772284500000,64040.00,64146.40,63950.10,63999.90,1082.682
1772285400000,63999.90,64069.20,63870.80,64030.00,1081.474
1772286300000,64030.00,65190.00,64025.50,65069.50,16064.089
1772287200000,65069.50,65335.80,64710.00,64789.30,7341.082
1772288100000,64789.20,64893.90,64610.70,64755.80,3192.440
1772289000000,64755.80,65135.00,64637.10,64893.30,4497.813
1772289900000,64893.30,65006.80,64239.30,64402.40,7234.581
1772290800000,64402.50,64572.70,64175.80,64193.00,3934.450
1772291700000,64193.00,64810.00,64193.00,64718.90,2794.699
1772292600000,64718.90,64991.80,64607.10,64793.90,2498.349
1772293500000,64793.90,64870.00,64682.10,64800.00,879.386
1772294400000,64800.10,64937.50,64635.00,64851.10,1206.951
1772295300000,64851.00,64964.80,64711.10,64895.70,1090.265
1772296200000,64895.70,65170.50,64850.30,65124.30,1912.372
1772297100000,65124.30,65157.40,64951.80,65053.80,1231.930
1772298000000,65053.70,65071.00,64897.50,64912.90,1046.658
1772298900000,64912.90,65098.70,64851.60,65064.90,1268.101
1772299800000,65064.80,65158.40,64870.00,64921.30,1177.831
1772300700000,64921.30,65581.30,64800.00,65395.40,3601.279
1772301600000,65395.30,65423.30,65217.40,65240.00,2024.767
1772302500000,65240.00,65317.60,65139.40,65139.50,1030.490
1772303400000,65139.60,65773.00,65139.60,65634.70,4068.665
1772304300000,65634.80,66165.80,65587.20,65873.00,4342.367
1772305200000,65872.90,65915.90,65557.30,65721.00,2582.184
1772306100000,65721.00,65775.60,65622.30,65690.90,884.125
1772307000000,65691.00,66642.80,65679.50,66348.10,8631.767
1772307900000,66348.10,66621.30,66183.10,66318.10,3061.502
1772308800000,66318.10,66599.00,66150.00,66529.00,2467.009
1772309700000,66528.90,67022.90,66422.00,66723.90,5542.457
1772310600000,66723.90,66890.50,66578.20,66746.20,1788.650
1772311500000,66746.30,67138.00,66726.30,66918.60,2701.676
1772312400000,66918.60,66952.60,66350.80,66538.90,3735.932
1772313300000,66538.90,66559.10,66329.70,66436.20,1099.856
1772314200000,66436.10,67009.90,66357.90,66805.50,3370.539
1772315100000,66805.50,66909.40,66500.00,66684.80,1903.240
1772316000000,66684.80,66960.40,66579.10,66896.60,1870.397
1772316900000,66896.60,67100.00,66840.70,66959.00,1660.160
1772317800000,66959.00,67735.00,66908.50,67305.90,5674.362
1772318700000,67306.00,67596.80,67061.50,67081.40,2234.347
1772319600000,67081.40,67183.30,66868.80,66927.70,1254.050
1772320500000,66927.70,67030.00,66855.50,66871.60,1192.169
1772321400000,66871.70,66991.90,66688.30,66852.30,1547.199
1772322300000,66852.30,67019.80,66852.30,66937.10,1333.416
1772323200000,66937.00,67089.60,66763.30,66883.40,1694.569
1772324100000,66883.50,66998.00,66730.00,66746.40,988.386
1772325000000,66746.50,66800.00,66578.30,66606.60,1702.005
1772325900000,66606.60,66849.10,66606.50,66755.60,1068.895
1772326800000,66755.50,66761.60,65812.00,66266.10,5822.412
1772327700000,66266.20,66425.60,66017.10,66309.30,2703.459
1772328600000,66309.30,66742.60,66250.10,66589.60,2292.762
1772329500000,66589.70,67686.70,66578.00,67311.60,11413.330
1772330400000,67311.70,68189.00,67305.20,67864.20,11665.711
1772331300000,67863.70,68072.00,67601.10,67734.50,3167.684
1772332200000,67734.50,68085.00,67626.20,68037.40,2288.914
1772333100000,68037.40,68139.00,67573.00,67588.30,4184.259
1772334000000,67588.30,67793.40,67578.20,67694.90,1811.791
1772334900000,67694.80,67732.20,67361.00,67534.60,2332.480
1772335800000,67534.60,67625.30,67400.00,67613.80,1424.394
1772336700000,67613.70,67675.10,67351.00,67474.70,1998.813
1772337600000,67474.80,67582.20,67232.90,67257.20,1946.211
1772338500000,67257.10,67318.20,67017.40,67293.20,2824.548
1772339400000,67293.30,67437.20,67226.80,67362.10,1710.222
1772340300000,67362.10,67381.80,67254.10,67313.00,634.398
1772341200000,67313.10,67422.00,67163.50,67294.00,1447.891
1772342100000,67293.90,67547.30,67293.90,67422.90,1070.293
1772343000000,67423.00,67526.50,67340.00,67350.00,841.436
1772343900000,67349.90,67408.10,67247.90,67264.20,1265.354
1772344800000,67264.20,67320.00,66888.00,67049.90,3756.707
1772345700000,67049.90,67138.10,66921.90,67014.00,1568.656
1772346600000,67014.00,67056.50,66757.40,66898.60,2065.622
1772347500000,66898.60,66938.10,66757.20,66890.10,900.906
1772348400000,66890.00,67030.00,66757.90,66986.10,1194.273
1772349300000,66986.10,67049.60,66919.50,66956.30,640.831
1772350200000,66956.30,67201.20,66877.50,67066.70,1686.240
1772351100000,67066.70,67151.30,67057.00,67113.90,908.021
1772352000000,67114.00,67260.40,66875.10,67239.90,1579.603
1772352900000,67240.00,67275.50,67090.60,67195.70,876.634
1772353800000,67195.70,67226.50,67100.30,67100.30,660.680
1772354700000,67100.30,67111.50,66429.80,66535.00,4753.563
1772355600000,66535.00,66667.60,66324.50,66562.80,2488.297
1772356500000,66562.90,66745.40,66516.00,66587.30,1635.035
1772357400000,66587.30,66625.00,66225.20,66268.10,2324.945
1772358300000,66268.10,66418.00,66205.80,66380.10,1492.237
1772359200000,66380.10,66510.40,66160.40,66490.90,1952.242
1772360100000,66491.00,66578.80,66405.20,66546.50,892.333
1772361000000,66546.40,66720.20,66358.40,66373.90,2152.695
1772361900000,66373.90,66500.00,66335.70,66430.00,1285.480
1772362800000,66429.90,66527.00,66411.00,66477.50,1026.336
1772363700000,66477.40,66638.00,66476.90,66523.10,959.621
1772364600000,66522.80,66546.10,66344.00,66360.40,754.617
1772365500000,66360.40,66480.00,66359.90,66439.00,495.724
1772366400000,66439.00,66515.10,66411.60,66481.60,432.422
1772367300000,66481.50,66525.90,66382.60,66386.50,627.233
1772368200000,66386.50,66487.70,66211.60,66459.80,1453.362
1772369100000,66459.90,66481.90,66257.20,66270.60,945.013
1772370000000,66270.50,66392.90,66164.70,66278.00,959.977
1772370900000,66278.10,66380.00,66100.00,66294.40,1613.619
1772371800000,66294.40,66358.60,66207.20,66324.80,1135.463
1772372700000,66324.70,67333.00,66317.50,66907.10,9393.407
1772373600000,66907.20,67280.00,66791.70,67033.80,3464.656
1772374500000,67033.70,67087.10,66720.00,66895.70,2455.953
1772375400000,66895.80,67020.00,66702.90,66804.80,1554.416
1772376300000,66804.80,66959.40,66740.10,66817.50,1028.063
1772377200000,66817.50,67094.20,66797.90,67090.80,1375.880
1772378100000,67090.80,67219.10,66956.40,67038.30,2043.948
1772379000000,67038.30,67197.60,67038.20,67172.00,819.212
1772379900000,67172.00,67218.00,66770.20,66810.80,2163.017
1772380800000,66810.80,66997.10,66651.00,66908.80,2521.211
1772381700000,66908.70,67083.00,66775.00,66992.60,1249.191
1772382600000,66992.70,67036.10,66789.90,66790.30,726.325
1772383500000,66790.40,66806.60,65777.00,66112.20,10385.058
1772384400000,66112.20,66200.00,65945.00,66083.60,2946.096
1772385300000,66083.60,66092.10,65681.30,65997.10,4367.654
1772386200000,65997.10,66106.00,65900.80,65989.00,1090.621
1772387100000,65989.10,66093.20,65893.30,65956.80,2055.503
1772388000000,65956.70,66588.30,65954.20,66358.60,3939.497
1772388900000,66358.50,66656.00,66330.00,66386.50,1647.253
1772389800000,66386.50,66422.00,66209.70,66336.70,1361.074
1772390700000,66336.70,66400.00,66210.90,66288.10,1064.450
1772391600000,66288.00,66325.80,65993.00,66041.10,1713.449
1772392500000,66041.10,66096.60,65921.70,65976.90,1181.989
1772393400000,65977.00,66078.00,65750.00,65793.30,1972.948
1772394300000,65793.30,65978.50,65781.20,65926.00,869.963
1772395200000,65925.90,65932.00,65317.30,65420.40,4328.437
1772396100000,65420.40,65570.00,65266.80,65267.30,2172.470
1772397000000,65267.40,65328.90,65030.30,65211.10,3525.681
1772397900000,65211.20,65370.10,65161.20,65255.70,1470.257
1772398800000,65255.70,65498.90,65242.00,65471.40,1652.718
1772399700000,65471.50,65649.20,65432.20,65556.70,1408.701
1772400600000,65556.70,65663.40,65495.70,65629.20,812.541
1772401500000,65629.20,65726.70,65534.00,65629.30,931.886
1772402400000,65629.20,66888.00,65478.50,65975.30,6365.074
1772403300000,65975.70,66165.60,65728.40,65841.60,3079.497
1772404200000,65841.60,65920.50,65100.80,65370.50,5645.271
1772405100000,65370.60,65384.50,65011.00,65241.00,1749.927
1772406000000,65241.00,66052.60,65092.40,65770.30,5592.699
1772406900000,65770.40,65857.10,65580.80,65609.80,1378.404
1772407800000,65609.70,65850.00,65575.80,65717.40,1365.605
1772408700000,65717.40,65845.90,65629.70,65750.00,722.830
1772409600000,65749.90,66197.40,65726.00,65945.20,2225.257
1772410500000,65945.20,66035.60,65770.10,65906.70,1206.690
1772411400000,65906.60,66586.90,65897.30,66549.20,2134.812
1772412300000,66550.70,66766.00,66415.60,66472.50,3642.815
1772413200000,66472.60,67082.50,66326.70,66898.00,3732.565
1772414100000,66897.90,66973.20,66452.90,66526.00,1796.610
1772415000000,66526.10,66669.50,66502.90,66543.90,836.823
1772415900000,66544.00,66638.00,66380.70,66500.00,1072.850
1772416800000,66500.00,66585.00,65842.50,66061.30,3205.610
1772417700000,66061.50,66224.60,65996.60,66155.30,1517.914
1772418600000,66155.40,66420.00,66121.40,66286.20,1033.673
1772419500000,66286.10,66367.00,66185.90,66242.20,705.009
1772420400000,66242.20,66575.30,66071.00,66452.30,1528.532
1772421300000,66452.20,66849.60,66426.30,66745.20,2016.207
1772422200000,66745.20,67014.90,66674.00,66850.20,1756.113
1772423100000,66850.20,66996.80,66765.20,66787.30,1634.253
1772424000000,66787.30,66812.00,66643.30,66712.50,1466.231
1772424900000,66712.60,66922.10,66627.40,66904.40,1275.312
1772425800000,66904.30,66950.00,66733.80,66787.90,912.445
1772426700000,66787.90,66832.40,66600.10,66825.10,1246.168
1772427600000,66825.20,66869.60,66513.80,66678.40,1383.145
1772428500000,66678.40,66793.80,66557.70,66643.20,555.208
1772429400000,66643.10,66966.00,66627.90,66940.10,874.948
1772430300000,66940.00,66943.80,66641.00,66701.20,1226.722
1772431200000,66701.20,66703.10,66466.60,66571.40,1298.307
1772432100000,66571.40,66605.60,66015.00,66244.00,2809.490
1772433000000,66244.10,66285.00,66150.10,66238.00,969.177
1772433900000,66238.00,66238.10,66022.50,66176.90,1112.259
1772434800000,66176.80,66182.90,65556.90,65661.80,3723.995
1772435700000,65661.90,65833.00,65509.00,65764.60,2414.455
1772436600000,65764.50,65956.40,65750.10,65935.60,1670.254
1772437500000,65935.50,65990.60,65860.30,65981.30,971.444
1772438400000,65981.20,66030.00,65628.70,66028.10,2261.378
1772439300000,66028.10,66086.30,65612.40,65705.70,2298.967
1772440200000,65705.70,65994.60,65693.10,65941.90,1199.539
1772441100000,65942.00,66279.20,65940.50,66247.90,1925.097
1772442000000,66247.90,66470.20,66162.30,66361.60,2677.153
1772442900000,66361.70,66707.50,66349.80,66373.40,2594.673
1772443800000,66373.40,66510.00,66277.50,66356.00,1705.268
1772444700000,66356.00,66356.00,66118.80,66132.30,1508.576
1772445600000,66132.30,66327.00,66039.60,66109.00,1468.137
1772446500000,66109.00,66238.30,66106.10,66226.70,765.583
1772447400000,66226.80,66368.50,66112.70,66250.50,888.675
1772448300000,66250.60,66290.30,66100.00,66284.00,598.242
1772449200000,66284.00,66284.00,66016.00,66061.00,1233.470
1772450100000,66061.00,66219.00,65973.20,66045.90,1800.059
1772451000000,66045.90,66343.80,65973.10,66259.30,1562.086
1772451900000,66259.30,66455.70,66216.70,66329.90,1359.571
1772452800000,66329.80,66369.10,66213.70,66310.00,1043.263
1772453700000,66309.90,66309.90,66046.00,66102.70,839.076
1772454600000,66102.80,66118.00,65919.20,65955.90,1344.431
1772455500000,65955.90,66028.00,65879.60,65927.80,1126.898
1772456400000,65927.70,65978.90,65750.00,65827.70,1538.854
1772457300000,65827.70,66111.90,65717.60,65782.80,2475.028
1772458200000,65782.90,65907.50,65475.80,65561.00,3164.320
1772459100000,65561.10,65615.50,65319.90,65412.30,3162.784
1772460000000,65412.30,65591.50,65234.40,65520.20,3198.702
1772460900000,65520.10,65640.10,65342.20,65551.90,2427.188
1772461800000,65552.00,66650.00,65547.10,66580.60,11458.638
1772462700000,66580.60,67188.00,66448.50,67128.70,10384.748
1772463600000,67128.60,68445.90,66911.20,68399.30,16804.350
1772464500000,68399.30,68777.00,68242.30,68525.30,13880.153
1772465400000,68525.30,69489.00,68375.10,69472.50,15370.416
1772466300000,69472.60,69588.00,68741.10,69089.10,12299.461
1772467200000,69089.10,69738.10,68871.60,69616.00,9212.019
1772468100000,69616.10,69712.80,69206.30,69341.40,5552.895
1772469000000,69341.50,69842.00,69000.00,69824.00,8588.136
1772469900000,69823.90,70100.00,69348.60,69395.60,11082.890
1772470800000,69395.20,69549.20,69224.20,69378.60,3845.145
1772471700000,69378.60,69513.00,69143.50,69371.70,2834.479
1772472600000,69371.70,69412.20,68777.00,68813.40,4358.608
1772473500000,68813.30,69180.00,68757.60,69170.30,3944.046
1772474400000,69170.00,69177.30,68700.10,69170.10,2824.133
1772475300000,69170.10,69174.30,68928.00,69062.40,1784.502
1772476200000,69062.30,69247.10,68900.00,69096.20,2399.139
1772477100000,69096.20,69147.50,68794.80,68853.80,2936.090
1772478000000,68853.80,68912.50,68519.80,68716.90,4382.805
1772478900000,68716.90,68949.40,68705.40,68784.10,1961.497
1772479800000,68784.10,69039.10,68676.30,68742.30,2373.370
1772480700000,68742.30,68976.80,68721.50,68928.40,1208.856
1772481600000,68928.40,69187.80,68529.50,68694.50,4080.018
1772482500000,68694.50,69020.00,68627.10,68903.60,1847.568
1772483400000,68903.60,69174.80,68853.30,69167.00,1871.403
1772484300000,69167.00,69468.40,68984.90,69054.20,3682.192
1772485200000,69054.10,69259.20,68953.90,69234.20,1819.908
1772486100000,69234.20,69388.00,69128.50,69374.80,821.058
1772487000000,69374.80,69416.00,69287.50,69415.90,1027.046
1772487900000,69416.00,69500.00,69336.30,69366.90,1256.272
1772488800000,69366.90,69459.00,69179.40,69205.30,1284.221
1772489700000,69205.20,69349.90,69103.00,69331.50,969.519
1772490600000,69331.60,69408.50,69258.90,69382.10,984.502
1772491500000,69382.00,69420.90,69221.40,69414.20,1189.069
1772492400000,69414.20,69453.80,69177.10,69192.90,1160.017
1772493300000,69193.00,69231.40,68945.10,68971.40,2522.022
1772494200000,68971.50,68981.10,68717.20,68763.40,1860.945
1772495100000,68763.40,68933.40,68700.00,68801.80,1393.585
1772496000000,68801.80,68979.10,68710.70,68780.10,1712.783
1772496900000,68780.10,68850.00,68600.00,68771.10,1208.948
1772497800000,68771.20,69132.20,68647.50,69069.20,1770.808
1772498700000,69069.30,69130.60,68873.40,69051.90,1181.034
1772499600000,69051.80,69221.60,68883.10,69089.20,1097.138
1772500500000,69089.30,69107.00,68838.90,68874.60,1523.650
1772501400000,68874.60,69043.30,68721.00,68993.50,1309.124
1772502300000,68993.40,69023.50,68717.40,68724.60,899.372
1772503200000,68724.50,68744.00,68343.00,68569.90,3074.960
1772504100000,68570.00,68622.20,68142.10,68420.80,4323.757
1772505000000,68420.60,68500.00,68333.50,68425.90,1431.426
1772505900000,68425.90,68599.00,68398.80,68478.10,1171.331
1772506800000,68478.00,68515.20,68293.30,68425.10,1357.053
1772507700000,68425.10,68452.80,68186.40,68387.10,1178.799
1772508600000,68387.10,68516.20,68320.00,68384.20,846.725
1772509500000,68384.20,68400.00,68276.20,68349.30,567.100
1772510400000,68349.40,68425.70,68286.80,68340.80,665.206
1772511300000,68340.90,68381.10,68243.90,68295.20,565.063
1772512200000,68295.10,68361.40,68130.00,68166.80,991.643
1772513100000,68166.80,68183.30,68018.00,68093.00,1917.581
1772514000000,68093.10,68370.70,68001.00,68364.70,1678.068
1772514900000,68364.80,68561.90,68276.70,68375.00,2020.690
1772515800000,68375.00,68380.30,68030.00,68050.10,2101.970
1772516700000,68050.10,68086.60,67801.00,67911.60,3561.755
1772517600000,67911.60,68010.90,67778.00,67931.60,1520.560
1772518500000,67931.50,67968.60,67836.60,67860.60,1234.819
1772519400000,67860.60,67978.40,67820.00,67959.10,1538.754
1772520300000,67959.20,68248.00,67759.60,68070.00,2246.410
1772521200000,68070.00,68130.90,67915.20,68130.90,1345.215
1772522100000,68130.80,68264.20,68039.00,68208.70,1852.624
1772523000000,68208.70,68208.70,68027.70,68184.30,1352.222
1772523900000,68184.40,68228.10,68091.00,68138.30,591.746
1772524800000,68138.20,68281.60,67941.70,67979.90,2105.188
1772525700000,67979.90,68075.30,67666.00,67718.70,3524.710
1772526600000,67718.80,67724.40,67274.40,67310.10,6002.990
1772527500000,67310.10,67328.80,66853.50,66972.70,7149.707
1772528400000,66972.80,67157.00,66833.20,67059.90,5335.378
1772529300000,67059.80,67111.00,66550.00,66599.40,5244.510
1772530200000,66599.40,66685.90,66270.70,66504.00,5757.862
1772531100000,66504.00,66647.70,66367.70,66614.50,2794.064
1772532000000,66614.40,66631.20,66420.00,66462.80,2322.808
1772532900000,66462.90,66680.30,66400.00,66483.70,2260.509
1772533800000,66483.70,66679.70,66422.70,66676.80,1773.296
1772534700000,66676.90,67035.60,66666.00,66826.30,4545.832
1772535600000,66826.40,67055.00,66766.70,66926.70,2390.528
1772536500000,66926.70,66968.00,66729.00,66798.90,1950.931
1772537400000,66798.90,67061.40,66780.20,67040.10,1953.950
1772538300000,67040.00,67134.80,66906.00,67000.00,2470.989
1772539200000,67000.00,68000.00,67000.00,67708.60,7648.885
1772540100000,67708.60,67725.30,67350.00,67546.50,2951.665
1772541000000,67546.50,67556.40,67252.80,67332.60,2422.554
1772541900000,67332.60,67450.00,67223.80,67360.10,1539.556
1772542800000,67360.10,67400.00,66929.60,66941.70,3176.307
1772543700000,66941.70,67169.20,66937.70,67074.50,1656.888
1772544600000,67074.40,67076.80,66810.00,66816.00,2422.299
1772545500000,66816.50,66935.70,66600.50,66893.60,3858.500
1772546400000,66893.70,67238.80,66818.40,67129.30,3533.218
1772547300000,67129.20,67319.90,66972.80,67079.00,2235.215
1772548200000,67078.90,67559.00,66336.20,66428.60,9985.347
1772549100000,66428.70,66789.00,66080.00,66539.90,6854.780
1772550000000,66539.90,66866.00,66463.60,66835.90,3897.849
1772550900000,66836.00,66999.70,66424.10,66791.20,3047.973
1772551800000,66791.20,67830.90,66782.10,67498.10,8461.286
1772552700000,67498.10,67800.00,67452.60,67692.50,4240.705
1772553600000,67692.50,68599.00,67620.00,68437.10,7703.398
1772554500000,68437.10,68972.90,68213.70,68790.70,6677.650
1772555400000,68790.70,68790.70,67440.00,67703.20,9101.227
1772556300000,67703.20,68442.10,67682.20,68137.40,6176.124
1772557200000,68137.40,68195.60,67582.60,67905.30,4622.442
1772558100000,67905.30,68249.90,67840.00,68194.30,2513.282
1772559000000,68193.80,68194.70,67728.00,68108.20,2610.637
1772559900000,68107.90,68377.90,67969.20,68280.50,2525.846
1772560800000,68280.50,68417.20,67934.20,68047.80,2299.612
1772561700000,68047.90,68565.50,68046.30,68428.40,2612.803
1772562600000,68428.40,68885.00,68392.80,68649.90,3127.928
1772563500000,68650.00,68740.20,68488.60,68589.90,1692.224
1772564400000,68590.00,68654.90,68260.00,68575.00,2755.217
1772565300000,68575.10,68845.80,68435.00,68610.00,2258.958
1772566200000,68610.10,68781.40,68301.60,68663.00,3371.203
1772567100000,68662.90,68714.70,68386.00,68395.90,1453.672
1772568000000,68395.90,68470.50,68105.50,68107.20,1627.390
1772568900000,68127.70,68450.00,68106.40,68348.80,1220.467
1772569800000,68348.80,68557.40,68296.20,68432.10,1125.537
1772570700000,68432.20,68456.50,68042.40,68232.90,1570.156
1772571600000,68233.30,68233.30,67800.00,68005.10,2636.515
1772572500000,68005.00,68074.80,67778.40,67903.80,1379.214
1772573400000,67903.80,68014.30,67850.00,67995.90,640.565
1772574300000,67995.90,68062.80,67930.50,67976.50,945.046
1772575200000,67976.50,68485.50,67976.50,68266.40,1853.814
1772576100000,68266.30,68346.50,68125.20,68213.10,707.825
1772577000000,68213.10,68362.90,68133.50,68362.90,777.795
1772577900000,68362.90,68400.00,68164.40,68275.10,488.961
1772578800000,68275.20,68821.50,68206.40,68652.90,2934.009
1772579700000,68653.00,68687.00,68392.30,68450.50,926.362
1772580600000,68450.50,68550.80,68375.10,68419.50,724.242
1772581500000,68419.20,68481.50,68216.40,68295.30,1055.166
1772582400000,68295.20,68295.30,68051.10,68078.40,1262.798
1772583300000,68078.50,68383.40,68075.00,68264.70,1038.598
1772584200000,68264.80,68310.20,67826.00,67930.40,2530.660
1772585100000,67930.30,68224.70,67930.30,68065.80,1179.574
1772586000000,68065.80,68246.10,68015.00,68090.60,2024.266
1772586900000,68090.80,68321.30,67922.40,68212.60,1817.916
1772587800000,68212.60,68887.90,68170.50,68672.70,5093.675
1772588700000,68672.70,68686.80,68315.20,68377.90,2368.733
1772589600000,68384.60,68419.70,68140.00,68196.40,1545.079
1772590500000,68196.30,68274.00,68019.00,68042.70,1372.553
1772591400000,68042.70,68129.40,67950.00,68102.70,1483.831
1772592300000,68102.60,68371.00,68073.60,68286.00,1154.225
1772593200000,68286.00,68328.70,68053.00,68238.60,1811.324
1772594100000,68238.70,68360.20,67920.00,67948.00,1897.845
1772595000000,67947.90,67967.70,67350.00,67544.20,5634.391
1772595900000,67544.20,67731.20,67406.70,67700.10,1477.360
1772596800000,67700.10,67926.90,67522.90,67783.90,2506.827
1772597700000,67783.90,67823.90,67475.70,67559.10,1891.774
1772598600000,67559.00,67672.10,67421.90,67606.10,2031.763
1772599500000,67606.10,67815.60,67566.40,67755.80,1865.202
1772600400000,67755.80,67890.00,67650.00,67887.80,1180.957
1772601300000,67887.90,67933.30,67635.40,67797.40,1431.204
1772602200000,67797.50,68280.70,67696.10,68172.90,2260.415
1772603100000,68172.90,68353.90,68077.60,68173.20,1740.685
1772604000000,68173.20,68200.00,68033.90,68157.10,1639.170
1772604900000,68157.10,68178.60,68001.70,68095.60,1094.633
1772605800000,68095.70,68649.60,68090.50,68638.60,3522.529
1772606700000,68638.50,68650.10,68412.00,68472.20,1905.698
1772607600000,68472.30,68600.00,68342.60,68370.20,1990.706
1772608500000,68370.20,68750.00,68316.00,68741.50,1823.054
1772609400000,68741.60,68988.00,68601.30,68937.90,3245.197
1772610300000,68937.90,69676.40,68844.90,69464.50,9200.981
1772611200000,69464.50,69688.00,69332.60,69393.80,4981.478
1772612100000,69393.70,69393.80,69100.20,69284.80,3399.824
1772613000000,69284.80,69889.00,69264.00,69864.00,5095.767
1772613900000,69864.00,71200.00,69864.00,70993.70,17096.583
1772614800000,70993.70,71287.00,70700.00,71054.30,9582.237
1772615700000,71054.20,71500.00,71041.90,71289.20,7611.021
1772616600000,71289.10,71863.50,71172.40,71731.10,11232.940
1772617500000,71731.10,71887.90,71302.00,71487.10,8062.733
1772618400000,71487.10,71844.00,71379.20,71616.90,5395.824
1772619300000,71616.90,71665.90,71306.50,71490.80,3619.048
1772620200000,71490.70,71518.10,71232.00,71277.70,3079.634
1772621100000,71277.70,71441.60,71155.10,71310.90,4324.412
1772622000000,71310.80,71430.80,71157.50,71393.00,2811.796
1772622900000,71393.10,71468.00,71171.90,71194.00,1682.011
1772623800000,71194.10,71284.20,70893.10,71079.90,4299.289
1772624700000,71079.90,71205.50,70905.20,71082.40,2336.535
1772625600000,71082.30,71125.40,70760.00,70859.20,3018.704
1772626500000,70859.10,70900.00,70589.40,70603.20,3215.537
1772627400000,70603.20,71041.90,70559.70,70943.20,3687.715
1772628300000,70943.20,71340.00,70850.00,71307.80,5053.867
1772629200000,71307.90,71589.80,71240.00,71266.10,3981.145
1772630100000,71266.10,71399.60,71177.70,71327.20,2080.048
1772631000000,71327.00,71533.30,71216.70,71410.00,2283.822
1772631900000,71410.10,71510.50,71287.30,71447.90,1300.831
1772632800000,71448.00,71798.60,71363.00,71763.90,3336.421
1772633700000,71763.80,71986.50,71541.80,71698.50,4655.723
1772634600000,71698.50,72630.00,71353.40,71379.10,21344.573
1772635500000,71379.10,71768.10,71234.60,71580.50,6970.670
1772636400000,71580.40,72200.00,71527.60,71951.00,6713.985
1772637300000,71950.90,72960.00,71929.30,72930.90,9331.031
1772638200000,72931.00,73084.70,72512.10,72654.40,7329.505
1772639100000,72654.60,73436.40,72645.30,73339.70,8314.923
1772640000000,73339.70,73473.00,72700.00,72800.00,7841.257
1772640900000,72800.00,73007.90,72467.20,72920.00,5054.216
1772641800000,72919.90,73260.00,72846.10,73088.00,3816.535
1772642700000,73088.00,73426.80,73025.20,73241.20,2672.839
1772643600000,73241.20,73670.00,73121.70,73492.10,5284.929
1772644500000,73492.10,73702.10,72858.00,73004.40,7225.949
1772645400000,73004.50,73237.40,73004.50,73093.50,3734.243
1772646300000,73093.50,73367.40,73059.40,73174.20,2704.574
1772647200000,73174.30,73382.90,72854.00,72991.90,3379.548
1772648100000,72992.00,73378.40,72975.00,73360.60,1758.574
1772649000000,73360.60,73537.00,73083.40,73472.40,3792.811
1772649900000,73472.40,73686.60,73380.00,73651.40,2718.081
1772650800000,73651.30,74046.50,73522.30,73842.80,8393.047
1772651700000,73842.80,74027.50,73485.60,73529.60,4748.912
1772652600000,73529.60,73831.70,73470.00,73682.60,1987.072
1772653500000,73682.70,73745.80,73532.80,73580.20,1913.421
1772654400000,73580.30,73678.20,73260.00,73391.80,2446.686
1772655300000,73391.80,73565.90,73232.30,73436.00,1420.818
1772656200000,73435.90,73540.90,73278.40,73458.90,1522.918
1772657100000,73458.90,73497.40,72961.80,72971.80,2344.001
1772658000000,72973.30,73118.60,72830.80,73027.10,2700.475
1772658900000,73027.10,73188.40,72922.30,73128.80,1972.796
1772659800000,73128.70,73271.80,73024.70,73199.10,1011.235
1772660700000,73199.10,73290.80,73133.20,73273.50,899.719
1772661600000,73273.60,73495.00,73197.10,73206.00,1513.975
1772662500000,73206.10,73337.30,73154.90,73232.40,962.705
1772663400000,73232.50,73280.40,72781.50,72886.80,1743.790
1772664300000,72886.80,72886.80,72601.20,72678.90,2102.038
1772665200000,72678.90,72799.90,72606.80,72696.30,1636.447
1772666100000,72696.30,72885.10,72402.30,72516.50,2636.311
1772667000000,72516.50,72745.30,72273.00,72725.00,3654.107
1772667900000,72724.90,72800.00,72574.70,72641.40,1296.212
1772668800000,72641.40,72829.10,72511.50,72664.50,1522.119
1772669700000,72664.50,72949.50,72650.60,72791.30,1681.303
1772670600000,72791.30,72971.60,72689.90,72866.90,1163.781
1772671500000,72867.00,72972.80,72671.00,72725.00,1094.106
1772672400000,72725.10,73295.70,72644.00,73084.80,3026.144
1772673300000,73084.90,73197.00,72739.00,72910.10,1863.213
1772674200000,72910.00,72928.10,72541.40,72622.90,1234.176
1772675100000,72622.90,72658.50,72369.30,72507.80,1891.957
1772676000000,72507.80,72832.30,72484.70,72772.60,1603.152
1772676900000,72772.50,72856.30,72622.30,72680.90,722.837
1772677800000,72680.90,72685.30,72300.00,72330.10,1921.789
1772678700000,72330.10,72560.40,72316.80,72468.90,1376.431
1772679600000,72469.00,72718.10,72449.50,72592.90,1587.415
1772680500000,72593.00,72642.40,72451.90,72501.90,838.889
1772681400000,72502.00,72518.30,72305.80,72321.50,1049.812
1772682300000,72321.50,72530.80,72316.20,72469.60,1014.561
1772683200000,72469.50,72689.00,72412.80,72632.60,1211.136
1772684100000,72632.60,72811.00,72539.00,72766.30,1296.015
1772685000000,72766.20,72936.80,72493.00,72892.60,2370.671
1772685900000,72892.70,73060.00,72655.40,72784.00,2178.946
1772686800000,72784.10,72897.90,72683.40,72787.50,702.772
1772687700000,72787.50,72787.60,72417.10,72445.50,1281.634
1772688600000,72445.50,72559.00,72317.00,72374.10,2196.322
1772689500000,72374.20,72482.90,72200.60,72374.90,1530.414
1772690400000,72375.00,72426.40,72000.10,72118.50,3790.765
1772691300000,72118.50,72523.00,72036.00,72373.60,2688.572
1772692200000,72373.60,72497.90,72260.30,72392.50,1321.509
1772693100000,72392.50,72637.80,72362.00,72520.30,1563.830
1772694000000,72520.30,72642.00,72390.70,72614.90,1483.558
1772694900000,72614.90,72650.00,72492.20,72495.30,875.985
1772695800000,72495.30,72495.40,72141.10,72156.00,2220.179
1772696700000,72156.10,72236.10,71740.00,72025.50,5916.779
1772697600000,72025.40,72059.20,71751.60,71800.00,2099.340
1772698500000,71800.00,72029.50,71716.30,71807.20,2005.230
1772699400000,71807.10,72179.50,71766.20,72150.00,1683.996
1772700300000,72150.10,72340.00,72082.30,72307.60,2085.238
1772701200000,72307.60,72777.00,72272.00,72576.60,3297.160
1772702100000,72576.50,72722.00,72450.00,72657.50,2272.771
1772703000000,72657.40,72863.00,72447.80,72532.10,2094.322
1772703900000,72532.10,72592.10,72372.90,72563.20,1316.422
1772704800000,72563.10,72735.70,72480.60,72688.10,1336.447
1772705700000,72688.10,73424.90,72621.20,73122.30,5461.915
1772706600000,73122.40,73493.50,73122.00,73258.40,4112.926
1772707500000,73258.40,73539.10,73200.00,73347.00,2444.943
1772708400000,73346.90,73410.90,73016.40,73162.60,2812.361
1772709300000,73162.60,73164.70,72875.00,73085.50,1810.696
1772710200000,73085.40,73085.50,72745.40,72813.70,1995.657
1772711100000,72813.70,72927.00,72765.90,72879.90,1573.088
1772712000000,72880.00,72997.20,72625.10,72909.50,2413.193
1772712900000,72909.60,72929.80,72666.00,72779.70,1484.521
1772713800000,72779.70,72914.60,72651.50,72861.60,1096.235
1772714700000,72861.70,73032.00,72842.10,72842.20,1513.282
1772715600000,72842.20,72896.80,72545.30,72640.90,2292.293
1772716500000,72640.80,72740.90,72290.70,72494.10,3210.970
1772717400000,72494.10,72519.00,72150.10,72485.60,3104.636
1772718300000,72485.70,72663.20,72360.20,72435.50,3064.974
1772719200000,72435.50,72603.90,72278.10,72574.20,1690.554
1772720100000,72574.30,72590.50,72374.60,72511.20,1133.367
1772721000000,72511.20,72817.00,71900.10,71967.60,8211.565
1772721900000,71967.60,72738.00,71927.60,72574.70,4842.174
1772722800000,72574.70,72741.40,71558.00,71757.10,8847.858
1772723700000,71757.10,71879.20,71223.30,71254.10,7102.219
1772724600000,71254.00,71631.00,71136.20,71425.00,7555.929
1772725500000,71424.90,71760.00,71259.40,71611.70,4628.117
1772726400000,71611.70,71617.70,70753.30,70973.60,11281.013
1772727300000,70973.50,71095.20,70771.50,70953.80,4747.909
1772728200000,70953.90,71620.60,70940.50,71295.10,5812.330
1772729100000,71295.10,71382.30,71168.20,71267.90,1967.998
1772730000000,71267.90,71537.20,70964.00,71135.90,3070.203
1772730900000,71135.90,71168.40,70822.00,70894.90,2461.164
1772731800000,70894.80,70988.00,70682.00,70825.50,3169.243
1772732700000,70825.50,70900.00,70612.80,70668.50,3091.012
1772733600000,70668.50,71020.00,70622.10,70992.60,2824.751
1772734500000,70992.60,71039.10,70743.40,70783.20,1556.703
1772735400000,70783.10,71052.50,70765.50,70914.10,1422.198
1772736300000,70914.10,70993.40,70780.80,70962.80,1205.161
1772737200000,70962.90,71444.80,70952.80,71328.50,3332.138
1772738100000,71328.40,71414.60,71021.20,71073.20,2201.383
1772739000000,71073.20,71141.90,70900.50,70975.80,1700.109
1772739900000,70975.80,71101.30,70836.00,70875.50,1118.970
1772740800000,70875.50,71085.80,70805.90,71068.10,1512.753
1772741700000,71068.20,71322.10,71041.80,71152.90,1645.578
1772742600000,71153.00,71360.90,71089.20,71132.30,1069.048
1772743500000,71132.40,71328.40,71006.10,71206.20,1050.889
1772744400000,71205.80,71322.00,71194.10,71264.90,603.617
1772745300000,71265.00,71511.10,71258.70,71477.60,2065.034
1772746200000,71477.50,71530.40,71063.70,71158.00,1544.347
1772747100000,71157.90,71298.30,70974.50,71099.70,1181.083
1772748000000,71099.60,71222.70,71059.60,71131.80,932.428
1772748900000,71131.80,71257.70,71022.10,71116.90,936.093
1772749800000,71116.90,71340.00,71103.50,71240.50,854.197
1772750700000,71240.50,71313.60,71170.80,71170.90,784.254
1772751600000,71170.90,71248.60,71142.20,71164.90,688.980
1772752500000,71165.00,71268.10,71115.80,71187.10,789.167
1772753400000,71187.20,71194.90,70818.00,70888.80,1360.817
1772754300000,70888.80,70902.90,70737.90,70854.80,1372.539
1772755200000,70854.80,71024.90,70799.40,70987.00,1060.900
1772756100000,70987.00,71010.90,70840.00,70881.20,854.616
1772757000000,70881.20,70972.00,70842.50,70871.50,963.907
1772757900000,70871.40,70974.00,70740.00,70952.50,842.709
1772758800000,70952.50,70990.10,70722.00,70761.30,1934.729
1772759700000,70761.30,70861.40,70339.60,70423.00,3556.005
1772760600000,70423.10,71130.60,70413.80,71120.00,2848.743
1772761500000,71120.10,71257.60,71033.80,71217.00,1963.157
1772762400000,71217.00,71349.90,71121.80,71288.70,1483.547
1772763300000,71288.60,71387.50,70976.80,71295.70,2401.148
1772764200000,71295.70,71317.00,71090.30,71303.50,961.751
1772765100000,71303.50,71330.40,71141.40,71204.10,985.612
1772766000000,71204.00,71253.00,70981.00,71029.70,1014.827
1772766900000,71029.70,71223.00,70955.00,71137.10,901.121
1772767800000,71137.10,71186.90,71021.90,71050.00,795.080
1772768700000,71050.00,71111.20,70983.50,71045.40,712.068
1772769600000,71045.40,71081.50,70862.20,70872.00,1001.824
1772770500000,70872.00,70946.50,70830.70,70841.40,801.332
1772771400000,70841.40,70934.50,70212.10,70487.00,4766.577
1772772300000,70487.20,70590.60,70442.30,70578.10,1473.054
1772773200000,70578.20,70628.70,70350.00,70505.20,1730.232
1772774100000,70505.20,70615.10,70285.70,70359.10,1766.831
1772775000000,70359.10,70464.10,70121.90,70163.30,3198.602
1772775900000,70163.40,70483.10,70100.00,70396.40,2258.570
1772776800000,70396.40,70416.40,70220.90,70269.90,1115.042
1772777700000,70269.90,70490.10,70265.40,70389.10,1096.271
1772778600000,70389.10,70647.30,70342.40,70626.80,1710.903
1772779500000,70626.80,70830.90,70555.00,70565.50,1570.850
1772780400000,70565.50,70776.60,70430.70,70514.60,1626.718
1772781300000,70514.60,70854.60,70510.00,70827.80,1308.857
1772782200000,70827.80,71046.30,70827.80,71033.60,2324.423
1772783100000,71033.60,71168.00,71002.10,71026.70,1861.898
1772784000000,71026.70,71035.30,70853.00,70902.40,2003.550
1772784900000,70902.50,70960.60,70791.40,70895.90,883.243
1772785800000,70895.80,70998.00,70833.40,70882.10,1293.440
1772786700000,70882.00,70919.30,70696.40,70750.20,1360.068
1772787600000,70750.20,70789.90,70475.00,70540.00,1599.120
1772788500000,70540.00,70581.80,70320.70,70375.50,2032.149
1772789400000,70375.50,70520.20,70254.50,70510.80,1987.747
1772790300000,70510.80,70590.00,70408.00,70521.40,1597.314
1772791200000,70521.30,70688.50,70482.10,70650.00,1274.291
1772792100000,70650.00,70768.20,70602.40,70741.90,1502.608
1772793000000,70741.80,70755.40,70468.30,70531.90,1836.032
1772793900000,70531.80,70593.80,70430.20,70506.80,1242.668
1772794800000,70506.80,70587.90,70389.50,70525.50,1599.168
1772795700000,70525.40,70549.90,70476.50,70523.70,572.964
1772796600000,70523.80,70621.00,70327.00,70351.80,1656.345
1772797500000,70351.70,70360.20,70164.90,70185.60,2628.259
1772798400000,70185.60,70200.70,69752.10,69900.00,6599.692
1772799300000,69900.00,70170.80,69894.00,69979.90,2901.852
1772800200000,69979.80,70023.70,69666.00,69721.50,3426.554
1772801100000,69721.40,70068.90,69617.00,69895.20,3203.147
1772802000000,69895.20,70020.10,69872.70,69969.30,1394.745
1772802900000,69969.30,70236.60,69801.60,70027.90,2855.404
1772803800000,70027.80,70328.50,69753.10,70056.00,6533.602
1772804700000,70056.00,70056.00,69179.40,69189.60,8650.973
1772805600000,69189.60,69241.10,68600.10,68788.30,12986.107
1772806500000,68788.30,69054.00,68683.40,68944.40,4696.558
1772807400000,68944.40,69054.00,68353.10,68703.00,7934.716
1772808300000,68703.00,68860.00,68121.60,68367.60,7105.448
1772809200000,68367.70,68632.20,68277.50,68593.90,5144.987
1772810100000,68593.90,68986.90,68530.00,68850.00,4579.546
1772811000000,68849.90,69079.60,68660.00,68707.20,3177.943
1772811900000,68707.30,68722.00,68258.80,68468.40,3541.338
1772812800000,68468.30,68759.50,68240.70,68303.60,2939.224
1772813700000,68303.70,68531.30,68186.00,68504.20,2714.068
1772814600000,68504.20,68642.40,68301.30,68555.20,1836.167
1772815500000,68555.30,68677.40,68304.60,68410.20,1985.197
1772816400000,68410.20,68611.40,68360.00,68370.60,1455.643
1772817300000,68370.70,68553.90,68160.60,68221.10,2668.087
1772818200000,68221.20,68269.30,67712.30,67809.60,7350.322
1772819100000,67809.50,68032.80,67793.00,67930.70,2328.511
1772820000000,67930.60,68351.00,67921.50,68292.50,2270.361
1772820900000,68292.60,68397.80,68222.00,68254.20,1902.898
1772821800000,68254.10,68444.00,68235.50,68402.10,1159.960
1772822700000,68402.20,68439.80,68087.00,68144.00,1826.699
1772823600000,68143.90,68412.00,68143.90,68405.20,933.592
1772824500000,68405.10,68450.00,68103.70,68190.30,1333.927
1772825400000,68190.40,68280.00,68102.10,68111.50,933.300
1772826300000,68111.50,68135.50,67967.20,68101.00,1262.511
1772827200000,68100.90,68259.00,67951.90,67986.00,1239.286
1772828100000,67985.90,68113.60,67731.00,67807.90,2312.203
