timestamp,open,high,low,close,volume
1703304000000,43543.20,43670.00,43304.20,43582.00,25017.737
1703318400000,43582.10,43709.90,43513.40,43583.00,15905.084
1703332800000,43583.00,43899.80,43575.70,43782.00,21835.284
1703347200000,43782.00,43880.10,43720.00,43729.10,14370.201
1703361600000,43729.20,43864.70,43656.80,43725.20,11793.852
1703376000000,43725.20,43952.30,43625.10,43867.80,19796.067
1703390400000,43867.80,43994.80,43454.10,43678.60,28290.374
1703404800000,43678.70,43733.00,43421.00,43666.60,19354.803
1703419200000,43666.60,43908.30,43582.90,43707.00,23794.381
1703433600000,43707.10,43750.60,43568.30,43645.30,16277.893
1703448000000,43645.40,43652.20,42550.00,43008.40,72453.733
1703462400000,43008.40,43188.50,42755.40,43182.50,29688.549
1703476800000,43182.60,43360.40,43121.80,43233.20,17527.765
1703491200000,43233.30,43320.00,43083.20,43200.30,20002.961
1703505600000,43200.40,43850.00,43118.30,43661.00,61760.169
1703520000000,43661.00,43761.90,43383.20,43515.80,31664.127
1703534400000,43515.70,43772.10,43354.30,43611.90,23566.703
1703548800000,43611.90,43635.10,43400.00,43487.90,16834.268
1703563200000,43488.00,43509.90,42552.30,42798.70,74677.204
1703577600000,42798.70,42830.90,42109.00,42719.90,52503.851
1703592000000,42720.00,42870.00,42253.70,42423.10,38842.982
1703606400000,42423.10,42470.60,41597.00,42149.20,89933.420
1703620800000,42149.20,42630.40,42086.90,42538.50,22791.953
1703635200000,42538.60,42580.00,42145.70,42274.70,25627.172
1703649600000,42274.70,42595.50,42248.50,42495.90,20023.850
1703664000000,42496.00,43277.10,42443.00,43059.30,61784.091
1703678400000,43059.30,43191.10,42726.60,43009.60,59036.748
1703692800000,43010.00,43264.00,42890.30,43183.90,37903.282
1703707200000,43183.80,43700.00,43146.20,43453.80,46976.395
1703721600000,43453.80,43850.00,43333.10,43444.80,40639.668
1703736000000,43444.80,43669.40,42821.00,43087.20,46971.692
1703750400000,43087.30,43233.00,42900.00,43112.10,26016.438
1703764800000,43112.00,43181.10,42439.60,42485.80,74384.216
1703779200000,42485.90,42783.00,42320.50,42655.90,41372.033
1703793600000,42656.00,42788.70,42369.70,42600.10,28131.135
1703808000000,42600.10,42839.10,42123.10,42738.10,55055.074
1703822400000,42738.20,42812.90,42253.20,42314.50,32071.961
1703836800000,42314.50,42996.30,42306.80,42908.90,40511.048
1703851200000,42908.80,43171.90,42160.00,42301.60,68202.711
1703865600000,42301.60,42389.00,41680.00,42152.80,87706.129
1703880000000,42152.90,42288.30,41283.20,42095.10,53874.942
1703894400000,42095.10,42250.00,41854.40,42014.70,23528.273
1703908800000,42014.70,42205.20,41960.00,41987.10,16563.477
1703923200000,41987.10,42032.70,41550.00,41933.60,40727.124
1703937600000,41933.60,42473.40,41915.10,42410.30,42746.745
1703952000000,42410.40,42654.60,42278.70,42395.00,41015.216
1703966400000,42395.00,42431.90,42106.50,42174.20,19309.835
1703980800000,42174.30,42478.90,42001.00,42209.40,24649.414
1703995200000,42209.40,42729.20,42189.90,42567.00,27687.399
1704009600000,42567.00,42951.00,42400.20,42561.80,37644.346
1704024000000,42561.80,42694.00,42381.00,42489.60,29877.289
1704038400000,42489.60,42766.70,42465.40,42659.90,21496.084
1704052800000,42659.90,42724.50,42083.10,42314.00,32153.757
1704067200000,42314.00,42832.00,42270.00,42369.80,30275.835
1704081600000,42369.80,42536.00,42207.90,42527.00,18884.162
1704096000000,42527.10,42800.00,42489.40,42727.60,21225.402
1704110400000,42727.70,42887.50,42614.50,42818.00,23160.827
1704124800000,42818.00,43593.20,42693.10,43556.20,46470.443
1704139200000,43556.20,44266.00,43426.00,44230.20,66407.475
1704153600000,44230.30,45565.00,44200.90,45435.00,130549.341
1704168000000,45434.90,45832.80,45153.00,45495.50,46617.839
1704182400000,45495.60,45950.00,45258.00,45486.80,73125.619
1704196800000,45486.80,45850.00,44868.10,45215.00,98947.373
1704211200000,45215.00,45449.20,44783.30,45073.20,59665.882
1704225600000,45073.30,45338.90,44598.00,44979.80,50892.469
1704240000000,44979.70,45463.50,44895.80,45297.80,27249.852
1704254400000,45297.80,45423.00,44960.00,45030.40,27047.436
1704268800000,45030.50,45582.30,43500.00,43728.90,118206.260
1704283200000,43728.90,43738.80,40333.00,43014.00,269274.008
1704297600000,43014.00,43595.90,41920.00,42600.40,121646.733
1704312000000,42600.40,42974.50,42517.60,42849.50,32430.936
1704326400000,42849.50,43236.00,42625.00,43119.60,32954.430
1704340800000,43119.60,43290.00,42765.00,42775.00,34097.989
1704355200000,42775.10,43255.00,42645.10,43188.20,41353.248
1704369600000,43188.20,44343.10,43107.40,44050.40,89531.705
1704384000000,44050.40,44437.50,43773.40,43950.00,67286.547
1704398400000,43950.00,44840.80,43887.20,44143.80,68699.179
1704412800000,44143.80,44284.00,42300.00,43469.10,92493.981
1704427200000,43469.50,43951.70,43193.50,43769.60,36820.465
1704441600000,43769.60,44332.40,43459.00,43769.90,53933.111
1704456000000,43769.90,44119.10,43000.00,43495.20,82365.927
1704470400000,43495.10,43825.20,43090.00,43599.00,50576.810
1704484800000,43599.00,44500.00,43559.00,44145.40,58777.497
1704499200000,44145.30,44214.60,43809.50,43925.80,22344.039
1704513600000,43925.80,43972.00,43391.30,43645.30,32223.565
1704528000000,43645.40,43777.50,43550.00,43669.20,18571.596
1704542400000,43669.20,43925.00,43527.20,43863.60,21680.915
1704556800000,43863.60,44149.90,43817.40,43903.60,23415.539
1704571200000,43903.60,43980.00,43645.00,43956.70,20307.143
1704585600000,43956.60,44267.90,43824.20,43937.20,25504.202
1704600000000,43937.10,44099.60,43830.00,44071.50,16798.655
1704614400000,44071.60,44161.50,43862.80,44054.00,21062.951
1704628800000,44054.00,44486.90,43922.70,44035.00,49020.753
1704643200000,44034.90,44262.30,43686.90,44238.80,32162.368
1704657600000,44238.80,44262.90,43557.50,43916.90,36161.785
1704672000000,43916.90,43975.00,43158.10,43501.90,49205.414
1704686400000,43502.00,44431.10,43417.80,43970.00,52687.145
1704700800000,43969.90,44748.50,43629.70,44637.20,48551.307
1704715200000,44637.20,45440.00,44350.00,44969.60,124466.243
1704729600000,44969.70,47312.00,44783.80,47006.70,168436.314
1704744000000,47007.10,47240.30,46666.10,46972.70,51741.560
1704758400000,46972.60,47173.50,46253.70,46932.80,62275.549
1704772800000,46932.70,46950.30,46600.20,46841.00,25566.034
1704787200000,46841.00,46891.30,46372.00,46624.40,37564.557
1704801600000,46624.40,47100.00,45400.00,46868.80,127284.890
1704816000000,46868.90,46977.00,46500.00,46873.50,42262.943
1704830400000,46873.50,48100.00,44417.20,46114.00,218408.800
1704844800000,46113.90,46252.50,45629.60,46133.60,36681.322
1704859200000,46133.50,46200.00,45728.90,45766.40,21755.225
1704873600000,45766.30,45876.70,44800.00,45530.20,54054.765
1704888000000,45530.10,45680.00,44291.50,45569.00,149727.617
1704902400000,45569.40,46768.00,45189.40,46498.90,130065.437
1704916800000,46498.80,47699.30,44720.00,46662.90,276373.108
1704931200000,46663.00,46758.00,46146.50,46502.40,40763.102
1704945600000,46502.30,46511.40,45610.10,46096.10,42163.348
1704960000000,46096.10,47171.00,46051.60,47068.50,50256.742
1704974400000,47068.50,49027.50,46488.10,46813.40,278574.629
1704988800000,46813.40,47065.80,45600.00,46698.40,136031.851
1705003200000,46698.40,46973.80,46080.60,46337.80,48908.707
1705017600000,46337.90,46536.20,45900.90,45997.00,37819.707
1705032000000,45997.30,46380.00,45714.20,46002.60,35158.293
1705046400000,46002.60,46280.00,45527.50,45958.00,47922.902
1705060800000,45958.00,46120.00,44360.80,44495.10,122262.686
1705075200000,44495.10,44719.70,43221.10,43497.50,179066.407
1705089600000,43497.40,44000.00,41370.00,42788.90,153713.263
1705104000000,42789.00,42997.00,42445.70,42625.60,39049.139
1705118400000,42625.60,43265.10,42565.90,43102.10,33842.417
1705132800000,43102.10,43255.00,42513.00,42631.90,42897.598
1705147200000,42631.80,43273.40,42509.80,43159.70,44715.766
1705161600000,43159.90,43193.90,42711.50,42791.10,31207.956
1705176000000,42791.10,43067.70,42703.20,42846.40,16024.450
1705190400000,42846.40,42896.90,42651.00,42691.20,17785.043
1705204800000,42691.10,43064.40,42553.00,43012.80,20194.264
1705219200000,43012.80,43096.10,42759.20,42836.80,18481.558
1705233600000,42836.70,43014.30,42710.30,42908.40,18436.804
1705248000000,42908.40,43019.10,42633.20,42665.80,23087.661
1705262400000,42665.80,42755.00,41713.50,41734.90,83111.638
1705276800000,41734.90,42650.00,41720.00,42571.80,36398.917
1705291200000,42572.80,42829.80,42501.60,42713.10,25795.373
1705305600000,42713.10,42784.30,42535.80,42699.90,21197.177
1705320000000,42700.00,42969.00,42156.00,42278.70,57163.469
1705334400000,42278.70,43376.00,42249.10,42989.60,65313.134
1705348800000,42989.60,43114.70,42341.30,42515.00,34191.071
1705363200000,42515.00,42942.00,42466.10,42919.50,22087.986
1705377600000,42919.30,42945.00,42600.50,42788.10,20030.646
1705392000000,42788.50,43164.90,42718.80,42894.90,32133.083
1705406400000,42894.60,43333.00,42050.00,43251.70,121732.820
1705420800000,43251.00,43450.00,42825.50,43164.80,50349.539
1705435200000,43164.80,43589.00,43061.70,43133.00,40873.159
1705449600000,43133.00,43198.00,42838.80,42842.10,20601.204
1705464000000,42842.00,42933.00,42616.00,42654.00,24548.960
1705478400000,42654.00,42855.80,42555.80,42681.00,25131.297
1705492800000,42681.00,42934.90,42355.50,42478.30,68850.505
1705507200000,42478.20,42757.60,42200.00,42617.50,40872.097
1705521600000,42617.60,42869.30,42444.00,42783.40,29392.018
1705536000000,42783.30,42797.00,42515.00,42594.00,15331.957
1705550400000,42594.00,42930.10,42590.00,42918.30,19685.656
1705564800000,42918.30,42932.30,42382.50,42540.00,33804.674
1705579200000,42540.10,42821.40,42351.00,42618.90,41921.482
1705593600000,42619.00,42619.00,40805.20,41014.20,151310.930
1705608000000,41014.20,41366.40,40673.60,41323.10,73026.057
1705622400000,41323.20,41372.00,40739.60,41049.80,36295.221
1705636800000,41049.80,41578.30,41031.30,41282.00,31853.198
1705651200000,41281.90,41518.40,41132.50,41471.70,27935.207
1705665600000,41471.70,41493.00,40718.50,40897.00,67750.170
1705680000000,40897.10,42000.00,40300.00,41818.50,138416.879
1705694400000,41818.60,42197.00,41530.10,41662.20,43691.055
1705708800000,41662.10,41712.00,41458.50,41638.00,18155.851
1705723200000,41638.10,41781.40,41566.30,41652.40,12915.098
1705737600000,41652.40,41672.70,41453.60,41583.60,21012.587
1705752000000,41583.50,41706.50,41480.00,41570.30,18279.360
1705766400000,41570.20,41685.00,41522.00,41638.40,10616.752
1705780800000,41638.40,41883.50,41615.00,41691.80,14886.414
1705795200000,41691.80,41735.00,41624.60,41677.40,7680.812
1705809600000,41677.40,41699.90,41544.00,41648.60,6744.413
1705824000000,41648.50,41826.50,41648.50,41720.90,11294.961
1705838400000,41720.80,41880.90,41600.00,41652.80,17377.056
1705852800000,41652.70,41733.00,41516.00,41721.20,11626.497
1705867200000,41721.20,41820.00,41500.00,41580.00,12311.813
1705881600000,41579.90,41692.30,41050.50,41199.60,40969.062
1705896000000,41199.50,41334.90,40666.00,41042.60,51245.971
1705910400000,41042.70,41050.00,40353.70,40809.40,68960.918
1705924800000,40809.50,41253.70,40333.00,40774.70,82368.763
1705939200000,40775.00,40880.10,39402.00,39812.50,137033.009
1705953600000,39812.60,40360.00,39450.00,39567.00,78446.383
1705968000000,39567.10,40121.20,39508.00,40000.10,32689.795
1705982400000,40000.10,40172.70,39656.80,39773.90,25079.661
1705996800000,39773.90,39862.90,38652.30,38850.10,124825.562
1706011200000,38850.20,39479.20,38545.00,39197.40,104576.943
1706025600000,39197.50,39654.20,38925.60,39140.10,79917.657
1706040000000,39140.10,39898.00,39031.30,39890.00,47283.768
1706054400000,39889.90,40247.00,39563.80,39611.20,49456.120
1706068800000,39611.30,40179.70,39550.00,39979.40,31974.054
1706083200000,39979.50,40560.60,39844.70,40195.20,48695.143
1706097600000,40195.10,40287.80,39754.40,40046.70,62130.902
1706112000000,40046.70,40208.40,39602.00,39797.40,43289.491
1706126400000,39797.40,40171.30,39493.30,40078.70,37208.461
1706140800000,40078.80,40170.00,39901.00,40002.80,20040.925
1706155200000,40002.80,40131.90,39778.30,40119.60,21098.349
1706169600000,40119.60,40300.00,39950.00,40165.50,34021.643
1706184000000,40165.50,40280.00,39605.00,39793.60,57869.103
1706198400000,39793.60,40053.60,39535.30,39982.90,48224.544
1706212800000,39982.90,39987.20,39630.00,39953.30,22474.115
1706227200000,39953.30,40250.00,39813.10,40057.00,24692.913
1706241600000,40057.10,40216.70,39880.90,39956.00,19746.788
1706256000000,39956.00,41350.00,39944.70,41272.00,103031.994
1706270400000,41271.90,41587.30,40890.00,41399.80,86189.487
1706284800000,41399.80,42187.10,41383.80,42046.00,85294.135
1706299200000,42046.10,42239.30,41779.20,41806.40,36463.161
1706313600000,41806.40,41924.00,41681.80,41805.20,16504.250
1706328000000,41805.10,41880.50,41594.00,41699.10,17412.384
1706342400000,41699.00,41786.00,41360.10,41744.70,32118.828
1706356800000,41744.70,41880.00,41689.30,41797.40,15054.687
1706371200000,41797.50,41977.00,41727.00,41896.40,16407.782
1706385600000,41896.50,42187.10,41896.40,42102.20,20939.183
1706400000000,42102.20,42236.90,41908.20,42210.00,22234.237
1706414400000,42210.10,42836.00,42204.00,42369.90,58552.846
1706428800000,42370.00,42688.00,42301.10,42456.60,30902.798
1706443200000,42456.50,42525.00,42130.00,42244.50,30369.168
1706457600000,42244.50,42340.00,41700.00,41770.60,35068.296
1706472000000,41770.60,42067.50,41600.00,42021.20,28609.108
1706486400000,42021.20,42493.00,41865.40,42306.40,30700.241
1706500800000,42306.50,42326.90,41966.20,42040.00,21337.912
1706515200000,42040.00,42368.70,41932.90,42233.30,27133.608
1706529600000,42233.20,42636.00,41768.30,42623.20,57176.087
1706544000000,42623.10,43298.00,42495.70,42986.70,90725.291
1706558400000,42986.80,43340.80,42966.50,43287.70,22428.971
1706572800000,43287.60,43798.20,43111.30,43502.90,48884.945
1706587200000,43502.80,43554.10,43238.00,43346.60,21202.780
1706601600000,43346.70,43548.00,43200.40,43513.40,23711.395
1706616000000,43513.30,43888.00,43092.00,43355.50,80242.404
1706630400000,43355.40,43584.10,43197.70,43525.10,34144.187
1706644800000,43525.10,43750.00,42665.60,42918.30,49397.073
1706659200000,42918.30,43090.00,42634.30,42918.00,33334.684
1706673600000,42918.10,43075.70,42854.70,43031.60,16041.567
1706688000000,43031.50,43077.00,42341.00,42630.20,46489.446
1706702400000,42630.20,43460.00,42503.30,43341.80,75301.219
1706716800000,43341.90,43748.60,43022.30,43316.40,71465.065
1706731200000,43316.30,43348.90,42257.60,42560.50,70437.129
1706745600000,42560.50,42674.90,41866.80,41998.00,51692.193
1706760000000,41998.00,42292.10,41877.00,42182.20,25471.968
1706774400000,42182.30,42323.60,42028.80,42075.90,23431.070
1706788800000,42075.80,42936.60,41926.30,42500.10,75085.797
1706803200000,42500.00,43288.00,42350.00,43206.30,70649.680
1706817600000,43206.30,43278.40,42856.10,43072.60,27990.399
1706832000000,43072.60,43430.00,43005.60,43018.10,26305.244
1706846400000,43018.00,43262.90,42926.40,43076.00,20847.054
1706860800000,43076.00,43191.00,42923.10,43136.80,20151.439
1706875200000,43136.90,43250.00,42512.70,43222.90,72050.288
1706889600000,43222.90,43480.00,42756.10,43044.10,50790.883
1706904000000,43044.20,43221.00,42877.00,43182.00,15622.666
1706918400000,43182.00,43372.20,43119.20,43155.30,17970.113
1706932800000,43155.30,43207.00,43017.00,43037.10,10385.215
1706947200000,43037.10,43110.30,42950.60,42978.00,13257.767
1706961600000,42977.90,43181.30,42858.30,43097.40,18618.511
1706976000000,43097.50,43264.30,43000.00,43046.80,20172.048
1706990400000,43046.80,43088.00,42925.90,42992.40,9331.566
1707004800000,42992.40,43055.00,42871.50,43015.70,9837.114
1707019200000,43015.70,43018.70,42702.40,42822.90,18170.104
1707033600000,42822.80,43112.10,42721.80,43041.60,18845.925
1707048000000,43041.60,43104.90,42820.10,42926.70,18482.552
1707062400000,42926.70,42960.00,42550.00,42623.90,23294.154
1707076800000,42623.90,42977.20,42176.70,42570.30,38791.699
1707091200000,42570.30,42722.00,42235.10,42708.00,27676.486
1707105600000,42707.90,43168.40,42622.80,43059.00,34225.188
1707120000000,43058.90,43264.20,42936.00,43180.80,30502.017
1707134400000,43180.80,43580.00,42580.00,42629.70,72798.166
1707148800000,42629.70,42873.20,42470.20,42757.40,40062.466
1707163200000,42757.40,42789.10,42311.20,42692.90,35391.226
1707177600000,42692.90,42941.10,42559.80,42829.80,24494.620
1707192000000,42829.90,42911.00,42634.10,42870.00,18799.089
1707206400000,42870.00,43110.00,42650.70,42814.30,44085.411
1707220800000,42814.30,43266.40,42631.00,43232.00,49858.046
1707235200000,43232.00,43378.80,42980.80,43261.70,39099.122
1707249600000,43261.70,43312.30,43000.20,43079.10,19821.355
1707264000000,43079.10,43179.60,42763.40,42783.00,20587.882
1707278400000,42783.10,43035.70,42775.00,42904.80,17271.048
1707292800000,42904.90,43191.20,42813.60,42917.40,26488.098
1707307200000,42917.30,43314.90,42864.80,43057.80,44451.179
1707321600000,43057.70,43708.20,42992.20,43596.10,65950.629
1707336000000,43596.20,44388.00,43596.10,44326.20,77308.872
1707350400000,44326.30,44795.10,44306.80,44523.60,57010.272
1707364800000,44523.50,44618.80,44405.00,44500.80,18349.140
1707379200000,44500.80,44884.30,44496.50,44677.90,40028.987
1707393600000,44677.90,45450.00,44580.40,45406.30,91951.672
1707408000000,45406.40,45488.00,44878.00,45260.10,56549.404
1707422400000,45260.20,45600.00,45200.00,45269.10,35848.813
1707436800000,45269.20,46444.00,45218.10,46046.50,72986.429
1707451200000,46046.50,46424.40,45830.10,46185.10,44347.500
1707465600000,46185.10,47290.00,46183.40,47155.90,92742.899
1707480000000,47155.90,47699.50,46638.60,47136.90,162167.146
1707494400000,47137.00,48230.30,47110.30,47486.20,110312.265
1707508800000,47486.30,47671.70,47020.10,47116.10,37363.180
1707523200000,47116.10,47489.90,47025.60,47366.90,24916.310
1707537600000,47366.90,47418.30,47125.00,47130.50,14281.105
1707552000000,47130.60,47258.30,46836.40,47172.80,34605.176
1707566400000,47172.70,47377.00,47083.80,47332.00,24261.183
1707580800000,47331.90,47650.00,47139.00,47511.20,26043.207
1707595200000,47511.30,48189.60,47436.90,47732.60,55519.623
1707609600000,47732.60,48571.40,47539.40,48517.10,49007.905
1707624000000,48517.60,48600.00,48048.20,48169.60,36963.858
1707638400000,48169.50,48439.50,47912.10,48403.70,29479.277
1707652800000,48403.70,48469.30,47914.10,48140.80,37614.010
1707667200000,48140.70,48401.10,47938.00,48282.40,30963.158
1707681600000,48282.30,48379.90,47961.00,48303.40,25923.418
1707696000000,48303.40,48846.00,48001.00,48138.60,52738.429
1707710400000,48138.70,48389.60,47702.00,48213.00,35030.414
1707724800000,48213.00,48323.10,47711.00,47906.00,37963.976
1707739200000,47905.90,49965.30,47841.60,49925.40,141835.936
1707753600000,49925.50,50413.20,49411.60,49545.90,135900.154
1707768000000,49545.90,50293.90,49545.80,49943.60,47426.293
1707782400000,49943.60,50428.80,49754.40,49813.80,40575.467
1707796800000,49813.90,50143.60,49810.00,50019.90,23299.694
1707811200000,50019.80,50290.00,49651.00,50004.00,47417.718
1707825600000,50003.90,50009.30,48356.00,48753.10,162559.433
1707840000000,48753.20,49279.30,48301.00,49044.90,68146.465
1707854400000,49045.00,49783.50,49016.20,49696.40,40349.308
1707868800000,49696.40,49717.30,49320.90,49524.40,20833.112
1707883200000,49524.50,49900.00,49215.70,49845.00,29061.916
1707897600000,49844.90,51829.10,49742.40,51601.20,146804.756
1707912000000,51601.10,52100.00,51302.00,51616.40,113215.908
1707926400000,51616.50,51777.00,51217.70,51707.50,56012.926
1707940800000,51707.50,51924.70,51483.00,51823.20,29263.173
1707955200000,51823.10,52568.30,51732.60,52379.90,75753.234
1707969600000,52379.90,52400.10,51651.00,51802.40,40228.865
1707984000000,51802.50,52549.50,51666.00,52359.10,46926.241
1707998400000,52359.00,52859.00,51750.00,51968.70,116996.891
1708012800000,51968.60,52419.10,51658.00,52022.00,62622.289
1708027200000,52022.10,52035.30,51334.90,51898.50,50197.083
1708041600000,51898.40,52376.10,51824.50,52309.90,31836.617
1708056000000,52309.80,52372.60,51758.00,51786.40,29981.292
1708070400000,51786.40,52470.60,51611.70,52241.10,50737.158
1708084800000,52241.20,52623.00,51623.20,51909.30,87726.020
1708099200000,51909.20,52284.30,51665.40,51780.20,40535.044
1708113600000,51780.20,52245.10,51697.30,52148.60,19003.662
1708128000000,52148.70,52192.80,51870.00,51993.60,12597.447
1708142400000,51993.60,52093.20,51811.00,51933.90,11156.397
1708156800000,51933.90,51934.00,51521.40,51723.70,35256.919
1708171200000,51723.70,51777.00,50647.50,51013.40,93063.831
1708185600000,51013.40,51482.40,50770.80,51428.80,32817.244
1708200000000,51428.20,52109.00,51331.00,51679.40,37450.167
1708214400000,51679.50,51841.40,51178.00,51518.00,27895.491
1708228800000,51518.00,51785.20,51435.10,51703.70,21066.913
1708243200000,51703.70,52107.30,51677.50,51861.10,28696.465
1708257600000,51861.10,51985.90,51563.30,51808.90,27165.839
1708272000000,51809.00,52013.50,51670.10,51791.50,20771.590
1708286400000,51791.60,52450.00,51616.50,52175.90,41040.128
1708300800000,52175.90,52490.00,51933.10,52104.00,25668.051
1708315200000,52104.00,52532.90,52023.40,52423.90,30265.979
1708329600000,52424.00,52495.00,52088.70,52375.90,30014.308
1708344000000,52375.90,52509.10,52051.00,52157.50,37244.590
1708358400000,52157.50,52270.00,51688.80,51851.60,49343.040
1708372800000,51851.60,52148.60,51722.00,51813.80,23852.010
1708387200000,51813.70,51872.20,51330.50,51608.90,35595.672
1708401600000,51608.80,52077.00,51533.10,51869.20,24747.893
1708416000000,51869.20,52443.70,51584.90,52325.80,54336.122
1708430400000,52325.90,53090.90,51367.60,51712.70,151276.089
1708444800000,51712.70,52166.20,50788.00,52131.30,82490.556
1708459200000,52131.20,52561.80,51918.00,52297.40,40466.732
1708473600000,52297.30,52402.30,52021.00,52042.50,18699.387
1708488000000,52042.40,52155.10,51510.00,51599.90,35816.397
1708502400000,51599.90,51835.60,50826.20,50988.10,71637.392
1708516800000,50988.20,51468.00,50528.40,51183.70,85217.852
1708531200000,51183.60,51459.50,50663.00,51082.00,52037.079
1708545600000,51081.90,51991.20,50884.30,51877.80,44719.194
1708560000000,51877.90,51911.60,51176.80,51612.10,31802.892
1708574400000,51612.10,51949.10,51376.70,51860.60,29514.518
1708588800000,51860.60,52078.00,51555.70,51659.20,38151.534
1708603200000,51659.10,51766.00,50967.50,51630.00,65259.700
1708617600000,51630.00,51785.80,51424.00,51547.00,29668.492
1708632000000,51546.90,52130.80,51203.70,51316.90,49747.511
1708646400000,51316.90,51576.30,50989.90,51129.70,28843.394
1708660800000,51129.80,51352.60,50900.20,50952.30,26692.668
1708675200000,50952.30,51300.00,50862.30,51254.10,33220.181
1708689600000,51254.10,51372.30,50804.40,50938.10,57952.033
1708704000000,50938.20,51228.60,50652.90,51131.00,40579.172
1708718400000,51130.90,51187.60,50512.70,50771.90,28187.114
1708732800000,50771.90,50934.90,50611.40,50878.20,19923.319
1708747200000,50878.20,51133.30,50856.10,51099.80,15404.691
1708761600000,51099.80,51195.00,50965.00,51151.90,11282.592
1708776000000,51151.80,51204.20,51053.30,51124.60,10274.880
1708790400000,51124.70,51736.60,51117.10,51590.00,35543.963
1708804800000,51589.90,51712.50,51474.40,51602.10,12515.012
1708819200000,51602.10,51949.80,51465.50,51654.20,23934.575
1708833600000,51654.10,51853.20,51530.30,51756.80,13597.975
1708848000000,51756.90,51817.00,51550.00,51672.30,13141.489
1708862400000,51672.30,51828.40,51465.00,51547.80,20815.578
1708876800000,51547.90,51780.00,51300.40,51708.00,24842.382
1708891200000,51707.90,52050.00,51681.30,51764.90,25845.261
1708905600000,51764.90,51846.10,51431.00,51596.10,17085.810
1708920000000,51596.10,51645.00,51320.00,51327.50,13813.271
1708934400000,51327.50,51429.10,50922.50,51126.40,38647.704
1708948800000,51126.30,52885.50,50990.00,52872.30,99983.070
1708963200000,52872.20,54599.90,52777.20,54531.30,155069.110
1708977600000,54531.20,54991.80,54321.00,54511.60,68867.266
1708992000000,54511.70,57780.00,54495.00,55774.30,144626.561
1709006400000,55773.10,56497.00,55655.00,56100.00,56194.932
1709020800000,56100.10,56879.90,56075.60,56581.40,49250.279
1709035200000,56581.40,57494.30,56501.90,56775.00,134488.874
1709049600000,56775.10,57679.50,56231.00,57390.70,85549.812
1709064000000,57390.70,57415.40,56625.30,57074.50,41365.077
1709078400000,57074.50,57150.40,56730.10,56963.30,19741.359
1709092800000,56963.30,58472.80,56932.20,58300.00,61816.050
1709107200000,58299.90,59589.00,58226.90,58997.40,171926.592
1709121600000,58997.40,61437.40,58940.80,61000.00,230822.903
1709136000000,61000.00,64300.00,59000.00,61032.80,422227.200
1709150400000,61032.80,62710.00,59840.50,62487.90,103584.338
1709164800000,62487.90,62508.40,61105.20,61638.60,67555.583
1709179200000,61638.60,63762.80,61408.30,62761.50,104934.082
1709193600000,62761.60,63460.80,62151.10,63019.80,74702.902
1709208000000,63019.80,63599.90,62050.00,62809.10,104765.172
1709222400000,62809.10,62952.40,60452.00,61681.80,150952.986
1709236800000,61681.70,62345.70,60619.70,61203.30,81803.158
1709251200000,61203.30,61842.20,60844.80,61183.40,34861.575
1709265600000,61183.40,61856.70,61135.00,61485.80,30538.809
1709280000000,61485.90,62332.00,61385.50,61927.70,41673.153
1709294400000,61927.70,62750.00,61200.00,61335.30,78663.840
1709308800000,61335.40,62556.30,61312.10,62270.50,54171.773
1709323200000,62270.50,63199.00,62270.50,62430.60,59322.677
1709337600000,62430.60,62513.10,62004.00,62374.30,28442.554
1709352000000,62374.40,62380.00,61820.00,62071.90,30783.238
1709366400000,62071.90,62217.70,61711.50,61900.00,28774.711
1709380800000,61900.00,62248.20,61605.00,61834.50,34361.163
1709395200000,61834.50,62189.60,61700.00,62185.30,16953.447
1709409600000,62185.30,62276.60,61720.00,62039.90,19968.516
1709424000000,62039.90,62072.40,61700.00,61997.10,15651.137
1709438400000,61997.10,62181.20,61339.50,61641.00,34331.807
1709452800000,61641.00,61963.00,61452.30,61900.00,24394.336
1709467200000,61900.00,62720.00,61885.60,62210.70,54827.945
1709481600000,62210.80,63079.00,62141.00,62797.10,39358.189
1709496000000,62797.10,63330.90,62639.00,63178.50,31749.089
1709510400000,63178.50,64429.30,62299.00,63523.90,106338.610
1709524800000,63524.00,64390.20,63249.10,64120.60,37940.673
1709539200000,64120.60,65717.40,64078.20,65314.00,115160.424
1709553600000,65313.90,66666.60,64566.30,66505.40,119953.810
1709568000000,66505.40,67648.60,66100.00,67483.20,139133.923
1709582400000,67483.20,68600.00,66813.10,68296.40,114354.704
1709596800000,68296.50,68824.70,67616.20,68203.80,79528.678
1709611200000,68203.70,68484.50,65021.10,66223.80,124817.283
1709625600000,66223.80,67290.30,65600.00,66749.00,71036.114
1709640000000,66749.10,69350.00,66484.00,66841.30,197493.725
1709654400000,66839.80,67096.50,59112.00,61510.20,379422.284
1709668800000,61497.30,64393.90,61202.30,63747.40,200727.048
1709683200000,63747.50,64186.00,62829.30,63323.60,54565.237
1709697600000,63323.60,66846.60,63313.30,66759.40,108137.773
1709712000000,66759.30,67729.50,66117.40,67383.90,94868.205
1709726400000,67383.90,67689.80,64615.50,66541.30,173035.007
1709740800000,66541.30,67570.00,66275.00,66803.50,63884.768
1709755200000,66803.50,67425.20,65750.60,66128.10,39520.823
1709769600000,66128.00,66539.00,65609.30,65914.90,35529.364
1709784000000,65915.00,66536.10,65702.80,66447.80,35034.810
1709798400000,66447.80,67350.00,66404.20,66974.90,48238.410
1709812800000,66975.00,67994.00,66588.00,67317.10,84112.593
1709827200000,67317.20,68101.30,67068.50,67559.30,56791.611
1709841600000,67559.40,67974.80,66852.10,66870.00,36386.000
1709856000000,66870.00,67339.60,66800.00,67219.90,23836.852
1709870400000,67220.00,67719.30,66818.10,67308.50,27850.418
1709884800000,67308.50,67838.00,67093.00,67822.00,27365.479
1709899200000,67821.50,70330.80,67219.40,67685.80,168389.285
1709913600000,67685.80,68922.00,66120.00,68922.00,152017.882
1709928000000,68921.90,69447.00,67820.00,68180.20,59927.291
1709942400000,68180.20,68343.90,67908.70,68297.10,17481.310
1709956800000,68297.20,68608.70,68179.30,68336.30,15255.702
1709971200000,68336.30,68530.50,67996.00,68360.30,22150.292
1709985600000,68360.30,68580.00,68125.40,68341.60,18353.712
1710000000000,68341.50,68391.80,68050.00,68255.00,12015.249
1710014400000,68255.00,68497.80,68254.90,68360.10,9642.740
1710028800000,68360.20,69344.00,68262.50,69208.10,44236.817
1710043200000,69208.00,69780.00,69099.10,69430.00,30333.559
1710057600000,69429.90,69999.80,69227.30,69639.50,47002.381
1710072000000,69639.60,69937.70,68672.90,69254.70,50095.129
1710086400000,69254.60,69845.90,69168.90,69465.00,23895.198
1710100800000,69465.10,69522.70,68155.00,69001.80,38033.439
1710115200000,69001.80,69016.30,67000.00,68657.40,69458.296
1710129600000,68657.40,71537.70,68502.40,71223.80,114734.582
1710144000000,71223.90,72346.30,71211.50,71558.60,97544.481
1710158400000,71558.60,72772.50,71405.20,72061.40,98754.823
1710172800000,72061.30,72890.00,71800.00,72041.30,63972.169
1710187200000,72041.30,72850.00,71884.70,72153.80,29932.546
1710201600000,72153.90,72571.00,71300.00,71673.40,37698.804
1710216000000,71673.30,72425.00,71342.00,72175.50,45975.945
1710230400000,72175.60,72461.40,71438.50,72098.70,39679.087
1710244800000,72098.70,73370.00,70777.70,71779.20,129025.702
1710259200000,71779.20,71910.00,68600.00,71403.10,182962.502
1710273600000,71403.00,71623.30,70623.80,71503.20,36730.291
1710288000000,71503.30,72300.00,71388.10,72135.80,30308.014
1710302400000,72135.80,73311.70,71990.00,72964.00,48978.929
1710316800000,72964.10,73755.00,72934.10,73149.90,50161.327
1710331200000,73149.80,73276.90,71671.10,72670.20,97371.457
1710345600000,72670.20,73421.60,72410.60,73399.90,39746.775
1710360000000,73399.90,73485.10,72883.20,73127.60,21879.836
1710374400000,73127.60,73385.00,72540.50,73333.30,26763.274
1710388800000,73333.30,73881.40,72720.00,73280.70,54976.316
1710403200000,73280.70,73598.00,72678.00,72939.40,34164.114
1710417600000,72939.40,73115.50,70563.00,70904.50,145808.719
1710432000000,70904.50,71548.00,68600.00,69500.40,179635.464
1710446400000,69500.40,71785.00,69392.10,71455.50,72553.350
1710460800000,71455.60,72500.00,66660.10,68266.00,183221.843
1710475200000,68266.00,68910.50,66905.00,68487.40,112860.506
1710489600000,68487.40,68665.50,65580.00,67818.30,161336.026
1710504000000,67818.30,68777.00,67444.90,68199.20,74867.568
1710518400000,68199.20,70715.90,67568.00,69003.00,108426.144
1710532800000,69002.90,69813.60,67420.00,69552.20,65098.598
1710547200000,69552.10,70097.60,68967.10,69247.60,36440.378
1710561600000,69247.60,69527.60,68646.00,69490.20,25526.924
1710576000000,69490.20,69490.20,67739.60,68300.10,43345.593
1710590400000,68300.00,68557.60,67576.00,68431.80,47936.852
1710604800000,68431.90,68477.00,66700.00,66969.10,75874.402
1710619200000,66969.10,67600.00,64750.00,65351.00,104301.980
1710633600000,65351.00,66630.70,65166.60,66574.40,54153.223
1710648000000,66574.50,66600.00,64559.80,65681.20,70177.078
1710662400000,65681.10,67600.00,65333.00,67015.00,66619.301
1710676800000,67014.90,68199.00,66500.00,68009.80,57971.821
1710691200000,68009.90,68757.10,67812.20,68575.50,36619.508
1710705600000,68575.50,68972.40,68001.60,68447.90,29349.378
1710720000000,68447.90,68486.60,66814.60,68038.10,53949.744
1710734400000,68038.10,69044.40,67760.10,68262.90,37297.925
1710748800000,68262.90,68557.90,67350.60,68307.70,45501.817
1710763200000,68307.60,68685.30,66658.00,67509.20,93123.928
1710777600000,67509.20,68140.00,66601.60,66985.70,60098.513
1710792000000,66985.80,68054.90,66985.80,67660.00,27913.989
1710806400000,67660.00,68178.60,64893.10,65930.50,118043.870
1710820800000,65930.40,66044.00,63625.00,64742.10,114699.638
1710835200000,64742.10,64750.00,62545.00,63137.10,148646.191
1710849600000,63137.10,64198.70,62412.10,64084.00,120209.988
1710864000000,64084.10,65802.80,64003.00,64435.00,107528.517
1710878400000,64435.00,64549.20,61582.80,61974.10,91338.591
1710892800000,61974.10,63544.10,61661.70,61894.80,101026.897
1710907200000,61896.30,63248.80,60800.00,62995.10,111380.629
1710921600000,62995.10,64010.00,62676.60,63432.00,70517.139
1710936000000,63432.00,64450.00,63113.60,63649.00,93735.674
1710950400000,63648.90,66062.40,62057.70,65821.60,160980.964
1710964800000,65821.60,68140.00,65692.30,67876.40,99721.162
1710979200000,67876.40,68293.90,66400.40,66707.80,56126.971
1710993600000,66707.80,67384.60,66129.00,67031.80,51815.644
1711008000000,67031.80,67716.60,66695.60,67082.30,40706.816
1711022400000,67082.30,67774.30,66105.80,66601.60,72640.997
1711036800000,66601.60,67066.60,64924.60,65276.00,75882.498
1711051200000,65274.30,66000.00,64550.10,65539.90,50045.459
1711065600000,65539.90,66200.00,65163.00,66017.80,39257.301
1711080000000,66017.80,66691.90,65801.40,66223.40,28624.153
1711094400000,66223.30,66413.00,64102.00,64268.00,64282.856
1711108800000,64268.10,64729.10,62614.50,63920.00,142184.833
1711123200000,63920.00,64168.00,62794.60,63907.20,67901.638
1711137600000,63907.40,64017.10,62294.00,63826.00,58898.552
1711152000000,63826.10,64418.00,63020.20,63592.00,45171.862
1711166400000,63592.00,64887.60,63537.80,64606.50,38575.356
1711180800000,64606.60,64875.20,64221.30,64674.90,30575.575
1711195200000,64674.80,65473.80,64320.00,65147.50,50015.088
1711209600000,65147.40,66050.00,64823.50,64917.90,46298.247
1711224000000,64918.00,65245.30,63861.90,64020.30,28487.872
1711238400000,64020.40,64770.30,63951.70,64007.60,26955.583
1711252800000,64008.10,64633.60,63822.00,64624.60,26527.085
1711267200000,64624.60,65432.90,64511.90,65371.90,38847.042
1711281600000,65371.90,65974.70,65224.70,65718.60,42167.269
1711296000000,65718.60,66127.00,64635.00,65886.80,54566.413
1711310400000,65886.80,67700.00,65777.30,67260.90,55116.043
1711324800000,67260.90,67409.60,66427.60,67407.80,38631.742
1711339200000,67407.80,67780.00,66744.00,66866.60,38989.057
1711353600000,66866.50,67388.30,66784.20,66855.90,29696.402
1711368000000,66855.10,70108.10,66825.50,69844.60,140201.921
1711382400000,69844.50,71063.60,69505.80,71019.60,87615.027
1711396800000,71019.60,71228.30,69608.90,69920.50,60022.042
1711411200000,69920.60,70679.00,69782.20,70473.80,30683.177
1711425600000,70473.70,71649.00,70302.40,70535.00,50356.280
1711440000000,70535.00,71340.80,70295.90,70734.20,44137.268
1711454400000,70734.10,71200.00,69320.00,70307.10,101981.595
1711468800000,70307.00,70580.00,69465.20,69523.30,54669.999
1711483200000,69523.20,70368.00,69420.00,70044.10,26032.797
1711497600000,70044.20,70799.30,69888.00,70445.10,35628.422
1711512000000,70445.20,70650.00,69690.10,69798.80,31346.500
1711526400000,69797.50,70436.60,69466.40,70290.30,38869.095
1711540800000,70290.20,71888.00,68551.00,68922.00,202602.158
1711555200000,68922.10,69487.80,68364.80,68707.80,69700.950
1711569600000,68707.70,69703.70,68677.20,69532.60,29139.449
1711584000000,69532.60,70081.90,68941.00,69349.30,31861.746
1711598400000,69349.30,70564.00,69333.00,70456.80,37488.507
1711612800000,70457.00,71050.00,70344.90,70707.70,42713.479
1711627200000,70707.70,71636.20,70411.00,71335.10,78369.544
1711641600000,71335.20,71381.40,70455.60,70837.10,33522.126
1711656000000,70837.10,71138.00,70592.30,70838.70,18015.420
1711670400000,70838.80,70976.90,70335.10,70491.80,18384.635
1711684800000,70491.70,70598.50,69801.90,69855.60,30990.097
1711699200000,69855.60,70379.90,69612.80,70182.90,36337.211
1711713600000,70183.00,70704.80,69000.00,69240.10,60730.386
1711728000000,69240.40,69734.60,69125.40,69720.60,26131.250
1711742400000,69720.50,69970.10,69327.00,69903.60,15397.262
1711756800000,69903.60,70245.00,69753.30,69836.80,17158.879
1711771200000,69836.80,70388.00,69805.10,69900.10,18320.399
1711785600000,69900.20,70254.70,69872.30,70237.10,14184.529
1711800000000,70237.10,70328.00,69961.30,70064.90,13327.590
1711814400000,70065.00,70373.80,69712.30,69944.70,16241.650
1711828800000,69944.70,69959.00,69577.20,69642.10,11893.703
1711843200000,69642.00,70224.20,69608.00,69980.80,16822.223
1711857600000,69980.90,70555.60,69928.00,70366.50,19570.180
1711872000000,70367.50,70549.50,70200.00,70442.60,12809.761
1711886400000,70442.60,70824.00,70329.60,70446.20,25610.054
1711900800000,70446.20,71383.20,70387.80,71135.10,33030.260
1711915200000,71135.10,71495.50,70711.00,71363.00,24616.312
1711929600000,71363.00,71388.00,70588.00,70650.10,21815.323
1711944000000,70650.00,70727.20,68895.50,69637.00,70969.124
1711958400000,69637.00,69868.90,69222.00,69520.40,29105.420
1711972800000,69520.40,70145.00,68210.00,68281.00,83634.103
1711987200000,68280.90,69866.10,68103.30,69682.10,53164.149
1712001600000,69682.20,69949.00,69361.00,69700.00,24124.007
1712016000000,69700.00,69731.60,65600.00,66734.10,118225.311
1712030400000,66734.10,67157.00,66150.00,66503.30,55086.316
1712044800000,66503.40,66748.00,65108.00,65684.20,101124.889
1712059200000,65684.20,66289.00,64650.00,64928.30,121001.846
1712073600000,64928.20,66225.20,64603.20,65946.80,70323.338
1712088000000,65946.80,66147.10,65223.30,65505.30,33279.872
1712102400000,65502.40,66341.80,64500.00,66252.20,60445.956
1712116800000,66252.20,66550.00,65955.00,66181.10,31478.147
1712131200000,66181.20,66696.50,65555.00,66094.30,47333.798
1712145600000,66094.20,66940.00,65661.00,65873.90,67186.665
1712160000000,65873.90,66624.00,65451.10,65798.80,45312.020
1712174400000,65798.80,66324.00,65500.10,65971.90,23284.644
1712188800000,65971.80,66375.80,65451.30,65637.20,30274.072
1712203200000,65637.20,66307.00,65100.00,66104.80,39140.486
1712217600000,66104.70,66500.00,66036.00,66361.50,24461.347
1712232000000,66361.50,67916.00,66336.60,67631.80,75527.215
1712246400000,67631.70,69329.70,67514.70,68484.00,97105.541
1712260800000,68483.90,68581.00,67291.30,68489.90,59876.677
1712275200000,68489.80,68787.10,67420.20,67885.40,37413.887
1712289600000,67885.50,68051.40,66376.00,66937.40,50688.326
1712304000000,66937.40,67700.00,66388.40,66502.80,56234.546
1712318400000,66502.80,68585.90,65966.00,68201.50,110822.813
1712332800000,68200.00,68388.10,67326.60,67400.00,41415.268
1712347200000,67400.00,67977.00,67333.30,67825.70,16972.453
1712361600000,67825.80,68074.80,67450.00,67793.30,18480.422
1712376000000,67793.40,68240.10,67601.00,67985.10,17391.704
1712390400000,67985.10,68129.00,67610.00,67655.00,15249.245
1712404800000,67654.90,68320.00,67525.00,68094.00,21939.242
1712419200000,68094.00,68490.10,67923.40,68259.50,18317.958
1712433600000,68259.40,69708.00,68158.50,68901.60,35965.155
1712448000000,68901.50,69800.00,68820.60,69402.10,30693.366
1712462400000,69402.20,69499.50,69055.10,69367.40,17331.856
1712476800000,69367.30,69579.20,69198.30,69366.10,15464.263
1712491200000,69366.20,69921.30,69215.10,69567.90,33660.142
1712505600000,69567.90,70395.00,68881.30,69089.90,54047.410
1712520000000,69090.00,69492.90,68900.90,69362.70,20586.399
1712534400000,69362.70,69898.00,69040.40,69484.90,26553.497
1712548800000,69485.00,70917.00,69296.60,70745.40,40704.221
1712563200000,70745.40,72753.60,70677.60,72472.60,110069.526
1712577600000,72472.60,72890.40,71276.00,71815.70,70417.438
1712592000000,71815.70,72171.60,71338.30,71807.20,34303.610
1712606400000,71807.30,72077.30,71552.50,71678.40,15189.157
1712620800000,71678.30,71820.60,70900.00,71339.00,33623.357
1712635200000,71339.00,71399.90,70160.00,70444.00,48492.765
1712649600000,70444.10,70961.00,69536.80,70858.30,66018.368
1712664000000,70858.20,71048.30,68538.00,69322.80,113450.195
1712678400000,69322.80,69369.90,68216.00,69049.70,54110.638
1712692800000,69049.60,69473.40,68913.20,69189.30,18364.080
1712707200000,69189.20,69650.00,68514.00,69193.10,38460.266
1712721600000,69193.20,69564.00,69049.00,69381.60,19061.143
1712736000000,69381.60,69381.60,68662.70,69094.70,32864.250
1712750400000,69094.80,69275.10,67546.20,68687.90,125630.717
1712764800000,68688.00,70130.00,68585.00,70121.00,71230.063
1712779200000,70120.30,71412.20,69613.40,70681.70,50528.317
1712793600000,70681.80,71128.80,70340.00,70900.50,25776.252
1712808000000,70900.50,71387.40,70421.00,70789.10,32669.624
1712822400000,70789.10,71337.80,69921.10,70043.30,45863.876
1712836800000,70043.40,71160.00,69592.60,70045.90,96654.864
1712851200000,70045.90,70577.70,69608.10,70491.40,34983.242
1712865600000,70491.30,70806.40,69800.00,70055.70,20246.295
1712880000000,70055.60,71071.40,70044.40,71034.30,28772.522
1712894400000,71034.30,71297.00,70633.60,70825.90,25196.369
1712908800000,70825.90,71038.90,70552.90,70950.90,21288.038
1712923200000,70950.90,71028.00,69267.00,69374.10,82025.367
1712937600000,69374.00,69626.70,65102.00,66867.50,220063.110
1712952000000,66867.60,67498.70,66695.10,67136.40,38182.743
1712966400000,67136.40,67200.00,65754.60,67188.40,55177.302
1712980800000,67188.50,67975.40,67039.30,67466.10,42109.713
1712995200000,67466.10,67842.90,67116.90,67377.00,23444.783
1713009600000,67377.10,67954.00,67175.00,67683.20,29542.422
1713024000000,67683.20,67770.00,63530.00,64779.10,107653.080
1713038400000,64779.10,65667.70,59652.50,63939.70,257077.903
1713052800000,63939.70,64297.10,62139.30,63428.70,88650.039
1713067200000,63428.50,64869.00,63383.30,64449.90,50112.447
1713081600000,64449.90,64891.60,63850.00,64150.20,40232.475
1713096000000,64150.20,64846.10,63428.60,64163.30,59925.363
1713110400000,64163.30,64733.00,62550.00,64146.00,92113.232
1713124800000,64146.00,65822.10,63300.00,65615.90,64736.577
1713139200000,65615.90,65842.80,64903.10,65107.90,35393.543
1713153600000,65108.00,66550.00,64649.20,66224.80,53589.263
1713168000000,66224.90,66874.90,65801.00,65848.60,41279.881
1713182400000,65848.60,66369.70,63800.00,64552.80,94952.165
1713196800000,64552.60,64848.80,62242.50,63269.90,113636.279
1713211200000,63269.90,63610.30,62606.00,63392.70,42681.094
1713225600000,63392.80,63879.60,62711.00,62937.60,43701.669
1713240000000,62937.60,63786.30,61651.80,63487.90,68412.564
1713254400000,63488.00,63646.90,61521.00,63064.60,80931.579
1713268800000,63064.60,63399.70,61704.70,61749.20,98458.370
1713283200000,61749.20,63277.10,61680.00,62691.00,73768.751
1713297600000,62690.90,64356.30,62519.30,63765.00,40658.506
1713312000000,63764.90,64283.30,63541.70,63806.00,28336.977
1713326400000,63806.10,64483.30,63170.50,63260.80,36161.176
1713340800000,63260.70,63562.70,62490.00,62576.90,41805.835
1713355200000,62576.80,62957.20,59713.20,60272.00,180202.594
1713369600000,60274.00,61938.00,59625.00,60997.20,122038.404
1713384000000,60997.10,61743.70,60741.30,61254.50,35488.006
1713398400000,61254.50,62194.80,60900.00,61953.50,39391.280
1713412800000,61953.60,62048.00,60763.80,61154.70,45077.119
1713427200000,61154.60,63049.90,60824.20,62563.00,60982.513
1713441600000,62563.00,64100.00,61558.00,63474.00,118803.773
1713456000000,63473.90,63857.50,62268.40,63438.00,68984.116
1713470400000,63437.30,63815.60,63123.30,63445.00,30063.593
1713484800000,63445.00,63449.90,59541.00,61757.10,162327.211
1713499200000,61757.10,65189.00,61701.30,64519.60,132400.625
1713513600000,64519.50,65480.00,64088.10,64839.80,79968.568
1713528000000,64839.80,65420.50,63779.70,64417.70,83821.582
1713542400000,64417.60,64823.60,63477.50,64307.20,67738.532
1713556800000,64307.20,64478.80,62910.00,63787.40,48007.540
1713571200000,63787.40,64236.20,63045.10,63931.80,41252.775
1713585600000,63931.80,64244.00,63779.90,63937.90,19125.163
1713600000000,63938.00,63967.20,63244.00,63688.70,35323.020
1713614400000,63688.70,64940.00,63537.30,64771.00,33816.236
1713628800000,64771.00,65400.00,64421.80,64834.70,50097.196
1713643200000,64834.80,65013.00,64513.10,64897.20,17527.872
1713657600000,64897.20,65678.70,64570.50,65131.20,30568.361
1713672000000,65131.30,65216.30,64803.10,65109.80,17902.665
1713686400000,65109.80,65425.00,64728.30,65203.50,25335.640
1713700800000,65203.50,65362.30,64743.70,65015.00,24230.119
1713715200000,65014.90,65068.70,64214.20,64506.90,37769.782
1713729600000,64507.00,65242.00,64322.70,64912.60,24727.381
1713744000000,64912.70,66101.00,64470.50,65677.60,56789.099
1713758400000,65677.50,66449.00,65466.60,65943.70,41069.709
1713772800000,65943.80,66180.00,65664.60,65856.20,23493.116
1713787200000,65856.10,66449.00,65600.70,65966.80,49814.265
1713801600000,65966.80,66819.60,65866.80,66495.60,43140.787
1713816000000,66495.60,67222.00,66300.10,66778.00,31961.435
1713830400000,66777.90,67158.90,66383.50,66410.10,25070.758
1713844800000,66410.00,66627.60,65988.00,66079.90,27576.254
1713859200000,66079.90,66297.00,65812.00,66023.50,24977.278
1713873600000,66023.50,67099.70,65750.00,66393.20,59203.747
1713888000000,66393.20,66887.00,66311.40,66456.00,22329.169
1713902400000,66455.90,66457.10,65924.70,66386.30,19508.358
1713916800000,66386.20,66869.80,66347.20,66585.70,18340.202
1713931200000,66585.80,67068.20,66520.80,66588.90,23285.043
1713945600000,66588.90,66721.70,66172.00,66550.70,24802.818
1713960000000,66550.70,66711.90,64489.70,64594.00,103026.913
1713974400000,64593.50,65122.00,63695.00,63960.90,71058.223
1713988800000,63960.80,64426.60,63575.00,64250.00,40031.862
1714003200000,64250.00,64713.60,63823.20,64260.00,29118.115
1714017600000,64259.90,64377.10,63800.00,63996.10,23629.633
1714032000000,63996.20,64180.00,63300.00,63826.90,47523.366
1714046400000,63827.00,64316.50,62721.30,64091.70,92249.687
1714060800000,64091.60,64995.70,63934.00,64721.50,52582.241
1714075200000,64721.60,65270.60,64413.40,64478.80,30108.020
1714089600000,64478.80,64649.70,63844.00,64359.70,32749.047
1714104000000,64359.60,64590.30,63992.60,64236.60,22324.933
1714118400000,64236.70,64544.80,64031.50,64213.60,20015.817
1714132800000,64213.60,64783.10,63325.00,63481.30,81303.560
1714147200000,63481.20,64156.00,63291.50,63723.60,32853.541
1714161600000,63723.60,64097.40,63648.60,63748.80,12902.915
1714176000000,63748.70,63901.40,62332.80,63047.20,59693.740
1714190400000,63047.20,63157.60,62760.70,62944.30,17253.027
1714204800000,62944.30,63044.60,62650.00,62834.50,14504.338
1714219200000,62834.40,63390.80,62780.30,62928.40,23358.700
1714233600000,62928.30,63624.40,62700.20,63329.80,39059.005
1714248000000,63329.90,63532.60,63115.00,63421.00,13480.299
1714262400000,63420.90,64350.00,63420.90,63989.80,28362.952
1714276800000,63989.90,64041.40,63760.90,63883.10,14698.248
1714291200000,63883.20,63954.60,63230.70,63459.10,21213.117
1714305600000,63459.00,63832.00,63385.10,63508.60,17692.993
1714320000000,63508.50,63973.90,63446.20,63688.90,14380.740
1714334400000,63688.90,63716.90,62700.00,63088.30,29708.101
1714348800000,63088.40,63337.80,62056.10,62259.90,33929.947
1714363200000,62259.90,62632.10,61888.00,62362.00,40103.763
1714377600000,62362.10,62658.70,62150.00,62222.90,22955.752
1714392000000,62222.60,63085.00,61726.20,63012.20,66488.045
1714406400000,63012.20,63227.30,62511.10,62953.40,30356.738
1714420800000,62953.40,64200.00,62787.60,63842.40,34576.918
1714435200000,63842.40,64700.00,63075.90,63627.10,54356.874
1714449600000,63627.10,63691.30,63050.00,63123.80,21881.930
1714464000000,63123.70,63220.40,61000.00,61182.30,92748.254
1714478400000,61182.30,61576.10,60517.60,60764.90,86741.926
1714492800000,60764.90,60887.90,59150.00,59276.20,99188.100
1714507200000,59276.10,61063.20,59256.60,60651.20,53830.619
1714521600000,60651.20,60816.70,59555.00,60214.00,41842.441
1714536000000,60214.00,60331.80,57030.00,57482.00,111582.926
1714550400000,57482.00,57881.00,56537.70,57862.10,105319.627
1714564800000,57862.20,58257.80,56651.20,56865.20,86671.022
1714579200000,56865.30,59438.20,56600.00,56935.70,163355.410
1714593600000,56935.70,58550.80,56729.00,58307.60,55336.974
1714608000000,58307.70,58571.10,56951.60,57407.60,48642.413
1714622400000,57407.70,57933.10,57175.40,57645.00,24643.195
1714636800000,57645.00,58696.60,57542.40,58538.40,54335.416
1714651200000,58538.50,59441.60,58186.70,59230.70,97124.360
1714665600000,59230.80,59557.40,58895.60,59324.40,38379.928
1714680000000,59324.50,59637.30,58594.40,59036.70,36103.990
1714694400000,59036.70,59976.90,58781.30,59687.90,36797.051
1714708800000,59687.90,59810.00,59031.50,59158.10,23719.982
1714723200000,59158.10,59562.90,58818.20,59269.30,31556.268
1714737600000,59269.40,62239.60,58970.50,61662.10,155671.882
1714752000000,61662.20,62181.00,61497.60,62031.90,40812.563
1714766400000,62031.90,63333.00,61931.10,62853.70,65048.713
1714780800000,62853.70,63555.50,62520.00,62698.10,35544.126
1714795200000,62698.00,63430.00,62652.50,62931.30,29638.413
1714809600000,62931.40,64547.90,62888.00,63850.00,62488.680
1714824000000,63850.00,64137.80,63424.00,63590.00,35808.475
1714838400000,63590.10,64000.00,63278.10,63885.20,21209.796
1714852800000,63885.20,64198.90,63503.10,63864.20,20515.709
1714867200000,63864.30,64170.60,62833.00,63209.80,40066.159
1714881600000,63209.80,63932.40,63067.30,63697.10,22134.259
1714896000000,63697.10,63907.90,63505.70,63838.00,20907.752
1714910400000,63838.10,64644.30,63588.70,64398.00,51798.380
1714924800000,64398.10,64531.90,63756.00,63846.00,29615.387
1714939200000,63846.00,64217.40,63520.30,63988.00,20973.716
1714953600000,63987.90,64443.30,63666.00,63830.10,22429.192
1714968000000,63830.00,64564.50,63738.90,64509.60,29368.823
1714982400000,64509.50,65500.00,63779.10,64178.10,90546.106
1714996800000,64178.10,64295.10,62900.00,63599.80,92005.477
1715011200000,63599.90,63731.30,62655.30,63200.00,52386.835
1715025600000,63199.90,63598.70,63025.00,63142.80,18373.634
1715040000000,63142.70,63950.00,62805.60,63204.10,38286.024
1715054400000,63204.10,63830.00,63056.80,63648.90,23770.021
1715068800000,63648.90,64392.20,63313.20,63472.40,47888.360
1715083200000,63472.40,64320.00,63001.00,63710.00,57889.868
1715097600000,63710.10,63875.00,62758.10,63034.70,34222.559
1715112000000,63034.70,63177.30,62203.60,62296.00,36917.814
1715126400000,62296.00,62949.20,62055.00,62864.00,28153.491
1715140800000,62864.00,62994.90,62036.10,62186.70,31663.880
1715155200000,62186.70,62517.60,62005.80,62224.90,29263.081
1715169600000,62224.90,62800.00,61736.70,62251.80,67533.185
1715184000000,62251.90,62743.90,61902.80,62148.70,29625.538
1715198400000,62148.60,62224.50,60843.60,61157.90,55412.404
1715212800000,61157.90,61779.00,61113.00,61647.40,22040.640
1715227200000,61647.50,61753.20,61087.00,61222.50,21456.884
1715241600000,61222.50,61429.20,60550.00,61033.00,42557.014
1715256000000,61033.00,62262.10,60846.70,62122.50,66846.839
1715270400000,62122.50,62637.30,61707.80,62420.60,48794.861
1715284800000,62420.60,63447.20,62312.30,63050.10,40755.064
1715299200000,63050.00,63070.20,62633.20,62880.00,19493.079
1715313600000,62880.00,63365.50,62638.30,63053.90,29665.211
1715328000000,63053.80,63299.00,62758.70,63276.50,21952.047
1715342400000,63276.50,63446.50,60645.30,60893.80,129675.576
1715356800000,60893.70,61262.70,60117.40,60682.40,83338.902
1715371200000,60682.40,60985.80,60416.60,60778.10,23090.145
1715385600000,60778.00,61079.40,60617.00,60706.00,19987.403
1715400000000,60706.00,61055.50,60680.40,60988.90,16168.856
1715414400000,60989.00,61028.00,60432.60,60654.50,18892.240
1715428800000,60654.60,61491.40,60602.60,61146.10,29790.488
1715443200000,61146.10,61390.00,60976.80,61112.90,15661.949
1715457600000,61113.00,61129.90,60720.30,60809.20,12793.851
1715472000000,60809.20,61081.30,60778.00,60902.50,8957.244
1715486400000,60902.60,61097.00,60557.30,60803.80,13680.716
1715500800000,60803.80,61361.90,60757.70,61120.00,20279.049
1715515200000,61120.10,61598.80,61050.00,61395.90,17168.030
1715529600000,61395.90,61849.40,61158.30,61393.50,28818.414
1715544000000,61393.40,61527.50,60870.00,61455.80,15140.444
1715558400000,61455.70,61787.60,60750.00,61130.00,42993.269
1715572800000,61130.00,62426.00,60757.60,62296.60,44748.278
1715587200000,62296.50,63289.30,62296.50,62700.00,74300.067
1715601600000,62699.90,63183.00,62400.00,62980.50,42598.003
1715616000000,62981.20,63440.00,62540.20,63140.50,43073.508
1715630400000,63139.60,63162.10,62683.50,62912.10,14213.948
1715644800000,62912.20,63099.60,62377.20,62464.80,30244.783
1715659200000,62464.80,62749.90,61373.20,62002.10,53110.693
1715673600000,62002.00,62015.70,61492.80,61770.20,22566.352
1715688000000,61770.20,62295.90,60950.00,61749.90,91131.328
1715702400000,61750.00,61793.00,61116.60,61563.60,34540.720
1715716800000,61563.60,61768.90,61444.60,61550.50,12751.398
1715731200000,61550.50,61998.00,61316.10,61923.20,18643.623
1715745600000,61923.20,62245.10,61783.20,62157.40,20302.939
1715760000000,62157.50,62972.70,61886.80,62447.40,54806.314
1715774400000,62447.30,65055.00,62371.50,64685.50,155120.647
1715788800000,64685.40,66382.30,64681.50,65959.60,79093.976
1715803200000,65959.60,66440.00,65687.20,66175.40,37064.181
1715817600000,66175.40,66644.00,65735.90,65946.90,31811.606
1715832000000,65946.80,66232.80,65633.00,66100.00,22763.404
1715846400000,66100.00,66573.00,65962.20,66483.80,26975.817
1715860800000,66483.80,66800.00,65339.00,65800.10,80035.187
1715875200000,65800.00,65809.60,64567.00,65152.20,63915.502
1715889600000,65152.30,65480.00,65018.70,65217.70,16953.808
1715904000000,65217.70,65850.00,65061.20,65545.20,27794.900
1715918400000,65545.10,66478.50,65327.70,66350.60,41669.275
1715932800000,66350.50,66550.00,66037.30,66182.70,26340.980
1715947200000,66182.60,67400.60,65773.80,67170.00,76890.366
1715961600000,67169.90,67277.80,66158.40,67007.50,42405.702
1715976000000,67007.50,67027.70,66636.00,66980.00,11962.696
1715990400000,66980.00,67059.80,66696.10,66918.90,14987.935
1716004800000,66919.00,67233.60,66700.10,66854.10,15843.297
1716019200000,66854.10,67340.50,66808.40,67152.40,19628.857
1716033600000,67152.50,67198.70,66503.20,66781.40,27767.746
1716048000000,66781.30,66965.00,66682.60,66881.70,10585.364
1716062400000,66881.80,67035.10,66761.10,66884.90,8118.349
1716076800000,66884.90,67279.00,66810.00,67133.00,12471.395
1716091200000,67133.10,67313.80,66895.00,67295.00,13650.417
1716105600000,67295.10,67750.00,66921.90,67303.30,41565.229
1716120000000,67303.40,67303.40,66619.40,66863.00,29635.182
1716134400000,66863.00,66964.70,65835.80,66002.90,36476.631
1716148800000,66002.90,66438.00,65958.20,66239.40,14371.496
1716163200000,66239.40,66748.00,66010.00,66643.10,22106.058
1716177600000,66643.00,67270.00,66236.90,66788.90,41557.498
1716192000000,66788.90,67341.40,66720.90,66974.00,28761.148
1716206400000,66974.00,67499.90,66716.30,67382.10,40610.395
1716220800000,67382.10,70120.00,67344.90,69996.40,129693.909
1716235200000,69996.50,71674.60,68900.00,71466.50,103299.070
1716249600000,71466.50,72132.80,70740.80,71323.80,63389.213
1716264000000,71323.70,71462.00,70858.40,70926.40,25693.491
1716278400000,70926.30,71498.60,70900.20,71163.00,30042.772
1716292800000,71163.00,71487.60,69722.00,69874.90,75217.839
1716307200000,69874.80,70300.00,69165.60,69317.70,46218.311
1716321600000,69319.20,70393.20,69269.10,70168.80,23112.701
1716336000000,70168.70,70423.20,69868.10,70002.00,19590.336
1716350400000,70001.90,70137.70,69242.00,69759.60,29964.805
1716364800000,69759.60,70321.80,69680.00,69770.30,21713.431
1716379200000,69770.30,70642.80,69466.70,70485.70,52886.213
1716393600000,70485.70,70715.40,69241.50,69668.00,41621.447
1716408000000,69668.00,69999.00,68736.80,69219.10,28384.262
1716422400000,69219.20,69670.10,69219.10,69483.20,16149.719
1716436800000,69483.20,69900.00,69371.60,69770.60,16494.618
1716451200000,69770.60,70100.00,69561.80,70019.50,24326.937
1716465600000,70019.40,70133.30,67612.80,68103.00,114331.673
1716480000000,68102.90,68199.00,66763.90,67239.00,54734.540
1716494400000,67239.10,68388.00,66156.60,67999.90,74056.135
1716508800000,67999.90,68042.90,67651.70,67905.80,18229.102
1716523200000,67905.80,67944.20,66850.00,67191.20,36724.606
1716537600000,67191.20,67540.50,66639.00,67383.40,25954.913
1716552000000,67383.30,68445.00,66952.60,68340.20,47961.276
1716566400000,68340.30,69273.50,67950.00,69127.40,42690.151
1716580800000,69127.30,69222.20,68535.60,68584.10,15121.034
1716595200000,68584.00,68935.70,68523.70,68772.50,13021.059
1716609600000,68772.60,68854.70,68633.10,68775.00,8126.279
1716624000000,68775.10,69622.80,68767.00,69112.50,25426.221
1716638400000,69112.40,69323.90,68844.10,68949.10,21348.654
1716652800000,68949.00,69287.60,68870.60,69167.00,10058.168
1716667200000,69166.90,69394.60,69061.50,69314.40,7133.224
1716681600000,69314.50,69339.60,68830.00,69093.20,10244.257
1716696000000,69093.20,69468.90,68934.00,69359.20,9813.627
1716710400000,69359.20,69590.30,68980.60,69160.30,15909.255
1716724800000,69160.30,69425.20,68678.50,68864.60,21942.125
1716739200000,68864.70,68987.90,68697.20,68925.40,11186.901
1716753600000,68925.50,68937.50,68155.00,68524.30,14973.659
1716768000000,68524.40,69331.60,68490.10,68900.60,19327.660
1716782400000,68900.50,68935.10,68327.30,68661.10,19042.524
1716796800000,68661.00,68958.60,68268.70,68462.90,19439.727
1716811200000,68463.00,70584.90,68401.20,70421.50,55134.676
1716825600000,70421.40,70750.00,69100.00,69298.00,39677.011
1716840000000,69297.90,69950.00,69211.80,69461.60,17669.758
1716854400000,69461.50,69628.00,67760.00,68070.00,54544.602
1716868800000,68070.00,68153.80,67500.00,67712.00,29822.671
1716883200000,67712.10,68921.60,67602.80,68411.30,40291.196
1716897600000,68411.30,68583.70,67550.00,68399.70,46982.297
1716912000000,68399.80,68657.00,67273.00,68466.50,41587.464
1716926400000,68466.40,68710.00,68162.20,68440.50,14610.210
1716940800000,68440.40,68983.00,68302.80,68862.10,18567.902
1716955200000,68862.00,68976.40,67975.50,67993.60,21732.935
1716969600000,67993.70,68085.20,67631.00,67816.90,25758.932
1716984000000,67816.80,68330.60,67321.70,67421.00,51076.169
1716998400000,67421.00,67790.00,67129.00,67315.90,26538.879
1717012800000,67316.00,67882.20,67179.40,67686.70,14561.782
1717027200000,67686.80,68250.00,67501.70,68156.00,18064.349
1717041600000,68156.00,68479.00,67555.00,67627.80,29978.701
1717056000000,67627.90,68154.10,67167.00,67855.70,33978.605
1717070400000,67855.80,68869.90,67792.40,68566.40,47275.223
1717084800000,68566.40,69568.90,68412.00,68705.00,45336.979
1717099200000,68705.00,68712.00,68068.80,68402.50,19940.042
1717113600000,68402.60,68782.00,68316.00,68574.00,16008.269
1717128000000,68574.00,68694.00,68124.00,68226.10,15093.349
1717142400000,68226.20,68500.00,67908.40,68387.80,23284.141
1717156800000,68387.90,69080.00,67234.00,67252.70,74910.649
1717171200000,67252.60,68059.40,66700.50,67719.90,50702.718
1717185600000,67720.00,67834.40,67259.70,67577.90,15752.626
1717200000000,67577.90,67800.70,67480.00,67749.90,11203.855
1717214400000,67750.00,67857.50,67608.60,67677.90,8158.758
1717228800000,67677.80,67800.00,67649.80,67704.00,6444.213
1717243200000,67704.00,67936.00,67681.40,67728.20,9973.997
1717257600000,67728.20,67867.30,67590.00,67779.70,9329.853
1717272000000,67779.70,67921.30,67729.60,67799.20,5832.382
1717286400000,67799.20,67951.70,67661.90,67826.10,7225.374
1717300800000,67826.00,67910.00,67738.00,67743.00,4961.302
1717315200000,67743.00,68367.90,67410.00,68284.10,23005.400
1717329600000,68284.00,68545.90,67824.10,68189.80,30389.939
1717344000000,68189.80,68252.00,67296.30,67765.30,27950.080
1717358400000,67765.40,68038.70,67606.40,67805.90,8662.623
1717372800000,67805.90,68848.00,67642.60,68435.90,31790.130
1717387200000,68435.90,69255.00,68333.30,68949.90,35589.902
1717401600000,68950.00,69385.00,68872.10,69125.50,23842.964
1717416000000,69125.50,70372.90,68554.70,69650.00,89848.981
