timestamp,open,high,low,close,volume
1773052200000,67758.10,67817.10,67550.00,67642.20,1857.288
1773053100000,67642.20,67669.30,67518.00,67571.20,1352.945
1773054000000,67571.30,67746.90,67536.40,67664.30,1279.755
1773054900000,67664.30,67690.60,67301.00,67439.30,2259.805
1773055800000,67439.40,67638.00,67424.00,67600.00,813.964
1773056700000,67600.00,67832.60,67540.00,67723.30,1463.088
1773057600000,67723.30,67887.90,67714.20,67872.30,1288.483
1773058500000,67872.40,68133.00,67828.20,68115.00,1931.069
1773059400000,68114.90,68311.70,67945.30,68089.00,4335.709
1773060300000,68089.00,68187.60,67975.10,68124.10,1595.530
1773061200000,68124.10,68588.30,68102.20,68426.30,3307.947
1773062100000,68426.30,68760.90,68155.40,68734.90,5194.538
1773063000000,68734.80,69247.20,68683.60,69201.00,8998.347
1773063900000,69201.00,69273.90,68748.60,68939.90,8327.267
1773064800000,68940.00,69220.00,68641.50,68801.90,5954.617
1773065700000,68801.90,69247.10,68800.70,69114.40,3646.118
1773066600000,69114.40,69449.10,69050.00,69377.80,5614.516
1773067500000,69377.90,69390.90,69009.50,69112.80,3834.282
1773068400000,69112.80,69215.00,68925.90,69135.50,2619.134
1773069300000,69135.50,69210.00,68939.40,69050.00,2180.275
1773070200000,69049.90,69145.10,68690.40,68726.80,3656.422
1773071100000,68726.80,69047.80,68688.40,68832.30,2016.822
1773072000000,68832.40,69028.40,68708.70,68738.50,1814.520
1773072900000,68738.40,69013.00,68703.00,68928.40,1811.215
1773073800000,68928.50,69090.00,68586.40,69032.80,2837.955
1773074700000,69032.90,69188.00,68852.00,68920.50,1812.757
1773075600000,68920.60,69056.10,68838.20,68955.30,1126.817
1773076500000,68955.30,69027.90,68556.90,68589.80,2137.816
1773077400000,68589.80,68729.50,68217.00,68374.10,3988.128
1773078300000,68374.00,68641.90,68364.10,68570.00,1950.319
1773079200000,68570.00,68596.00,68200.10,68403.80,2259.713
1773080100000,68403.90,68627.30,68382.00,68514.60,1521.401
1773081000000,68514.50,68673.00,68438.20,68457.60,1237.219
1773081900000,68457.70,68518.70,68281.30,68327.40,880.583
1773082800000,68327.50,68484.20,68327.50,68370.00,753.753
1773083700000,68370.00,69336.40,68329.90,69320.50,7538.569
1773084600000,69320.50,69498.00,68744.70,68922.90,5804.000
1773085500000,68922.90,69030.80,68764.90,68951.80,2459.703
1773086400000,68951.80,69100.20,68820.00,68962.80,1638.251
1773087300000,68962.80,69038.80,68875.40,68921.50,549.629
1773088200000,68921.40,68930.70,68751.70,68845.10,876.139
1773089100000,68845.00,69005.70,68718.00,68916.30,976.429
1773090000000,68916.30,69064.10,68902.30,68989.70,1132.896
1773090900000,68989.70,68999.40,68788.00,68805.90,1035.379
1773091800000,68805.90,68977.80,68621.40,68911.90,1689.484
1773092700000,68912.00,69005.00,68860.00,68882.70,351.629
1773093600000,68882.70,69000.00,68642.00,68788.50,1178.042
1773094500000,68788.40,68839.80,68673.10,68795.90,441.098
1773095400000,68795.90,68836.40,68557.70,68698.40,1189.685
1773096300000,68698.30,68718.30,68554.20,68602.20,860.348
1773097200000,68602.20,68663.00,68512.10,68617.80,840.089
1773098100000,68617.70,68617.70,68486.20,68568.10,783.386
1773099000000,68568.10,68594.10,68470.00,68511.10,655.606
1773099900000,68511.20,68526.20,68333.00,68394.10,1069.427
1773100800000,68394.00,68475.90,68345.00,68383.50,1382.418
1773101700000,68383.40,69000.00,68360.90,68943.40,3430.541
1773102600000,68943.40,69175.70,68848.80,69150.00,2459.971
1773103500000,69150.10,69259.90,69018.20,69113.10,2034.073
1773104400000,69113.20,69217.40,69024.50,69073.20,1128.944
1773105300000,69073.20,69121.70,68806.10,68936.50,1234.537
1773106200000,68936.60,69048.60,68721.40,68940.00,1343.234
1773107100000,68939.90,69362.90,68898.40,69229.00,2478.830
1773108000000,69229.00,69343.50,69064.00,69190.50,1564.546
1773108900000,69190.50,69359.90,69103.00,69333.00,1148.895
1773109800000,69333.10,70415.10,69333.00,70290.20,12456.539
1773110700000,70290.10,70555.00,70213.50,70242.00,6015.296
1773111600000,70242.00,70348.10,69983.20,70144.20,3710.742
1773112500000,70144.20,70248.40,70066.00,70087.70,1186.749
1773113400000,70087.70,70099.60,69811.00,69814.50,2882.003
1773114300000,69814.50,69814.60,69338.50,69391.00,7072.124
1773115200000,69391.00,69733.20,69391.00,69688.10,2260.333
1773116100000,69688.00,69780.00,69531.10,69700.00,1725.279
1773117000000,69700.10,69990.00,69700.10,69910.20,1829.603
1773117900000,69910.20,70094.70,69800.30,70035.80,1773.307
1773118800000,70035.80,70330.40,69974.90,70135.40,2517.415
1773119700000,70135.50,70285.70,69973.80,70010.20,1615.975
1773120600000,70010.20,70096.90,69875.20,69881.50,1094.410
1773121500000,69881.50,69950.00,69842.70,69938.30,668.764
1773122400000,69938.30,69944.60,69776.00,69843.80,981.865
1773123300000,69843.80,70160.30,69719.40,70104.10,2284.246
1773124200000,70104.10,70134.40,69914.50,69928.90,1188.948
1773125100000,69928.80,70031.60,69826.20,69879.60,840.252
1773126000000,69879.60,70400.00,69793.70,70212.80,4746.498
1773126900000,70212.70,70500.00,70195.60,70289.80,2095.333
1773127800000,70289.80,70375.10,70260.00,70294.20,1158.062
1773128700000,70294.20,70478.90,70236.00,70374.70,1538.274
1773129600000,70374.70,70900.00,70332.20,70872.00,6898.501
1773130500000,70872.10,70951.90,70700.00,70810.30,3613.479
1773131400000,70810.30,71067.20,70810.30,70880.00,3266.244
1773132300000,70880.10,70880.10,70564.30,70650.90,3481.430
1773133200000,70650.90,70870.00,70615.50,70768.40,2289.504
1773134100000,70768.40,71253.90,70706.90,71185.00,3865.063
1773135000000,71185.00,71272.40,71011.30,71043.00,1953.617
1773135900000,71043.10,71069.90,70866.60,71030.40,1598.115
1773136800000,71030.50,71049.90,70805.00,70859.10,1260.457
1773137700000,70859.10,70879.90,70682.40,70730.30,1680.419
1773138600000,70730.20,70924.90,70619.50,70704.00,2261.519
1773139500000,70704.10,70844.50,70636.00,70737.60,1254.351
1773140400000,70737.60,70837.10,70571.00,70583.00,1594.378
1773141300000,70583.10,70725.60,70538.50,70617.90,1650.922
1773142200000,70617.90,70631.90,70508.00,70554.00,1014.580
1773143100000,70554.00,70662.20,70505.30,70570.10,1221.554
1773144000000,70570.10,70602.50,70312.00,70394.60,3425.488
1773144900000,70394.50,70534.90,70318.70,70356.60,1273.872
1773145800000,70356.60,70445.60,70250.20,70415.60,1258.824
1773146700000,70415.60,70554.60,70415.40,70486.80,1475.050
1773147600000,70486.90,70721.40,70486.90,70720.00,2083.164
1773148500000,70720.00,70869.40,70620.40,70821.40,1965.658
1773149400000,70821.30,70888.00,69680.00,69880.90,11848.313
1773150300000,69881.00,70243.00,69752.50,69883.70,5127.491
1773151200000,69883.70,70118.70,69375.30,69449.10,7397.933
1773152100000,69449.10,69899.30,69184.80,69762.00,6463.100
1773153000000,69762.00,70443.30,69752.80,70410.00,5023.047
1773153900000,70410.00,71499.90,70353.90,71435.70,10819.436
1773154800000,71435.70,71748.10,71049.90,71157.80,9676.190
1773155700000,71157.80,71432.90,70931.30,71309.00,3648.114
1773156600000,71308.90,71590.90,70910.70,71076.70,5047.505
1773157500000,71076.80,71319.80,70856.30,71296.90,3290.856
1773158400000,71296.90,71387.60,70900.00,71099.90,2731.512
1773159300000,71100.00,71665.80,71088.50,71324.00,3873.224
1773160200000,71324.30,71408.90,71145.70,71343.60,2511.749
1773161100000,71343.60,71357.50,71089.50,71224.50,2003.689
1773162000000,71224.50,71412.30,71158.20,71213.70,1198.138
1773162900000,71213.70,71324.60,70946.30,71002.70,1815.951
1773163800000,71002.50,71199.20,70465.10,70657.10,4908.771
1773164700000,70657.10,70925.80,70510.00,70827.10,2289.290
1773165600000,70827.10,70871.70,70318.80,70333.80,2195.440
1773166500000,70333.80,70548.00,70091.00,70289.00,5109.931
1773167400000,70289.00,70444.80,69943.00,70010.00,3267.156
1773168300000,70010.00,70193.60,69854.70,69975.20,2602.940
1773169200000,69975.20,70162.70,69822.00,70024.20,2294.449
1773170100000,70024.20,70249.10,69861.60,69931.50,2590.167
1773171000000,69931.50,70065.00,69688.00,69946.20,2724.458
1773171900000,69946.20,70052.10,69903.00,70005.20,1356.814
1773172800000,70005.10,70227.40,69965.60,70071.60,1628.813
1773173700000,70071.50,70220.00,69958.10,70200.10,985.250
1773174600000,70200.00,70311.40,70163.10,70250.00,998.283
1773175500000,70250.00,70260.50,70163.10,70192.90,842.647
1773176400000,70192.90,70375.40,70026.40,70048.90,1237.888
1773177300000,70049.00,70132.80,69876.00,69896.80,1327.375
1773178200000,69896.80,70006.20,69503.00,69697.50,4384.648
1773179100000,69697.40,69788.10,69485.70,69712.80,1267.333
1773180000000,69712.90,69830.20,69388.00,69560.00,2221.511
1773180900000,69560.00,69721.70,69431.00,69563.10,1014.525
1773181800000,69563.10,69654.20,69445.00,69569.60,1208.601
1773182700000,69569.50,69734.40,69531.20,69653.90,860.648
1773183600000,69653.90,69816.10,69644.60,69752.00,1280.998
1773184500000,69752.00,69828.80,69650.10,69764.60,1074.705
1773185400000,69764.70,69925.60,69734.40,69884.50,1844.138
1773186300000,69884.60,69938.20,69796.10,69901.90,1447.262
1773187200000,69901.80,70049.40,69707.80,70000.80,2344.824
1773188100000,70000.70,70123.10,69819.00,70001.70,1796.763
1773189000000,70001.60,70001.70,69756.20,69791.40,1318.052
1773189900000,69791.40,70139.60,69791.30,69998.10,1175.831
1773190800000,69998.10,70114.20,69924.90,70004.80,867.014
1773191700000,70004.90,70108.50,69921.80,70044.20,1237.773
1773192600000,70044.20,70054.80,69829.40,69913.20,876.156
1773193500000,69913.30,70086.60,69852.70,70027.80,938.247
1773194400000,70027.90,70087.50,69950.00,69955.30,913.466
1773195300000,69955.30,70008.00,69875.30,69929.90,779.266
1773196200000,69930.00,69930.00,69563.30,69657.00,2111.951
1773197100000,69657.10,69779.70,69590.60,69778.20,961.119
1773198000000,69778.20,69863.00,69630.00,69657.10,1435.774
1773198900000,69657.10,69684.30,69462.30,69494.00,1385.760
1773199800000,69493.90,69614.00,69480.00,69504.50,903.814
1773200700000,69504.50,69614.50,69455.60,69517.00,888.601
1773201600000,69517.00,69637.60,69462.10,69612.40,944.951
1773202500000,69612.50,69953.10,69597.30,69942.40,1856.215
1773203400000,69942.50,69982.00,69876.00,69956.00,1114.253
1773204300000,69956.00,70249.10,69932.50,70089.70,2087.029
1773205200000,70089.80,70162.40,69955.20,69976.20,1193.887
1773206100000,69976.30,69992.80,69834.20,69906.30,648.898
1773207000000,69906.30,69906.40,69329.70,69494.90,2954.498
1773207900000,69494.90,69594.00,69446.00,69463.70,1871.360
1773208800000,69463.70,69689.20,69454.90,69675.00,1649.172
1773209700000,69675.00,69795.70,69634.20,69759.90,1250.582
1773210600000,69759.90,69909.10,69759.90,69791.80,820.570
1773211500000,69791.80,69970.20,69673.20,69907.00,1299.254
1773212400000,69907.10,69986.80,69836.30,69860.00,825.399
1773213300000,69859.90,69881.70,69714.00,69746.70,789.477
1773214200000,69746.70,69746.80,69456.40,69500.00,1780.811
1773215100000,69500.00,69714.70,69478.00,69622.10,1342.389
1773216000000,69622.20,69738.80,69551.00,69602.70,916.981
1773216900000,69602.70,69612.10,69467.20,69467.20,1001.260
1773217800000,69467.20,69750.00,69464.00,69637.30,1484.304
1773218700000,69637.20,69655.10,69465.90,69617.40,997.361
1773219600000,69617.40,69628.70,69489.30,69502.90,638.658
1773220500000,69502.90,69634.90,69496.00,69496.00,1102.701
1773221400000,69496.00,69611.60,69324.10,69526.00,2083.428
1773222300000,69526.00,69729.00,69350.90,69431.20,1542.324
1773223200000,69431.30,69496.00,69350.50,69461.00,1037.159
1773224100000,69461.00,69564.00,69400.10,69459.80,990.929
1773225000000,69459.80,69689.80,69433.60,69647.80,1282.645
1773225900000,69647.80,69667.20,69540.00,69570.50,778.289
1773226800000,69570.50,69641.60,69502.60,69571.30,1035.354
1773227700000,69571.30,69616.00,69387.50,69418.90,791.077
1773228600000,69419.00,69517.80,69350.00,69406.80,716.734
1773229500000,69406.80,69474.40,69098.00,69144.00,3192.367
1773230400000,69144.00,69245.20,68932.90,69125.10,4166.867
1773231300000,69125.10,69420.00,69120.20,69401.70,2468.980
1773232200000,69401.70,69767.80,69138.50,69223.50,5379.237
1773233100000,69223.40,69376.40,69110.10,69319.00,1480.116
1773234000000,69318.90,69953.30,69294.10,69816.00,3752.980
1773234900000,69815.90,70360.00,69760.00,70175.60,6207.747
1773235800000,70175.60,71060.70,70161.30,70410.50,12149.103
1773236700000,70410.50,70532.00,69742.00,70134.80,8856.101
1773237600000,70134.80,70798.80,69917.50,70185.10,8609.808
1773238500000,70185.10,70656.00,70132.00,70612.90,3921.672
1773239400000,70612.90,70930.90,70395.10,70800.80,4530.610
1773240300000,70801.30,70938.10,70420.70,70536.60,4333.543
1773241200000,70536.70,70612.50,69902.70,70098.20,5296.509
1773242100000,70098.20,70430.30,69979.10,70159.00,2612.308
1773243000000,70159.00,70222.00,69618.60,70024.80,4830.380
1773243900000,70024.80,70288.10,69834.40,70186.90,2666.559
1773244800000,70187.00,70432.00,70093.20,70408.80,2829.259
1773245700000,70408.80,70582.60,70227.00,70420.00,1772.727
1773246600000,70419.90,70746.10,70410.60,70715.40,2760.735
1773247500000,70715.50,70799.90,70455.10,70538.90,2245.423
1773248400000,70539.00,70985.00,70523.40,70833.40,3712.278
1773249300000,70833.40,71286.00,70812.30,71207.70,4650.933
1773250200000,71207.60,71280.00,70474.20,70788.50,5511.661
1773251100000,70788.50,70930.00,70598.00,70745.10,2621.836
1773252000000,70745.10,70845.00,70602.70,70713.40,1379.900
1773252900000,70713.40,70866.50,70562.30,70673.30,2003.638
1773253800000,70673.30,70715.40,70353.50,70470.60,2928.420
1773254700000,70470.60,70738.30,70355.00,70582.20,1386.018
1773255600000,70582.10,70594.50,70339.00,70433.40,1161.086
1773256500000,70433.50,70532.50,70333.30,70486.70,712.010
1773257400000,70486.70,70700.00,70431.80,70637.00,955.959
1773258300000,70637.00,70685.90,70517.60,70600.80,672.951
1773259200000,70600.70,70606.10,70388.10,70388.20,847.587
1773260100000,70388.20,70472.00,70349.50,70399.20,477.149
1773261000000,70399.10,70527.30,70396.00,70501.70,404.568
1773261900000,70501.70,70692.80,70413.80,70586.10,1546.314
1773262800000,70586.10,70766.70,70451.80,70502.50,1203.162
1773263700000,70502.50,70558.00,70466.50,70510.00,428.680
1773264600000,70510.10,70643.00,70507.10,70507.10,545.431
1773265500000,70507.00,70747.50,70505.50,70702.30,452.169
1773266400000,70702.40,70931.90,70617.50,70761.80,962.329
1773267300000,70761.80,70761.80,70427.00,70448.70,1083.961
1773268200000,70448.70,70488.00,70240.00,70319.10,2007.485
1773269100000,70319.00,70453.80,70200.20,70329.10,1221.690
1773270000000,70329.20,70466.00,70314.60,70416.60,637.838
1773270900000,70416.50,70416.50,70264.80,70319.40,759.652
1773271800000,70319.40,70380.20,70164.40,70203.60,1066.529
1773272700000,70203.60,70256.80,70078.60,70150.00,1461.331
1773273600000,70150.00,70280.50,70087.10,70221.90,1168.588
1773274500000,70221.80,70314.10,70136.50,70211.90,749.021
1773275400000,70211.80,70300.00,70096.10,70238.70,627.611
1773276300000,70238.70,70250.00,70144.80,70176.90,419.101
1773277200000,70176.90,70188.10,69823.70,69864.20,3262.165
1773278100000,69864.10,69958.30,69823.10,69860.60,1131.968
1773279000000,69860.70,69950.00,69749.80,69924.10,1153.226
1773279900000,69924.20,69958.70,69706.10,69800.80,1514.145
1773280800000,69800.70,69851.50,69713.60,69743.20,1288.390
1773281700000,69743.10,69787.90,69460.80,69560.20,2748.603
1773282600000,69560.20,69585.20,69308.20,69420.70,2398.038
1773283500000,69420.70,69453.20,69180.00,69242.90,2125.584
1773284400000,69243.00,69388.50,69187.60,69326.90,1536.759
1773285300000,69327.00,69477.00,69311.80,69375.00,1486.452
1773286200000,69375.00,69595.90,69350.00,69517.10,1879.211
1773287100000,69517.10,69521.00,69231.40,69402.60,1188.720
1773288000000,69402.60,69640.30,69402.60,69545.90,1410.500
1773288900000,69545.80,69572.60,69410.80,69445.70,692.421
1773289800000,69445.60,69445.70,69250.10,69346.60,958.826
1773290700000,69346.60,69376.80,69266.00,69330.10,787.920
1773291600000,69330.10,69438.00,69282.50,69312.90,851.603
1773292500000,69312.80,69365.30,69150.00,69217.70,1902.181
1773293400000,69217.60,69514.60,69217.60,69471.20,1362.681
1773294300000,69471.30,69482.10,69358.90,69429.90,637.436
1773295200000,69430.00,69450.10,69320.00,69420.10,766.788
1773296100000,69420.10,69526.60,69369.70,69500.10,1022.662
1773297000000,69500.10,69517.10,69354.20,69448.40,571.690
1773297900000,69448.30,69480.00,69386.80,69461.50,548.354
1773298800000,69461.40,69499.70,69370.70,69457.30,742.435
1773299700000,69457.30,69639.70,69448.80,69566.80,1214.338
1773300600000,69566.70,69739.30,69561.20,69642.90,2570.832
1773301500000,69643.00,69818.80,69640.10,69782.60,1581.163
1773302400000,69782.70,69887.70,69676.00,69730.40,2000.097
1773303300000,69730.40,70079.10,69704.20,69765.90,3707.501
1773304200000,69766.00,69862.10,69667.30,69788.40,1543.514
1773305100000,69788.30,69878.30,69734.30,69865.10,1060.023
1773306000000,69865.10,69884.60,69651.40,69735.60,866.476
1773306900000,69735.60,69735.60,69540.90,69650.20,1677.387
1773307800000,69650.20,70307.20,69650.20,70239.30,2962.461
1773308700000,70239.30,70377.70,69803.20,69914.90,4168.263
1773309600000,69915.00,70039.60,69815.40,69933.20,1883.034
1773310500000,69933.20,70183.40,69915.70,70110.00,1418.434
1773311400000,70109.90,70420.00,70097.30,70340.80,2724.366
1773312300000,70340.90,70477.00,70214.40,70372.30,2331.185
1773313200000,70372.40,70497.50,70321.70,70371.60,1656.969
1773314100000,70371.60,70600.00,70330.80,70508.50,2036.492
1773315000000,70508.50,70724.30,70436.00,70641.30,2359.979
1773315900000,70641.40,70756.50,70358.60,70388.50,2644.514
1773316800000,70388.60,70438.80,70244.70,70339.00,2341.392
1773317700000,70339.00,70444.00,70292.60,70381.60,1360.948
1773318600000,70381.60,70441.60,70246.20,70424.10,1314.099
1773319500000,70424.10,70584.20,70300.00,70348.60,1558.151
1773320400000,70348.60,70490.00,70305.00,70374.80,921.530
1773321300000,70374.80,70393.00,69959.90,70074.60,3917.936
1773322200000,70074.60,70419.70,69901.40,70042.30,4350.000
1773323100000,70042.20,70115.90,69614.80,69930.50,6460.932
1773324000000,69930.40,70375.90,69918.10,70336.50,4535.189
1773324900000,70336.50,70625.00,69868.90,69906.80,5205.846
1773325800000,69906.80,69961.80,69333.00,69548.40,7180.028
1773326700000,69548.40,69740.90,69303.80,69549.40,4522.910
1773327600000,69549.30,69734.00,69430.00,69707.60,2618.601
1773328500000,69707.70,70388.00,69659.00,70249.90,5598.818
1773329400000,70249.90,70532.00,70092.50,70333.50,4758.792
1773330300000,70333.40,70460.00,70182.40,70282.90,3717.108
1773331200000,70282.80,70458.00,69856.40,70080.50,4108.034
1773332100000,70080.50,70530.00,70002.90,70021.00,4649.453
1773333000000,70021.10,70428.50,69988.40,70330.00,2632.907
1773333900000,70330.00,70475.80,70189.90,70328.30,2180.828
1773334800000,70328.30,70499.90,70300.00,70384.00,1771.560
1773335700000,70384.10,70466.00,70151.40,70256.50,1960.392
1773336600000,70256.50,70402.80,70225.90,70328.40,1076.501
1773337500000,70328.40,70383.60,70017.40,70167.30,1917.351
1773338400000,70167.30,70256.50,70027.30,70159.90,1324.215
1773339300000,70160.00,70229.70,69832.40,69983.10,2108.092
1773340200000,69983.00,70063.80,69833.30,69884.20,1216.342
1773341100000,69884.20,69909.60,69754.80,69781.00,1405.409
1773342000000,69781.10,69923.90,69725.00,69891.70,1250.069
1773342900000,69891.60,70188.00,69891.60,70168.20,1741.291
1773343800000,70168.30,70308.00,70160.00,70265.70,1348.224
1773344700000,70265.60,70511.20,70218.60,70393.70,2348.277
1773345600000,70393.70,70508.80,70308.20,70355.50,1190.882
1773346500000,70355.60,70381.30,70213.50,70266.00,907.663
1773347400000,70266.10,70266.10,70091.50,70094.10,887.205
1773348300000,70094.10,70209.90,70063.70,70127.00,600.571
1773349200000,70127.10,70433.40,70127.10,70354.50,847.454
1773350100000,70354.50,70375.70,70222.50,70252.80,379.056
1773351000000,70252.80,70260.00,70165.50,70247.60,428.552
1773351900000,70247.60,70350.90,70194.60,70244.50,490.919
1773352800000,70244.40,70281.50,70130.10,70171.90,699.916
1773353700000,70172.00,70254.40,70066.10,70149.90,770.124
1773354600000,70150.00,70200.50,70000.00,70030.30,543.826
1773355500000,70030.40,70157.40,69974.70,70141.10,665.127
1773356400000,70141.10,70450.00,70122.70,70426.30,1925.598
1773357300000,70426.20,70727.90,70426.20,70501.50,3447.811
1773358200000,70501.50,70630.00,70427.50,70591.30,1079.558
1773359100000,70591.30,70623.00,70437.40,70480.10,884.999
1773360000000,70480.10,71089.00,70342.70,71085.10,6117.855
1773360900000,71085.00,71726.00,71065.10,71449.10,11769.638
1773361800000,71449.00,71979.20,71444.80,71476.40,7177.312
1773362700000,71476.40,71524.10,71200.00,71443.30,3206.644
1773363600000,71443.40,71664.90,71429.40,71559.10,2354.688
1773364500000,71559.20,71738.60,71429.10,71492.10,1940.435
1773365400000,71492.10,71698.70,71240.00,71574.60,2879.887
1773366300000,71574.60,71677.40,71520.50,71629.90,1001.866
1773367200000,71630.00,71665.20,71467.80,71518.50,1057.914
1773368100000,71518.50,71582.50,71376.80,71426.20,1113.237
1773369000000,71426.20,71458.00,71112.00,71140.50,2821.658
1773369900000,71140.60,71245.10,71006.50,71114.60,1731.071
1773370800000,71114.60,71239.90,71062.00,71139.80,964.143
1773371700000,71139.70,71260.90,71044.40,71069.10,921.930
1773372600000,71069.10,71164.10,70920.10,71117.80,1460.044
1773373500000,71117.60,71485.60,71101.60,71366.30,2556.273
1773374400000,71366.30,71469.00,71310.00,71331.10,1002.066
1773375300000,71331.10,71333.00,71200.00,71279.70,1235.394
1773376200000,71279.80,71388.00,71229.20,71367.20,780.327
1773377100000,71367.20,71407.00,71269.70,71352.50,504.762
1773378000000,71352.60,71405.60,71201.00,71237.40,1035.959
1773378900000,71237.50,71418.00,71225.80,71378.80,836.328
1773379800000,71378.80,71595.40,71378.40,71563.80,1802.568
1773380700000,71563.80,71616.00,71444.00,71515.40,1811.696
1773381600000,71515.50,71568.50,71420.00,71435.10,771.867
1773382500000,71435.10,71475.90,71170.30,71209.50,1682.629
1773383400000,71209.50,71308.80,71150.00,71230.00,2101.781
1773384300000,71230.00,71354.90,71165.00,71315.90,939.932
1773385200000,71315.90,71490.40,71208.00,71394.90,2205.398
1773386100000,71394.90,71559.50,71371.30,71479.90,891.056
1773387000000,71479.90,71561.70,71348.00,71542.00,2807.769
1773387900000,71542.10,71649.70,71492.20,71585.30,2361.046
1773388800000,71585.20,71618.00,71347.10,71440.40,1794.641
1773389700000,71440.30,71569.60,71400.70,71543.90,1264.170
1773390600000,71543.80,72156.40,71537.70,71890.00,8539.828
1773391500000,71890.00,71917.30,71675.70,71790.00,2088.896
1773392400000,71790.00,71934.90,71701.50,71717.80,2323.963
1773393300000,71717.80,71798.80,71549.90,71778.50,1355.718
1773394200000,71778.50,71899.30,71740.20,71829.10,1511.497
1773395100000,71829.10,72060.00,71802.40,71960.00,2962.885
1773396000000,71959.90,72239.20,71953.00,72220.40,4488.550
1773396900000,72220.30,72467.90,72199.00,72316.40,5079.440
1773397800000,72316.40,72537.10,72286.20,72457.20,3255.376
1773398700000,72457.20,72547.00,72325.00,72421.20,2209.678
1773399600000,72421.10,72491.00,72186.70,72256.70,3404.727
1773400500000,72256.80,72450.20,72253.30,72286.10,1474.656
1773401400000,72286.10,72325.00,72217.50,72271.20,934.422
1773402300000,72271.30,72314.50,72150.00,72189.90,1105.087
1773403200000,72189.80,72406.00,72166.10,72375.60,1543.780
1773404100000,72375.60,72463.00,72279.30,72370.90,1342.883
1773405000000,72370.90,72599.90,72283.90,72306.30,3000.775
1773405900000,72306.30,72882.80,72300.00,72735.30,5815.996
1773406800000,72735.30,72888.80,72635.80,72756.50,2735.697
1773407700000,72756.50,73269.10,72671.20,72993.30,8112.637
1773408600000,72993.40,73299.00,72706.90,73243.70,7299.296
1773409500000,73243.70,73568.00,73206.50,73344.80,7467.716
1773410400000,73344.70,73566.90,73238.00,73468.40,5279.012
1773411300000,73468.50,73866.00,73304.50,73685.10,7116.788
1773412200000,73685.00,73870.00,72874.30,72899.90,9906.793
1773413100000,72899.90,72952.90,72328.40,72353.40,11453.148
1773414000000,72353.30,72662.20,72151.30,72612.10,6763.609
1773414900000,72612.10,72828.20,72430.00,72441.90,4452.524
1773415800000,72441.80,72572.40,71850.00,71954.50,6137.955
1773416700000,71954.40,72230.00,71700.00,71800.00,7085.995
1773417600000,71800.10,71914.30,71535.20,71700.10,8218.114
1773418500000,71700.10,71735.70,71130.60,71359.80,9726.521
1773419400000,71359.80,71855.10,71348.50,71798.10,7178.277
1773420300000,71798.00,72090.20,71723.60,71846.00,5089.416
1773421200000,71846.00,72112.60,71829.20,72074.60,2938.396
1773422100000,72074.70,72215.10,71549.80,71623.00,4847.799
1773423000000,71622.90,71658.40,71011.60,71166.60,5750.029
1773423900000,71166.60,71244.20,70862.30,70999.50,7035.916
1773424800000,70999.50,71241.90,70893.10,71180.00,4294.472
1773425700000,71180.10,71232.30,70811.00,71163.10,3492.142
1773426600000,71163.10,71318.80,71144.40,71194.00,1956.111
1773427500000,71194.10,71203.70,70971.00,71020.10,1517.629
1773428400000,71020.00,71246.70,70963.00,71187.20,1512.662
1773429300000,71187.20,71273.10,70980.00,71049.60,1125.660
1773430200000,71049.70,71174.60,71001.00,71108.60,1181.565
1773431100000,71108.50,71238.00,71057.00,71148.00,1924.862
1773432000000,71148.10,71330.90,71111.10,71313.00,886.123
1773432900000,71312.90,71447.20,71200.00,71269.20,1861.189
1773433800000,71269.20,71321.90,71234.50,71278.70,720.985
1773434700000,71278.70,71426.50,71227.20,71307.40,877.564
1773435600000,71307.50,71452.10,71307.50,71367.60,747.590
1773436500000,71367.70,71380.90,71091.70,71124.00,937.080
1773437400000,71123.90,71280.80,71021.20,71082.30,1438.769
1773438300000,71082.30,71211.60,71060.40,71063.10,401.475
1773439200000,71063.10,71150.00,70638.00,70810.70,4179.780
1773440100000,70810.80,70811.00,70568.00,70640.70,1766.429
1773441000000,70640.70,70747.00,70510.80,70682.40,2090.505
1773441900000,70682.40,70785.80,70636.30,70785.80,824.029
1773442800000,70785.70,70795.90,70658.90,70777.00,1313.033
1773443700000,70777.00,70982.90,70760.50,70859.60,1428.554
1773444600000,70859.70,70930.70,70819.50,70906.40,1036.209
1773445500000,70906.30,70959.30,70866.60,70895.50,779.925
1773446400000,70895.50,70895.50,70708.90,70859.20,1094.618
1773447300000,70859.30,70920.00,70750.00,70872.80,818.729
1773448200000,70872.80,70890.70,70520.90,70532.90,2390.827
1773449100000,70532.90,70679.00,70520.50,70600.00,1375.177
1773450000000,70600.00,70737.80,70600.00,70656.70,728.117
1773450900000,70656.70,70771.80,70656.60,70750.60,419.359
1773451800000,70750.60,70801.80,70436.20,70780.00,3113.119
1773452700000,70780.00,70872.50,70773.70,70790.30,749.147
1773453600000,70790.30,70870.00,70747.30,70816.00,659.285
1773454500000,70816.00,70847.60,70741.90,70767.20,625.488
1773455400000,70767.20,70802.80,70690.10,70731.50,417.054
1773456300000,70731.40,70837.30,70693.00,70749.20,652.797
1773457200000,70749.20,70971.30,70749.20,70958.70,1478.773
1773458100000,70958.80,71099.00,70916.80,71000.40,1674.886
1773459000000,71000.50,71141.70,71000.40,71106.20,1216.087
1773459900000,71106.10,71111.10,71005.10,71034.30,497.835
1773460800000,71034.30,71177.00,71020.00,71150.10,854.138
1773461700000,71150.10,71168.00,71052.40,71151.80,732.639
1773462600000,71151.90,71272.30,71080.10,71236.60,1304.528
1773463500000,71236.60,71269.30,70977.00,70996.30,1125.476
1773464400000,70996.30,71096.40,70935.40,71070.10,814.441
1773465300000,71070.10,71119.00,71013.50,71076.30,561.937
1773466200000,71076.20,71082.90,70871.10,70962.10,868.475
1773467100000,70962.10,71004.80,70935.20,70980.70,500.825
1773468000000,70980.70,70980.70,70858.60,70883.10,818.655
1773468900000,70883.10,70883.20,70643.10,70669.90,2111.040
1773469800000,70669.80,70709.20,70256.00,70420.60,4062.306
1773470700000,70420.70,70655.00,70383.20,70591.90,2809.248
1773471600000,70591.90,70686.40,70556.30,70667.70,963.441
1773472500000,70667.70,70668.20,70507.50,70649.60,668.021
1773473400000,70649.60,70706.00,70444.00,70509.20,1103.164
1773474300000,70509.30,70593.90,70444.00,70565.60,1471.405
1773475200000,70565.60,70672.00,70524.70,70661.90,666.937
1773476100000,70661.80,70672.90,70550.00,70636.90,489.985
1773477000000,70636.90,70652.40,70516.10,70519.40,486.234
1773477900000,70519.50,70561.30,70495.00,70550.60,645.913
1773478800000,70550.60,70681.00,70522.20,70665.10,614.470
1773479700000,70665.00,70707.00,70588.00,70649.60,928.549
1773480600000,70649.60,70649.60,70494.40,70582.50,933.535
1773481500000,70582.40,70583.60,70360.00,70474.70,1536.226
1773482400000,70474.70,70530.00,70438.30,70510.10,720.943
1773483300000,70510.00,70510.10,70384.40,70431.90,690.924
1773484200000,70432.00,70518.60,70350.00,70479.80,1093.396
1773485100000,70479.70,70550.70,70479.70,70531.80,484.864
1773486000000,70531.80,70666.40,70521.50,70630.00,864.255
1773486900000,70630.10,70684.70,70614.50,70638.90,564.172
1773487800000,70638.90,70699.40,70590.00,70666.90,449.129
1773488700000,70667.00,70745.10,70657.90,70705.00,634.586
1773489600000,70705.00,70800.00,70655.70,70714.00,1067.767
1773490500000,70714.00,70729.90,70665.00,70677.80,448.255
1773491400000,70677.80,70707.10,70568.00,70601.50,625.513
1773492300000,70601.50,70750.00,70601.50,70733.40,835.949
1773493200000,70733.50,70750.20,70661.00,70720.90,784.781
1773494100000,70720.70,70900.00,70718.70,70870.40,1413.597
1773495000000,70870.40,70878.10,70818.00,70828.70,561.504
1773495900000,70828.70,70899.00,70750.00,70813.40,736.500
1773496800000,70813.30,70914.60,70680.10,70702.60,1223.984
1773497700000,70702.50,70784.90,70651.00,70784.90,430.680
1773498600000,70784.90,70803.30,70537.40,70569.80,901.684
1773499500000,70569.90,70634.50,70532.30,70566.80,653.293
1773500400000,70566.80,70692.50,70525.80,70616.70,695.453
1773501300000,70616.70,70695.70,70583.40,70630.10,630.934
1773502200000,70630.10,70630.10,70444.10,70503.20,1186.564
1773503100000,70503.20,70577.70,70482.60,70554.60,529.133
1773504000000,70554.70,70616.90,70455.60,70545.40,1146.455
1773504900000,70545.40,70625.00,70531.20,70623.20,368.459
1773505800000,70623.20,70663.30,70587.00,70613.70,362.502
1773506700000,70613.60,70674.50,70560.00,70636.70,372.197
1773507600000,70636.70,70657.20,70600.00,70657.10,346.383
1773508500000,70657.20,70707.90,70635.30,70700.00,345.267
1773509400000,70699.90,70700.00,70600.00,70627.90,308.668
1773510300000,70627.90,70631.30,70545.90,70586.10,292.125
1773511200000,70586.20,70586.20,70515.20,70544.10,323.840
1773512100000,70544.10,70595.00,70520.10,70582.60,208.251
1773513000000,70582.60,70640.10,70582.60,70614.90,237.467
1773513900000,70614.80,70662.90,70602.40,70623.50,297.609
1773514800000,70623.50,70661.40,70552.60,70655.10,403.873
1773515700000,70655.00,70680.00,70623.40,70638.90,252.114
1773516600000,70638.80,70690.20,70599.90,70690.20,216.389
1773517500000,70690.20,70705.70,70653.90,70664.10,229.246
1773518400000,70664.10,70672.90,70607.70,70651.30,192.158
1773519300000,70651.30,70735.00,70651.30,70696.40,393.649
1773520200000,70696.40,70835.00,70694.30,70806.90,545.573
1773521100000,70806.90,70822.30,70751.30,70765.30,527.088
1773522000000,70765.30,70765.30,70611.90,70627.20,568.191
1773522900000,70627.20,70683.80,70627.20,70656.10,180.126
1773523800000,70656.10,70727.40,70643.80,70704.90,297.216
1773524700000,70704.90,70784.60,70672.30,70769.60,358.682
1773525600000,70769.50,70772.70,70669.90,70670.00,341.998
1773526500000,70670.00,70736.70,70670.00,70700.00,232.280
1773527400000,70700.00,70771.90,70695.90,70717.00,229.189
1773528300000,70716.90,70717.00,70661.90,70678.50,220.349
1773529200000,70678.50,71071.90,70678.50,70965.40,2499.610
1773530100000,70965.40,71026.70,70865.30,70991.80,774.478
1773531000000,70991.80,71177.70,70987.00,71139.50,1702.445
1773531900000,71139.60,71221.90,71053.80,71174.40,1298.391
1773532800000,71174.40,71174.40,70981.20,71049.90,1038.921
1773533700000,71049.90,71186.80,70958.80,71030.50,823.513
1773534600000,71030.50,71080.10,70931.60,71035.50,516.073
1773535500000,71035.50,71039.50,70912.80,70950.40,413.696
1773536400000,70950.50,70999.00,70841.00,70911.90,815.726
1773537300000,70911.80,70972.60,70867.70,70899.90,361.212
1773538200000,70900.00,70916.00,70815.70,70896.50,477.872
1773539100000,70896.40,71000.00,70855.00,70960.80,512.866
1773540000000,70960.80,71359.40,70960.80,71267.90,2448.264
1773540900000,71267.90,71303.00,71153.90,71232.30,916.813
1773541800000,71232.30,71385.00,71119.10,71375.20,1037.206
1773542700000,71375.10,71599.90,71320.50,71404.40,3702.196
1773543600000,71404.30,71489.60,71369.20,71405.00,873.668
1773544500000,71405.00,71420.20,71271.70,71291.90,1033.144
1773545400000,71291.90,71400.00,71166.30,71288.70,1458.605
1773546300000,71288.70,71316.60,71212.60,71314.80,689.895
1773547200000,71314.80,71589.00,71277.10,71551.60,1954.711
1773548100000,71551.70,71629.60,71456.50,71492.10,1225.189
1773549000000,71492.20,71548.00,71411.20,71541.80,740.632
1773549900000,71541.90,71548.00,71448.30,71546.30,535.976
1773550800000,71546.40,71546.40,71428.10,71500.00,594.409
1773551700000,71499.90,71750.00,71476.50,71589.30,2502.955
1773552600000,71589.30,71650.00,71529.00,71600.00,1085.538
1773553500000,71600.00,71616.60,71436.10,71448.60,1222.848
1773554400000,71448.50,71549.00,71432.10,71518.30,634.421
1773555300000,71518.40,71543.10,71414.80,71425.80,673.723
1773556200000,71425.80,71429.00,71343.50,71376.00,1024.636
1773557100000,71375.90,71445.10,71366.40,71415.20,422.515
1773558000000,71415.10,71626.10,71388.00,71576.80,1799.629
1773558900000,71576.80,71625.00,71526.50,71530.40,490.995
1773559800000,71530.40,71530.50,71400.30,71407.90,564.503
1773560700000,71407.90,71425.00,71370.00,71420.80,558.741
1773561600000,71420.80,71590.60,71420.80,71556.70,880.849
1773562500000,71556.70,71643.70,71506.40,71541.00,766.961
1773563400000,71541.00,71545.60,71457.70,71535.50,361.391
1773564300000,71535.50,71679.90,71535.50,71674.80,1008.246
1773565200000,71674.90,71880.00,71651.70,71779.80,3469.484
1773566100000,71779.70,71897.90,71755.00,71810.00,1297.875
1773567000000,71810.10,71831.80,71674.60,71715.90,715.571
1773567900000,71715.90,71800.00,71654.30,71751.30,566.448
1773568800000,71751.30,71803.80,71676.00,71769.10,595.938
1773569700000,71769.10,71878.90,71750.00,71820.40,523.410
1773570600000,71820.40,71828.00,71740.40,71788.80,402.659
1773571500000,71788.80,71789.40,71737.20,71740.60,386.310
1773572400000,71740.50,71742.60,71653.50,71671.30,791.863
1773573300000,71671.40,71777.00,71612.40,71665.90,940.549
1773574200000,71665.90,71740.00,71623.00,71717.00,599.521
1773575100000,71717.00,71850.00,71695.80,71800.00,796.066
1773576000000,71800.10,71800.10,71657.10,71671.10,545.461
1773576900000,71671.10,71730.20,71618.00,71669.40,591.917
1773577800000,71669.30,71700.30,71526.90,71540.60,846.397
1773578700000,71540.60,71633.70,71532.20,71578.80,674.083
1773579600000,71578.80,71650.00,71220.10,71414.90,3872.749
1773580500000,71415.00,71534.80,71227.40,71487.50,2959.289
1773581400000,71487.50,71560.00,71250.00,71420.60,2835.137
1773582300000,71420.60,71600.00,71362.00,71575.30,1095.613
1773583200000,71575.30,71600.10,71500.00,71545.20,1031.517
1773584100000,71545.10,71545.20,71369.50,71428.20,824.759
1773585000000,71428.20,71457.50,71311.00,71457.50,918.664
1773585900000,71457.60,71592.10,71400.00,71588.00,980.616
1773586800000,71588.00,71590.00,71468.10,71516.60,657.883
1773587700000,71516.70,71576.90,71424.80,71441.60,772.897
1773588600000,71441.60,71517.50,71375.70,71457.30,610.027
1773589500000,71457.20,71485.70,71434.30,71444.40,252.957
1773590400000,71444.40,71556.40,71413.10,71530.10,462.596
1773591300000,71530.10,71534.90,71275.00,71371.90,1675.227
1773592200000,71371.90,71478.40,71281.10,71406.00,1123.146
1773593100000,71405.90,71430.10,71297.70,71405.50,564.313
1773594000000,71405.50,71482.60,71373.30,71450.10,446.270
1773594900000,71450.10,71508.00,71410.50,71477.10,517.386
1773595800000,71477.10,71510.00,71439.10,71493.80,421.737
1773596700000,71493.70,71971.80,71475.50,71788.00,4480.528
1773597600000,71787.90,71856.00,71667.40,71686.80,875.975
1773598500000,71686.80,71756.10,71652.80,71696.50,347.575
1773599400000,71696.50,71800.00,71646.80,71649.90,879.273
1773600300000,71650.00,71673.20,71275.00,71346.80,2751.293
1773601200000,71346.70,71494.70,71300.00,71450.00,1506.649
1773602100000,71449.90,71514.80,71383.70,71483.10,364.181
1773603000000,71483.10,71547.70,71408.90,71448.30,375.632
1773603900000,71448.30,71525.00,71419.60,71515.20,323.718
1773604800000,71515.20,71524.70,71461.00,71497.00,214.512
1773605700000,71497.10,71536.40,71396.40,71449.90,316.694
1773606600000,71450.00,71899.60,71449.90,71810.00,2224.848
1773607500000,71810.00,71850.00,71665.70,71690.10,971.145
1773608400000,71690.00,71715.70,71587.60,71606.40,479.881
1773609300000,71606.30,71777.00,71605.90,71724.80,444.562
1773610200000,71724.80,72200.00,71724.70,72073.70,4354.010
1773611100000,72073.80,72196.90,71972.30,72074.60,989.930
1773612000000,72074.60,72280.00,71738.00,71768.10,3356.439
1773612900000,71768.10,71942.80,71681.40,71896.20,1573.997
1773613800000,71896.30,72470.00,71896.20,72350.10,4379.585
1773614700000,72350.10,73130.20,72350.10,72715.60,7881.246
1773615600000,72715.70,73199.90,72703.80,72966.60,5505.962
1773616500000,72966.60,73100.00,72401.00,72451.20,5882.115
1773617400000,72451.30,72713.20,72376.20,72669.90,2479.700
1773618300000,72669.90,72793.90,72514.20,72778.90,1579.919
1773619200000,72778.80,72980.10,72667.50,72681.00,2684.415
1773620100000,72681.00,72838.60,72462.90,72479.90,1467.793
1773621000000,72479.90,72652.40,72417.90,72482.40,1329.106
1773621900000,72482.30,72632.10,72480.10,72497.40,765.365
1773622800000,72497.40,72592.30,72235.60,72288.30,1882.785
1773623700000,72288.40,72667.50,72288.40,72616.30,1560.468
1773624600000,72616.30,72637.30,72451.30,72557.30,1056.456
1773625500000,72557.30,72819.20,72550.00,72724.10,1225.026
1773626400000,72724.20,72823.50,72633.10,72664.90,891.547
1773627300000,72665.00,72709.20,72350.10,72419.40,1382.936
1773628200000,72419.40,72459.20,72333.00,72408.70,722.154
1773629100000,72408.60,72564.80,72385.20,72481.10,666.746
1773630000000,72481.00,72558.10,72400.00,72489.70,497.936
1773630900000,72489.60,72846.00,72455.00,72822.00,1980.371
1773631800000,72821.90,74307.30,72819.00,73747.10,28004.435
1773632700000,73747.10,73864.30,73507.60,73539.50,4763.382
1773633600000,73539.50,73770.00,73539.40,73655.50,4029.132
1773634500000,73655.50,74026.30,73550.80,73572.80,6003.499
1773635400000,73572.90,73798.10,73572.80,73593.60,3258.349
1773636300000,73593.60,74444.00,73560.50,73799.50,11819.554
1773637200000,73799.40,74062.80,73704.50,73830.00,6185.051
1773638100000,73830.10,73940.70,73751.00,73874.30,2872.234
1773639000000,73874.40,74070.10,73677.90,74014.40,2619.090
1773639900000,74014.40,74237.00,73964.60,74176.50,3515.588
1773640800000,74176.60,74181.40,73549.70,73675.60,4563.683
1773641700000,73675.70,73800.00,73653.40,73683.10,1816.295
1773642600000,73683.10,73825.60,73663.10,73785.70,1162.838
1773643500000,73785.80,73800.10,73672.40,73680.70,767.562
1773644400000,73680.60,73886.00,73628.00,73820.00,1471.582
1773645300000,73819.90,73819.90,73663.80,73800.00,1330.709
1773646200000,73800.00,73836.80,73389.20,73447.90,2493.346
1773647100000,73447.90,73500.00,73345.90,73427.70,2036.645
1773648000000,73427.80,73755.80,73427.70,73480.10,2341.392
1773648900000,73480.00,73538.40,73327.90,73327.90,1626.059
1773649800000,73327.90,73341.00,72841.90,72871.40,4822.022
1773650700000,72871.50,73179.80,72853.90,73098.30,4623.413
1773651600000,73098.40,73183.10,73030.00,73097.70,1043.941
1773652500000,73097.80,73247.10,73097.70,73235.60,1247.433
1773653400000,73235.60,73240.90,73141.20,73157.70,735.997
1773654300000,73157.60,73299.70,73151.20,73219.70,990.989
1773655200000,73219.70,73498.50,73219.60,73298.10,1962.312
1773656100000,73298.20,73460.40,73265.00,73402.10,1010.221
1773657000000,73402.20,73402.20,73159.20,73218.80,1234.223
1773657900000,73218.70,73762.90,73184.50,73745.50,4127.197
1773658800000,73745.50,73856.60,73561.20,73569.40,2243.800
1773659700000,73569.30,73710.70,73501.10,73519.30,1088.155
1773660600000,73519.20,73630.00,73466.30,73577.60,1067.606
1773661500000,73577.50,73633.80,73487.40,73515.30,818.477
1773662400000,73515.30,73768.60,73420.40,73560.10,2455.699
1773663300000,73560.00,73867.60,73443.90,73838.30,3134.823
1773664200000,73838.20,74043.00,73723.80,73771.90,4003.642
1773665100000,73772.00,73850.00,73674.30,73830.00,1283.224
1773666000000,73830.00,73978.60,73800.00,73930.50,1223.112
1773666900000,73930.50,73957.50,73746.30,73869.20,1172.566
1773667800000,73869.10,74481.50,73800.00,74045.70,9097.797
1773668700000,74045.70,74368.90,73823.60,74075.00,4837.393
1773669600000,74075.00,74450.00,73924.30,74250.60,4283.974
1773670500000,74250.90,74346.70,73550.00,73581.00,4009.103
1773671400000,73581.00,73616.80,72926.40,73106.70,13081.497
1773672300000,73106.70,73551.80,72963.10,73519.80,3916.437
1773673200000,73519.80,73769.00,73283.40,73636.20,2913.363
1773674100000,73636.20,73869.00,73520.60,73800.00,2860.679
1773675000000,73800.00,74000.00,73456.30,73513.50,3348.671
1773675900000,73513.50,73584.10,73141.10,73240.20,3628.426
1773676800000,73240.20,73500.00,73122.00,73307.70,2280.897
1773677700000,73307.60,73461.50,73299.60,73388.60,1961.374
1773678600000,73388.60,73650.10,73289.40,73633.40,1843.614
1773679500000,73633.30,73887.50,73566.20,73726.30,2541.329
1773680400000,73726.40,73920.00,73654.20,73801.50,1591.831
1773681300000,73801.60,73856.80,73626.20,73651.70,1013.748
1773682200000,73651.80,73935.60,73614.40,73862.30,2149.540
1773683100000,73862.20,74066.00,73731.00,73911.70,1996.648
1773684000000,73911.70,74310.20,73871.60,74178.50,3420.785
1773684900000,74178.50,74274.90,74070.00,74217.70,1981.736
1773685800000,74217.70,74330.60,73963.90,74170.90,1886.690
1773686700000,74171.00,74171.00,73818.70,73883.00,1815.343
1773687600000,73883.10,74399.90,73715.00,74136.40,3081.494
1773688500000,74136.40,74242.30,73927.90,74080.60,1196.860
1773689400000,74080.60,74220.00,74072.50,74113.00,744.038
1773690300000,74113.10,74121.60,73806.90,73928.80,2439.450
1773691200000,73928.80,73953.40,73819.00,73873.60,818.136
1773692100000,73873.60,74030.00,73835.50,73938.30,808.255
1773693000000,73938.20,74080.00,73938.10,74004.90,657.997
1773693900000,74005.00,74200.00,74005.00,74191.50,1178.915
1773694800000,74191.40,74479.50,74094.30,74317.50,3375.817
1773695700000,74317.60,74434.40,74151.40,74237.00,1379.711
1773696600000,74237.00,74777.70,74211.40,74399.80,6371.468
1773697500000,74399.90,74580.00,74303.20,74360.30,1680.696
1773698400000,74360.30,74875.00,74331.80,74837.30,4307.426
1773699300000,74837.30,74870.10,74536.90,74613.00,2531.178
1773700200000,74613.10,74747.10,74571.60,74725.20,1110.170
1773701100000,74725.20,74830.00,74636.30,74718.90,1431.833
1773702000000,74719.00,74729.50,74201.10,74356.10,3841.636
1773702900000,74356.20,74584.00,74356.10,74569.10,1356.030
1773703800000,74569.00,74855.20,74555.40,74835.20,1476.304
1773704700000,74835.20,74880.00,74629.20,74846.40,1746.320
1773705600000,74846.40,75441.90,74567.10,75376.90,10014.150
1773706500000,75376.90,75488.00,74805.00,75048.70,5059.047
1773707400000,75048.60,75199.00,74872.90,74960.90,2533.490
1773708300000,74960.80,75286.10,74879.40,75283.90,1279.975
1773709200000,75283.80,75957.80,75028.50,75814.00,7775.549
1773710100000,75814.10,75988.00,75575.90,75899.90,3880.177
1773711000000,75900.00,75998.90,75466.00,75635.20,3748.357
1773711900000,75635.20,75747.60,75417.80,75584.70,2368.209
1773712800000,75584.60,75641.30,75090.00,75212.00,3822.625
1773713700000,75212.50,75243.40,75068.00,75128.20,1468.985
1773714600000,75128.30,75431.10,75080.00,75358.00,1484.722
1773715500000,75358.10,75381.00,75100.60,75157.30,1262.051
1773716400000,75157.30,75287.90,74895.20,74904.80,1903.479
1773717300000,74904.90,74970.70,74700.30,74796.20,2374.046
1773718200000,74796.20,74807.00,74292.30,74392.10,5514.489
1773719100000,74392.10,74525.20,74231.60,74424.90,3986.477
1773720000000,74424.90,74644.90,74389.20,74642.00,2903.618
1773720900000,74642.00,74652.20,74250.00,74390.60,2312.050
1773721800000,74390.60,74473.40,73943.30,74019.50,6359.642
1773722700000,74019.40,74260.00,74007.00,74203.30,2028.527
1773723600000,74203.30,74350.20,74050.00,74237.50,2265.011
1773724500000,74237.40,74387.50,74148.00,74364.80,1502.976
1773725400000,74364.90,74428.70,73823.20,73888.70,3549.298
1773726300000,73888.70,74066.00,73723.40,73996.00,3222.847
1773727200000,73996.00,74125.00,73835.40,74107.30,2107.125
1773728100000,74107.20,74242.00,74037.60,74171.20,1418.668
1773729000000,74171.20,74238.90,73926.00,73968.40,1673.958
1773729900000,73968.50,74061.20,73907.70,74045.10,1139.120
1773730800000,74045.00,74320.90,74026.30,74285.80,1241.046
1773731700000,74285.90,74415.70,74273.80,74357.10,1753.132
1773732600000,74357.10,74365.80,74255.40,74357.10,720.393
1773733500000,74357.10,74357.20,74181.60,74212.70,717.617
1773734400000,74212.80,74418.50,74129.80,74182.40,1401.711
1773735300000,74182.40,74372.20,74057.50,74269.50,794.512
1773736200000,74269.60,74397.90,74126.50,74355.30,1162.455
1773737100000,74355.30,74385.00,74090.00,74150.00,1086.265
1773738000000,74150.10,74216.80,73960.80,74001.90,1418.146
1773738900000,74001.80,74362.00,73943.90,74264.90,2335.276
1773739800000,74264.80,74290.70,74083.20,74142.70,977.811
1773740700000,74142.60,74142.70,73791.80,73890.10,1654.626
1773741600000,73890.00,73922.20,73512.00,73650.10,4326.789
1773742500000,73650.00,73812.70,73540.00,73718.40,2684.311
1773743400000,73718.40,73759.70,73567.10,73710.10,2740.034
1773744300000,73710.00,73746.10,73610.70,73706.10,1368.100
1773745200000,73705.80,73978.80,73651.10,73895.50,2144.609
1773746100000,73895.50,74065.00,73850.00,73973.10,2074.233
1773747000000,73973.00,74100.00,73904.90,74083.20,1708.286
1773747900000,74083.30,74230.70,73978.20,73997.10,1606.751
1773748800000,73997.10,74150.00,73977.00,74027.60,1196.384
1773749700000,74027.60,74115.30,73737.90,73764.00,2653.339
1773750600000,73764.10,73890.00,73652.40,73808.90,2562.370
1773751500000,73808.90,73808.90,73643.50,73711.10,1189.969
1773752400000,73711.00,73828.20,73650.00,73810.90,1209.129
1773753300000,73811.00,73850.00,73625.80,73677.60,1284.656
1773754200000,73677.60,74167.20,73646.20,73681.70,8152.076
1773755100000,73681.70,73844.00,73330.30,73580.60,6069.319
1773756000000,73580.70,73769.00,73389.00,73683.40,2331.877
1773756900000,73683.30,73898.40,73486.00,73853.20,1886.941
1773757800000,73853.30,74260.10,73851.30,74198.90,3619.560
1773758700000,74198.90,74388.00,74053.90,74340.20,3662.789
1773759600000,74340.20,74856.20,74043.00,74072.00,8103.643
1773760500000,74072.00,74250.00,73935.60,74009.40,2401.764
1773761400000,74009.40,74118.60,73616.20,73857.30,3720.424
1773762300000,73857.10,74030.40,73668.20,73878.50,1649.884
1773763200000,73878.50,74120.00,73826.80,73928.10,1516.954
1773764100000,73928.00,74314.00,73902.80,74160.00,2294.716
1773765000000,74160.10,74188.00,73944.40,74093.10,1715.867
1773765900000,74093.10,74220.60,73966.70,74120.00,1500.308
1773766800000,74120.00,74250.90,73961.50,74166.00,1645.241
1773767700000,74166.00,74405.70,74120.00,74244.10,3124.952
1773768600000,74244.10,74449.80,74155.50,74378.30,953.427
1773769500000,74378.30,74555.00,74317.70,74480.10,1995.165
1773770400000,74480.10,74633.00,74400.00,74545.10,1826.442
1773771300000,74545.20,74614.30,74330.80,74374.00,1708.207
1773772200000,74373.90,74687.60,74366.50,74568.70,1880.672
1773773100000,74568.60,74723.70,74528.50,74637.00,1307.694
1773774000000,74637.10,74763.60,74593.80,74695.50,1339.869
1773774900000,74695.60,74757.00,74466.70,74586.30,1688.843
1773775800000,74586.30,74728.90,74479.40,74622.80,1310.468
1773776700000,74622.80,74647.40,74364.40,74460.80,1503.392
1773777600000,74460.80,74468.30,74325.00,74329.90,1231.381
1773778500000,74330.00,74648.60,74329.90,74614.90,751.158
1773779400000,74615.00,74615.00,74459.10,74505.40,715.415
1773780300000,74505.70,74542.60,74437.60,74469.90,427.548
1773781200000,74470.00,74749.80,74413.10,74667.00,1226.806
1773782100000,74667.00,74688.00,74521.00,74527.20,652.047
1773783000000,74527.10,74777.00,74461.10,74700.10,1488.727
1773783900000,74700.00,74748.40,74614.80,74650.30,361.921
1773784800000,74650.20,74739.40,74521.90,74544.70,885.171
1773785700000,74544.80,74558.00,74330.00,74330.10,740.912
1773786600000,74330.00,74356.00,73893.50,74123.80,3429.186
1773787500000,74123.80,74312.30,74097.60,74265.80,784.199
1773788400000,74265.80,74360.00,74177.50,74278.40,681.800
1773789300000,74278.50,74292.60,74050.00,74151.60,693.886
1773790200000,74151.50,74151.50,73888.00,73911.20,1013.013
1773791100000,73911.20,74025.70,73829.50,73872.40,1314.691
1773792000000,73872.30,74027.80,73763.00,73953.50,1541.411
1773792900000,73953.50,73975.80,73619.40,73736.50,2029.957
1773793800000,73736.40,73768.10,73492.00,73691.80,1872.285
1773794700000,73691.80,73845.20,73691.80,73821.30,889.368
1773795600000,73821.30,73959.40,73780.00,73869.90,1064.948
1773796500000,73869.90,74013.40,73814.00,73972.20,822.410
1773797400000,73972.20,74165.00,73972.00,74104.10,1226.035
1773798300000,74104.00,74167.50,73965.40,74035.20,652.666
1773799200000,74035.20,74244.20,73999.20,74241.40,996.484
1773800100000,74241.30,74258.70,74133.70,74181.80,592.157
1773801000000,74181.90,74376.00,74150.00,74370.00,862.581
1773801900000,74370.00,74437.00,74286.00,74300.00,847.422
1773802800000,74299.90,74361.40,74202.00,74231.50,830.130
1773803700000,74231.50,74587.90,74227.80,74480.00,1600.218
1773804600000,74480.00,74633.00,74404.50,74449.10,1231.626
1773805500000,74449.20,74485.00,74370.00,74414.60,793.389
1773806400000,74414.70,74455.70,74356.30,74396.00,590.593
1773807300000,74396.00,74400.00,74210.80,74219.90,940.190
1773808200000,74219.80,74219.90,74130.00,74189.30,1064.819
1773809100000,74189.30,74224.60,74100.00,74139.60,681.418
1773810000000,74139.50,74271.00,74119.90,74244.00,919.028
1773810900000,74244.00,74253.20,74005.00,74027.70,752.461
1773811800000,74027.70,74118.60,73955.50,73959.20,957.960
1773812700000,73959.30,74025.50,73785.00,73911.20,2097.221
1773813600000,73911.20,74072.10,73901.10,74049.60,989.415
1773814500000,74049.70,74190.10,73990.00,74138.30,946.377
1773815400000,74138.20,74176.00,73962.70,74011.10,701.187
1773816300000,74011.00,74066.90,73892.00,73910.00,652.530
1773817200000,73910.10,73959.40,73816.00,73941.20,891.521
1773818100000,73941.00,73950.70,73763.00,73804.60,839.674
1773819000000,73804.50,73804.60,73636.50,73673.60,1786.107
1773819900000,73673.50,73874.60,73652.30,73840.00,1246.816
1773820800000,73840.10,73985.00,73814.30,73969.70,1199.263
1773821700000,73969.60,74031.40,73922.00,73996.60,959.397
1773822600000,73996.50,74069.30,73924.80,74039.20,849.788
1773823500000,74039.10,74080.10,73971.10,74005.80,898.960
1773824400000,74005.90,74152.50,73991.10,74122.60,792.815
1773825300000,74122.60,74184.50,74071.90,74113.40,768.314
1773826200000,74113.40,74246.20,74093.40,74204.00,926.029
1773827100000,74203.90,74237.10,74071.10,74136.00,717.956
1773828000000,74136.00,74220.00,74051.90,74204.90,734.140
1773828900000,74205.00,74205.00,74128.00,74135.10,358.214
1773829800000,74135.00,74166.70,73820.00,73837.60,1419.604
1773830700000,73837.70,73907.00,73761.50,73895.00,1609.289
1773831600000,73895.00,74034.80,73680.50,73910.20,1809.568
1773832500000,73910.20,73972.60,73499.30,73555.90,2439.391
1773833400000,73555.90,73560.50,72731.60,73065.70,15266.646
1773834300000,73065.80,73110.50,72842.20,72906.40,3572.372
1773835200000,72906.40,72947.40,72613.50,72718.20,4840.544
1773836100000,72718.20,72851.30,72655.00,72782.20,3276.854
1773837000000,72782.20,72782.20,72250.00,72393.20,9048.116
1773837900000,72393.20,72458.50,72237.50,72325.10,3948.787
1773838800000,72325.10,72425.70,72088.00,72400.10,7762.733
1773839700000,72400.00,72507.80,72266.10,72444.90,3239.130
1773840600000,72445.00,72547.50,72188.80,72299.40,5262.275
1773841500000,72299.30,72349.00,71938.60,72104.40,6713.390
1773842400000,72104.50,72194.10,71826.70,71846.90,4580.696
1773843300000,71846.80,71997.70,71550.00,71620.70,6127.952
1773844200000,71620.70,71842.70,71444.00,71467.20,5846.937
1773845100000,71467.30,71587.50,70975.10,71160.30,8784.384
1773846000000,71160.40,71455.90,70821.20,71036.40,12422.562
1773846900000,71036.50,71300.00,70964.30,71260.00,5052.378
1773847800000,71260.00,71476.60,71179.90,71328.30,4540.955
1773848700000,71328.40,71497.00,71173.80,71436.40,2844.952
1773849600000,71436.30,71536.00,71130.10,71214.10,3634.002
1773850500000,71214.20,71306.90,71061.40,71199.50,2078.451
1773851400000,71199.50,71266.00,71001.80,71251.40,2123.297
1773852300000,71251.30,71438.30,71224.40,71289.50,2454.230
1773853200000,71289.50,71365.10,71164.70,71256.60,1616.702
1773854100000,71256.90,71486.00,71170.00,71446.70,1475.702
1773855000000,71446.80,71698.00,71311.70,71555.50,2904.827
1773855900000,71555.40,71722.20,71519.00,71556.60,1935.193
1773856800000,71556.60,71980.50,71553.30,71843.80,4964.965
1773857700000,71843.80,71843.80,71517.60,71649.90,2578.526
1773858600000,71650.00,71814.20,71436.50,71576.20,1860.387
1773859500000,71576.40,71576.40,70904.50,71066.50,4947.662
1773860400000,71066.50,71392.10,71046.00,71298.20,2417.519
1773861300000,71298.30,71460.30,71163.50,71248.80,1309.853
1773862200000,71248.90,71327.90,70955.60,71026.60,2942.410
1773863100000,71026.50,71114.60,70858.30,71030.30,1546.771
1773864000000,71030.30,71030.30,70456.00,70716.30,6988.743
1773864900000,70716.20,70999.00,70688.50,70945.30,2708.593
1773865800000,70945.40,71298.00,70913.20,71129.90,2802.860
1773866700000,71129.90,71293.10,71088.10,71172.30,864.240
1773867600000,71172.30,71438.10,71145.20,71245.00,1219.531
1773868500000,71245.00,71339.00,71201.10,71203.40,670.943
1773869400000,71203.40,71378.20,71127.50,71292.50,653.613
1773870300000,71292.60,71329.70,71219.60,71219.70,613.924
1773871200000,71219.70,71233.20,70920.00,70966.00,1541.793
1773872100000,70966.10,71090.30,70929.80,71056.50,778.583
1773873000000,71056.50,71086.60,70899.90,71027.40,672.093
1773873900000,71027.50,71118.00,70984.60,71118.00,561.323
1773874800000,71117.90,71234.00,71024.80,71121.40,1078.674
1773875700000,71121.40,71179.20,71036.30,71171.30,481.730
1773876600000,71171.40,71314.40,71171.30,71237.10,815.276
1773877500000,71237.10,71333.10,71171.70,71202.90,988.258
1773878400000,71202.90,71274.00,71048.40,71148.70,1314.013
1773879300000,71148.70,71283.30,71052.10,71261.70,669.905
1773880200000,71261.70,71265.80,71005.50,71031.60,882.157
1773881100000,71031.60,71087.20,70940.00,70970.10,1027.495
1773882000000,70970.00,71078.60,70930.00,70970.00,816.913
1773882900000,70970.10,71048.40,70921.50,71040.10,598.549
1773883800000,71040.00,71132.20,70970.90,71103.70,747.254
1773884700000,71103.70,71149.90,71049.10,71078.50,528.553
1773885600000,71078.50,71183.80,70858.40,71147.00,1131.836
1773886500000,71147.00,71221.00,71101.80,71221.00,805.824
1773887400000,71220.90,71226.70,71130.00,71170.20,580.240
1773888300000,71170.20,71184.40,71001.10,71020.60,663.317
1773889200000,71020.70,71208.10,71020.70,71156.20,687.227
1773890100000,71156.30,71598.30,71150.00,71462.30,3863.228
1773891000000,71462.40,71504.80,71200.00,71211.80,1499.798
1773891900000,71211.90,71283.70,71164.80,71180.00,989.991
1773892800000,71180.00,71180.00,70688.00,70835.90,3203.589
1773893700000,70836.00,70908.70,70625.90,70700.00,1850.751
1773894600000,70699.90,70807.20,70619.30,70756.80,1687.693
1773895500000,70756.70,70848.60,70700.40,70790.70,618.025
1773896400000,70790.70,70879.00,70720.00,70779.50,861.049
1773897300000,70779.40,70853.40,70643.50,70658.30,751.906
1773898200000,70658.20,70848.10,70608.10,70750.10,959.181
1773899100000,70750.20,70820.00,70683.10,70792.80,701.356
1773900000000,70792.70,70945.50,70681.20,70837.30,1126.320
1773900900000,70837.20,70902.50,70686.30,70692.20,829.500
1773901800000,70692.20,70725.40,70522.60,70689.30,1722.412
1773902700000,70689.20,70706.30,70468.00,70552.40,1965.974
1773903600000,70552.40,70570.00,69907.10,69940.40,10777.787
1773904500000,69940.30,69999.00,69421.10,69769.80,11405.613
1773905400000,69769.80,70199.90,69746.50,70056.20,4308.121
1773906300000,70056.20,70270.00,69958.00,70145.10,3183.134
1773907200000,70145.00,70255.00,70056.10,70131.30,1910.739
1773908100000,70131.30,70197.00,70029.30,70029.30,1552.881
1773909000000,70029.40,70138.00,69860.30,69988.30,5467.974
1773909900000,69988.20,70104.30,69890.60,69957.40,1313.265
1773910800000,69957.40,70135.20,69950.00,70006.90,1175.675
1773911700000,70006.90,70433.60,69967.70,70223.80,3514.896
1773912600000,70223.80,70441.80,70048.20,70413.50,2653.567
1773913500000,70413.50,70535.00,70380.00,70463.00,2106.353
1773914400000,70463.00,70499.00,70363.90,70382.10,1197.595
1773915300000,70382.20,70469.20,70324.80,70369.50,717.538
1773916200000,70369.50,70381.60,70149.60,70189.90,1155.931
1773917100000,70189.90,70242.20,70082.40,70102.00,931.708
1773918000000,70102.10,70238.70,70034.80,70101.80,1158.633
1773918900000,70101.70,70204.90,70086.90,70163.00,760.938
1773919800000,70163.10,70214.40,69968.40,69993.40,1492.585
1773920700000,69993.50,70041.20,69872.30,69926.80,1588.148
1773921600000,69926.80,69926.80,69568.10,69773.10,5841.268
1773922500000,69773.10,69793.80,69523.90,69577.50,2331.327
1773923400000,69577.50,69748.60,69512.10,69606.70,1953.554
1773924300000,69606.60,69633.00,69069.00,69264.60,5754.237
1773925200000,69264.70,69428.10,69050.00,69067.40,5187.056
1773926100000,69067.30,69491.50,69053.90,69312.00,2750.126
1773927000000,69311.90,69797.00,69209.30,69673.40,4973.616
1773927900000,69673.30,70058.00,69514.00,69866.30,5030.774
1773928800000,69866.20,70144.60,69453.10,69478.40,4308.089
1773929700000,69478.30,69528.60,69097.10,69134.60,3601.100
1773930600000,69134.70,69339.20,69060.00,69250.00,3399.473
1773931500000,69250.10,69560.10,69161.90,69450.10,4133.458
1773932400000,69450.00,69879.10,69413.20,69664.60,4164.907
1773933300000,69664.60,69777.00,69168.00,69168.10,3659.814
1773934200000,69168.00,69350.00,68844.80,68862.40,7656.457
1773935100000,68862.40,69535.60,68750.00,69372.70,8120.677
1773936000000,69372.80,69502.60,69166.80,69307.00,2606.531
1773936900000,69306.90,69576.80,69124.00,69497.20,3576.883
1773937800000,69497.20,69611.60,69225.80,69485.80,2122.833
1773938700000,69485.70,69511.90,69250.00,69426.30,1305.718
1773939600000,69426.30,69462.90,69065.40,69194.00,2189.889
1773940500000,69194.00,69723.90,69150.20,69631.20,2567.333
1773941400000,69631.10,69737.00,69452.80,69550.10,1395.289
1773942300000,69550.00,69938.10,69513.80,69820.00,2357.314
1773943200000,69820.00,69900.00,69686.00,69800.00,1180.082
1773944100000,69800.10,69884.00,69572.70,69627.60,1116.065
1773945000000,69627.50,69732.40,69566.00,69683.00,823.539
1773945900000,69683.00,69822.00,69547.70,69787.50,773.440
1773946800000,69787.40,70517.30,69765.50,70316.30,6978.078
1773947700000,70316.40,70563.50,70190.90,70243.10,4156.669
1773948600000,70243.10,70459.60,70122.00,70408.10,2493.358
1773949500000,70408.50,70408.50,70138.00,70233.10,1252.000
1773950400000,70233.00,70298.00,70160.90,70253.90,804.464
1773951300000,70253.90,70443.40,70253.90,70300.00,849.886
1773952200000,70299.90,70655.20,70279.80,70472.00,1517.663
1773953100000,70471.90,70493.80,70390.80,70444.30,834.949
1773954000000,70444.40,70654.40,70409.40,70647.00,829.107
1773954900000,70647.10,70647.10,70469.40,70510.40,814.074
